{"nodes": [{"id": "2511639", "lat": 52.71869, "lon": 6.84897, "name": "Nieuw Amsterdam"}, {"id": "2511592", "lat": 52.69185, "lon": 6.19788, "name": "Meppel"}, {"id": "2511991", "lat": 53.04012, "lon": 5.66271, "name": "Sneek Noord"}, {"id": "2511444", "lat": 52.16728, "lon": 4.48307, "name": "Leiden Centraal"}, {"id": "2510581", "lat": 52.53455, "lon": 5.72076, "name": "Dronten"}, {"id": "2511187", "lat": 52.65336, "lon": 5.08483, "name": "Hoorn Kersenboogerd"}, {"id": "2510604", "lat": 51.99091, "lon": 4.3647, "name": "Delft Campus"}, {"id": "2511078", "lat": 53.21884, "lon": 5.93443, "name": "Hurdegaryp"}, {"id": "2511758", "lat": 51.99477, "lon": 5.84068, "name": "Oosterbeek"}, {"id": "2512455", "lat": 52.50454, "lon": 6.09108, "name": "Zwolle"}, {"id": "2510639", "lat": 52.14723, "lon": 4.45627, "name": "De Vink"}, {"id": "2510988", "lat": 51.42004, "lon": 5.55066, "name": "Geldrop"}, {"id": "2511554", "lat": 48.86816, "lon": 2.78212, "name": "Marne-la-Vallee-Chessy"}, {"id": "2510344", "lat": 52.69506, "lon": 5.23614, "name": "Bovenkarspel-Grootebroek"}, {"id": "2511057", "lat": 50.90559, "lon": 5.93008, "name": "Hoensbroek"}, {"id": "2511863", "lat": 51.54017, "lon": 4.45839, "name": "Roosendaal"}, {"id": "2512387", "lat": 53.33021, "lon": 6.52025, "name": "Winsum"}, {"id": "2510387", "lat": 52.12826, "lon": 5.60303, "name": "Barneveld Zuid"}, {"id": "2510077", "lat": 52.35713, "lon": 6.65517, "name": "Almelo"}, {"id": "2512435", "lat": 51.80812, "lon": 5.26338, "name": "Zaltbommel"}, {"id": "2512299", "lat": 51.9372, "lon": 6.45819, "name": "Varsseveld"}, {"id": "2511273", "lat": 52.22622, "lon": 5.18188, "name": "Hilversum"}, {"id": "2512181", "lat": 52.09882, "lon": 5.06528, "name": "Utrecht Leidsche Rijn"}, {"id": "2511183", "lat": 52.64507, "lon": 5.05465, "name": "Hoorn"}, {"id": "2512099", "lat": 51.88975, "lon": 5.42291, "name": "Tiel"}, {"id": "2511635", "lat": 51.30422, "lon": 5.6303, "name": "Maarheeze"}, {"id": "2510690", "lat": 51.54697, "lon": 7.51024, "name": "Dortmund-Kirchderne"}, {"id": "2512239", "lat": 52.45761, "lon": 6.56952, "name": "Vroomshoop"}, {"id": "2511743", "lat": 51.92593, "lon": 5.63792, "name": "Opheusden"}, {"id": "2511056", "lat": 50.90566, "lon": 5.93016, "name": "Hoensbroek"}, {"id": "2511686", "lat": 51.8627, "lon": 5.85957, "name": "Nijmegen Lent"}, {"id": "2512436", "lat": 51.80812, "lon": 5.26323, "name": "Zaltbommel"}, {"id": "2511421", "lat": 45.57062, "lon": 6.73582, "name": "Landry"}, {"id": "2510913", "lat": 52.01503, "lon": 4.74101, "name": "Gouda Goverwelle"}, {"id": "2511153", "lat": 52.38293, "lon": 4.67159, "name": "Haarlem Spaarnwoude"}, {"id": "2511034", "lat": 53.08964, "lon": 5.82247, "name": "Grou-Jirnsum"}, {"id": "2511024", "lat": 52.09051, "lon": 4.36909, "name": "Den Haag Mariahoeve"}, {"id": "2510624", "lat": 52.25024, "lon": 6.21435, "name": "Deventer Colmschate"}, {"id": "2512355", "lat": 52.39083, "lon": 6.14099, "name": "Wijhe"}, {"id": "2510277", "lat": 50.89664, "lon": 5.73676, "name": "Bunde"}, {"id": "2509997", "lat": 51.98506, "lon": 5.90035, "name": "Arnhem Centraal"}, {"id": "2511512", "lat": 52.08511, "lon": 5.62438, "name": "Lunteren"}, {"id": "2510793", "lat": 52.22232, "lon": 6.88822, "name": "Enschede"}, {"id": "2510600", "lat": 51.95919, "lon": 6.26025, "name": "Doetinchem De Huet"}, {"id": "2510293", "lat": 51.19954, "lon": 4.43241, "name": "Antwerpen-Berchem"}, {"id": "2510808", "lat": 51.69299, "lon": 7.45489, "name": "Selm-Beifang"}, {"id": "2510165", "lat": 52.37927, "lon": 4.9008, "name": "Amsterdam Centraal"}, {"id": "2512463", "lat": 52.50496, "lon": 6.0915, "name": "Zwolle"}, {"id": "2511715", "lat": 52.67802, "lon": 4.90878, "name": "Obdam"}, {"id": "2510963", "lat": 53.21073, "lon": 6.56565, "name": "Groningen"}, {"id": "2510947", "lat": 51.3798, "lon": 4.46733, "name": "Kijkuit"}, {"id": "2510756", "lat": 52.03502, "lon": 7.08846, "name": "Legden"}, {"id": "2511370", "lat": 52.55976, "lon": 5.9216, "name": "Kampen"}, {"id": "2510117", "lat": 52.2051, "lon": 6.00087, "name": "Apeldoorn De Maten"}, {"id": "2512089", "lat": 51.56521, "lon": 5.04958, "name": "Tilburg Universiteit"}, {"id": "2511797", "lat": 52.26547, "lon": 5.57572, "name": "Putten"}, {"id": "2512221", "lat": 50.88689, "lon": 5.92937, "name": "Voerendaal"}, {"id": "2511448", "lat": 52.16591, "lon": 4.48109, "name": "Leiden Centraal"}, {"id": "2511166", "lat": 51.47048, "lon": 5.70183, "name": "Helmond Brouwhuis"}, {"id": "2511941", "lat": 50.94333, "lon": 5.84996, "name": "Spaubeek"}, {"id": "2512083", "lat": 51.57369, "lon": 4.99358, "name": "Tilburg Reeshof"}, {"id": "2510082", "lat": 52.35717, "lon": 6.65528, "name": "Almelo"}, {"id": "2510971", "lat": 53.2104, "lon": 6.56415, "name": "Groningen"}, {"id": "2510517", "lat": 51.80721, "lon": 4.66766, "name": "Dordrecht"}, {"id": "2510372", "lat": 52.29855, "lon": 6.74847, "name": "Borne"}, {"id": "2509990", "lat": 51.98476, "lon": 5.90013, "name": "Arnhem Centraal"}, {"id": "2511223", "lat": 53.17541, "lon": 6.61786, "name": "Haren"}, {"id": "2510130", "lat": 52.12461, "lon": 4.65727, "name": "Alphen a/d Rijn"}, {"id": "2511002", "lat": 52.06991, "lon": 4.32211, "name": "Den Haag HS"}, {"id": "2512284", "lat": 51.44449, "lon": 3.59581, "name": "Vlissingen"}, {"id": "2511819", "lat": 53.42103, "lon": 6.75839, "name": "Roodeschool"}, {"id": "2510545", "lat": 52.14044, "lon": 5.24271, "name": "Den Dolder"}, {"id": "2511246", "lat": 51.68923, "lon": 5.29307, "name": "Hertogenbosch ('s)"}, {"id": "2510746", "lat": 52.69955, "lon": 5.28805, "name": "Enkhuizen"}, {"id": "2511642", "lat": 52.28108, "lon": 5.15722, "name": "Naarden-Bussum"}, {"id": "2511925", "lat": 51.90402, "lon": 4.51062, "name": "Rotterdam Zuid"}, {"id": "2512510", "lat": 51.92319, "lon": 6.07184, "name": "Zevenaar"}, {"id": "2512195", "lat": 52.1003, "lon": 5.04387, "name": "Utrecht Terwijde"}, {"id": "2510204", "lat": 52.33889, "lon": 4.87282, "name": "Amsterdam Zuid"}, {"id": "2510918", "lat": 51.88306, "lon": 5.27161, "name": "Geldermalsen"}, {"id": "2510967", "lat": 53.2105, "lon": 6.56281, "name": "Groningen"}, {"id": "2510603", "lat": 51.99094, "lon": 4.36484, "name": "Delft Campus"}, {"id": "2509991", "lat": 51.98502, "lon": 5.89847, "name": "Arnhem Centraal"}, {"id": "2509992", "lat": 51.9847, "lon": 5.90065, "name": "Arnhem Centraal"}, {"id": "2509994", "lat": 51.98515, "lon": 5.89853, "name": "Arnhem Centraal"}, {"id": "2511879", "lat": 52.03936, "lon": 4.31963, "name": "Rijswijk"}, {"id": "2511162", "lat": 51.47555, "lon": 5.66167, "name": "Helmond"}, {"id": "2512474", "lat": 52.50509, "lon": 6.09006, "name": "Zwolle"}, {"id": "2511097", "lat": 52.26189, "lon": 6.79449, "name": "Hengelo"}, {"id": "2510516", "lat": 51.80713, "lon": 4.66914, "name": "Dordrecht"}, {"id": "2510775", "lat": 52.16241, "lon": 7.25441, "name": "Metelen Land"}, {"id": "2511845", "lat": 51.19289, "lon": 5.9941, "name": "Roermond"}, {"id": "2510419", "lat": 52.20824, "lon": 5.2813, "name": "Baarn"}, {"id": "2511082", "lat": 52.9566, "lon": 4.76065, "name": "Den Helder"}, {"id": "2510576", "lat": 52.4428, "lon": 4.63889, "name": "Driehuis"}, {"id": "2510061", "lat": 52.15368, "lon": 5.37056, "name": "Amersfoort Centraal"}, {"id": "2510146", "lat": 52.31254, "lon": 4.94706, "name": "Amsterdam Bijlmer ArenA"}, {"id": "2511287", "lat": 52.6704, "lon": 4.8238, "name": "Heerhugowaard"}, {"id": "2516423", "lat": 52.08368, "lon": 4.29173, "name": "Den Haag, Zoutmanstraat"}, {"id": "2510159", "lat": 52.37911, "lon": 4.90065, "name": "Amsterdam Centraal"}, {"id": "2510060", "lat": 52.15368, "lon": 5.37301, "name": "Amersfoort Centraal"}, {"id": "2512529", "lat": 52.46914, "lon": 4.8051, "name": "Zaandijk Zaanse Schans"}, {"id": "2510064", "lat": 52.15383, "lon": 5.37054, "name": "Amersfoort Centraal"}, {"id": "2511438", "lat": 52.16711, "lon": 4.48347, "name": "Leiden Centraal"}, {"id": "2510790", "lat": 52.2223, "lon": 6.88958, "name": "Enschede"}, {"id": "2511685", "lat": 51.8627, "lon": 5.85974, "name": "Nijmegen Lent"}, {"id": "2511023", "lat": 52.09056, "lon": 4.36903, "name": "Den Haag Mariahoeve"}, {"id": "2511775", "lat": 48.57374, "lon": 13.45048, "name": "Passau Hbf"}, {"id": "2510849", "lat": 50.38324, "lon": 8.09501, "name": "Limburg Sud"}, {"id": "2511179", "lat": 51.92223, "lon": 5.67395, "name": "Hemmen-Dodewaard"}, {"id": "2511889", "lat": 51.91991, "lon": 4.48939, "name": "Rotterdam Blaak"}, {"id": "2511182", "lat": 52.645, "lon": 5.05463, "name": "Hoorn"}, {"id": "2511284", "lat": 52.21697, "lon": 5.18746, "name": "Hilversum Sportpark"}, {"id": "2510136", "lat": 51.5015, "lon": 3.66873, "name": "Arnemuiden"}, {"id": "2511340", "lat": 50.35109, "lon": 7.58863, "name": "Koblenz Hbf"}, {"id": "2511350", "lat": 50.44485, "lon": 7.82565, "name": "Montabaur"}, {"id": "2511653", "lat": 50.91973, "lon": 5.89268, "name": "Nuth"}, {"id": "2511874", "lat": 52.31201, "lon": 6.52001, "name": "Rijssen"}, {"id": "2510970", "lat": 53.21052, "lon": 6.5657, "name": "Groningen"}, {"id": "2511017", "lat": 52.08023, "lon": 4.32556, "name": "Den Haag Centraal"}, {"id": "2511060", "lat": 51.82961, "lon": 4.81545, "name": "Hardinxveld Blauwe Zoom"}, {"id": "2511802", "lat": 52.33703, "lon": 4.88953, "name": "Amsterdam RAI"}, {"id": "2510046", "lat": 52.40304, "lon": 5.30018, "name": "Almere Oostvaarders"}, {"id": "2510588", "lat": 52.00738, "lon": 4.35689, "name": "Delft"}, {"id": "2511398", "lat": 53.16145, "lon": 6.72357, "name": "Kropswolde"}, {"id": "2510129", "lat": 52.12463, "lon": 4.65734, "name": "Alphen a/d Rijn"}, {"id": "2510957", "lat": 53.2108, "lon": 6.56275, "name": "Groningen"}, {"id": "2512257", "lat": 51.3648, "lon": 6.17101, "name": "Venlo"}, {"id": "2511929", "lat": 51.28302, "lon": 6.07935, "name": "Reuver"}, {"id": "2511029", "lat": 52.05459, "lon": 4.30847, "name": "Den Haag Moerwijk"}, {"id": "2510384", "lat": 52.16144, "lon": 5.59785, "name": "Barneveld Noord"}, {"id": "2512430", "lat": 53.15941, "lon": 6.86753, "name": "Zuidbroek"}, {"id": "2510537", "lat": 51.93344, "lon": 6.13268, "name": "Didam"}, {"id": "2510914", "lat": 52.01497, "lon": 4.741, "name": "Gouda Goverwelle"}, {"id": "2510356", "lat": 52.40396, "lon": 4.62756, "name": "Bloemendaal"}, {"id": "2510686", "lat": 51.56723, "lon": 7.52836, "name": "Dortmund-Derne"}, {"id": "2512336", "lat": 52.36155, "lon": 6.59227, "name": "Wierden"}, {"id": "2510209", "lat": 52.29827, "lon": 4.9598, "name": "Amsterdam Holendrecht"}, {"id": "2511373", "lat": 52.53311, "lon": 5.91323, "name": "Kampen Zuid"}, {"id": "2510036", "lat": 52.3942, "lon": 5.27784, "name": "Almere Buiten"}, {"id": "2511192", "lat": 52.4273, "lon": 6.22143, "name": "Heino"}, {"id": "2511952", "lat": 53.16499, "lon": 6.97874, "name": "Scheemda"}, {"id": "2512280", "lat": 51.52689, "lon": 6.01424, "name": "Venray"}, {"id": "2511381", "lat": 51.46541, "lon": 4.03661, "name": "Kruiningen-Yerseke"}, {"id": "2510267", "lat": 51.59532, "lon": 4.77985, "name": "Breda"}, {"id": "2510493", "lat": 52.44102, "lon": 6.57613, "name": "Daarlerveen"}, {"id": "2510376", "lat": 52.13999, "lon": 5.59019, "name": "Barneveld Centrum"}, {"id": "2511942", "lat": 50.94336, "lon": 5.84998, "name": "Spaubeek"}, {"id": "2511022", "lat": 52.09062, "lon": 4.36895, "name": "Den Haag Mariahoeve"}, {"id": "2510594", "lat": 51.95846, "lon": 6.29559, "name": "Doetinchem"}, {"id": "2510097", "lat": 52.34171, "lon": 6.66724, "name": "Almelo de Riet"}, {"id": "2512098", "lat": 51.88972, "lon": 5.42295, "name": "Tiel"}, {"id": "2512063", "lat": 52.16537, "lon": 5.30316, "name": "Soest Zuid"}, {"id": "2511813", "lat": 51.42277, "lon": 4.16201, "name": "Rilland-Bath"}, {"id": "2511884", "lat": 51.95171, "lon": 4.55275, "name": "Rotterdam Alexander"}, {"id": "2512007", "lat": 52.43373, "lon": 4.6324, "name": "Santpoort Noord"}, {"id": "2511359", "lat": 51.32736, "lon": 6.20312, "name": "Kaldenkirchen"}, {"id": "2511969", "lat": 50.87335, "lon": 5.79647, "name": "Houthem-St. Gerlach"}, {"id": "2512475", "lat": 52.50464, "lon": 6.09114, "name": "Zwolle"}, {"id": "2510438", "lat": 52.06764, "lon": 4.64628, "name": "Boskoop Snijdelwijk"}, {"id": "2511681", "lat": 51.82683, "lon": 5.86775, "name": "Nijmegen Heyendaal"}, {"id": "2512422", "lat": 52.05604, "lon": 4.38992, "name": "Den Haag Ypenburg"}, {"id": "2512528", "lat": 52.46915, "lon": 4.80525, "name": "Zaandijk Zaanse Schans"}, {"id": "2511533", "lat": 53.19612, "lon": 5.79316, "name": "Leeuwarden"}, {"id": "2510794", "lat": 52.2226, "lon": 6.891, "name": "Enschede"}, {"id": "2510875", "lat": 51.07716, "lon": 4.28315, "name": "Puurs"}, {"id": "2511749", "lat": 52.33535, "lon": 6.11336, "name": "Olst"}, {"id": "2511998", "lat": 50.93887, "lon": 5.87547, "name": "Schinnen"}, {"id": "2511113", "lat": 52.73361, "lon": 6.47271, "name": "Hoogeveen"}, {"id": "2510096", "lat": 52.34251, "lon": 6.666, "name": "Almelo de Riet"}, {"id": "2547923", "lat": 52.2093, "lon": 5.96846, "name": "Apeldoorn"}, {"id": "2510674", "lat": 52.02803, "lon": 5.67173, "name": "Ede-Wageningen"}, {"id": "2509980", "lat": 52.27969, "lon": 4.97653, "name": "Abcoude"}, {"id": "2512190", "lat": 52.11001, "lon": 5.12536, "name": "Utrecht Overvecht"}, {"id": "2510081", "lat": 52.35915, "lon": 6.65229, "name": "Almelo"}, {"id": "2510363", "lat": 52.09074, "lon": 6.14701, "name": "Brummen"}, {"id": "2511516", "lat": 52.01225, "lon": 6.59558, "name": "Lichtenvoorde-Groenlo"}, {"id": "2511447", "lat": 52.16732, "lon": 4.48298, "name": "Leiden Centraal"}, {"id": "2512231", "lat": 51.65564, "lon": 5.29189, "name": "Vught"}, {"id": "2512238", "lat": 52.45761, "lon": 6.56966, "name": "Vroomshoop"}, {"id": "2511525", "lat": 50.97552, "lon": 5.8249, "name": "Geleen-Lutterade"}, {"id": "2512144", "lat": 52.08964, "lon": 5.10891, "name": "Utrecht Centraal"}, {"id": "2511568", "lat": 51.01766, "lon": 4.48371, "name": "Mechelen"}, {"id": "2510085", "lat": 52.3429, "lon": 5.15219, "name": "Almere Poort"}, {"id": "2510343", "lat": 52.69509, "lon": 5.23614, "name": "Bovenkarspel-Grootebroek"}, {"id": "2511622", "lat": 50.87057, "lon": 5.7175, "name": "Maastricht Noord"}, {"id": "2510478", "lat": 51.94659, "lon": 5.2271, "name": "Culemborg"}, {"id": "2511859", "lat": 51.71501, "lon": 5.36926, "name": "Rosmalen"}, {"id": "2511663", "lat": 51.84242, "lon": 5.85224, "name": "Nijmegen"}, {"id": "2512272", "lat": 52.02807, "lon": 5.53143, "name": "Veenendaal West"}, {"id": "2510078", "lat": 52.35838, "lon": 6.65342, "name": "Almelo"}, {"id": "2511842", "lat": 51.8802, "lon": 4.53094, "name": "Rotterdam Lombardijen"}, {"id": "2511140", "lat": 52.38783, "lon": 4.63821, "name": "Haarlem"}, {"id": "2510176", "lat": 52.37842, "lon": 4.90121, "name": "Amsterdam Centraal"}, {"id": "2510871", "lat": 51.19759, "lon": 4.3908, "name": "Antwerpen-Zuid"}, {"id": "2511425", "lat": 52.16679, "lon": 6.42592, "name": "Lochem"}, {"id": "2511621", "lat": 50.87063, "lon": 5.71775, "name": "Maastricht Noord"}, {"id": "2511091", "lat": 52.29281, "lon": 4.69849, "name": "Hoofddorp"}, {"id": "2511590", "lat": 45.48052, "lon": 6.5214, "name": "Moutiers-Salins-Brides"}, {"id": "2510900", "lat": 52.01776, "lon": 4.70567, "name": "Gouda"}, {"id": "2511175", "lat": 51.46792, "lon": 5.63068, "name": "Helmond 't Hout"}, {"id": "2511604", "lat": 52.06413, "lon": 5.3703, "name": "Maarn"}, {"id": "2511677", "lat": 51.82731, "lon": 5.82234, "name": "Nijmegen Goffert"}, {"id": "2510027", "lat": 45.67308, "lon": 6.38289, "name": "Albertville"}, {"id": "2509984", "lat": 49.00396, "lon": 2.57111, "name": "Airport Charles de Gaulle"}, {"id": "2511674", "lat": 51.8239, "lon": 5.79452, "name": "Nijmegen Dukenburg"}, {"id": "2510788", "lat": 51.58888, "lon": 7.53934, "name": "Preussen"}, {"id": "2512362", "lat": 51.95708, "lon": 6.21343, "name": "Wehl"}, {"id": "2512134", "lat": 52.08984, "lon": 5.1095, "name": "Utrecht Centraal"}, {"id": "2511540", "lat": 53.20214, "lon": 5.84257, "name": "Leeuwarden Camminghaburen"}, {"id": "2512293", "lat": 52.1263, "lon": 4.43358, "name": "Voorschoten"}, {"id": "2510735", "lat": 51.44314, "lon": 5.48039, "name": "Eindhoven Centraal"}, {"id": "2511011", "lat": 52.08, "lon": 4.32495, "name": "Den Haag Centraal"}, {"id": "2511220", "lat": 50.89628, "lon": 5.95323, "name": "Heerlen Woonboulevard"}, {"id": "2512261", "lat": 51.5924, "lon": 5.99693, "name": "Vierlingsbeek"}, {"id": "2512522", "lat": 51.81535, "lon": 4.64134, "name": "Zwijndrecht"}, {"id": "2511903", "lat": 51.9248, "lon": 4.46864, "name": "Rotterdam Centraal"}, {"id": "2511167", "lat": 51.47058, "lon": 5.70188, "name": "Helmond Brouwhuis"}, {"id": "2511044", "lat": 52.35946, "lon": 4.60685, "name": "Heemstede-Aerdenhout"}, {"id": "2510202", "lat": 52.33875, "lon": 4.87284, "name": "Amsterdam Zuid"}, {"id": "2510160", "lat": 52.37943, "lon": 4.89976, "name": "Amsterdam Centraal"}, {"id": "2510402", "lat": 51.37224, "lon": 6.15523, "name": "Blerick"}, {"id": "2510926", "lat": 51.88293, "lon": 5.27085, "name": "Geldermalsen"}, {"id": "2511145", "lat": 52.38832, "lon": 4.63638, "name": "Haarlem"}, {"id": "2510943", "lat": 53.25575, "lon": 6.31004, "name": "Grijpskerk"}, {"id": "2512461", "lat": 52.50568, "lon": 6.08995, "name": "Zwolle"}, {"id": "2512523", "lat": 51.81527, "lon": 4.64121, "name": "Zwijndrecht"}, {"id": "2511827", "lat": 52.01025, "lon": 6.0319, "name": "Rheden"}, {"id": "2510562", "lat": 51.45604, "lon": 5.78815, "name": "Deurne"}, {"id": "2432365", "lat": 47.84997, "lon": 12.11872, "name": "Rosenheim"}, {"id": "2511881", "lat": 52.03945, "lon": 4.31988, "name": "Rijswijk"}, {"id": "2512104", "lat": 51.87398, "lon": 5.39226, "name": "Tiel Passewaaij"}, {"id": "2511529", "lat": 53.19617, "lon": 5.79141, "name": "Leeuwarden"}, {"id": "2511814", "lat": 51.4227, "lon": 4.16206, "name": "Rilland-Bath"}, {"id": "2510395", "lat": 45.61635, "lon": 6.77187, "name": "Bourg-St-Maurice"}, {"id": "2510936", "lat": 53.20488, "lon": 6.58558, "name": "Groningen Europapark"}, {"id": "2510309", "lat": 53.36099, "lon": 6.51872, "name": "Baflo"}, {"id": "2510580", "lat": 52.53433, "lon": 5.72065, "name": "Dronten"}, {"id": "2512327", "lat": 51.81145, "lon": 5.73052, "name": "Wijchen"}, {"id": "2510710", "lat": 50.89612, "lon": 6.05776, "name": "Eygelshoven Markt"}, {"id": "2512418", "lat": 52.45382, "lon": 6.00229, "name": "Wezep"}, {"id": "2511905", "lat": 51.92497, "lon": 4.46857, "name": "Rotterdam Centraal"}, {"id": "2510303", "lat": 51.51046, "lon": 5.38871, "name": "Best"}, {"id": "2509995", "lat": 51.98481, "lon": 5.90073, "name": "Arnhem Centraal"}, {"id": "2510162", "lat": 52.37922, "lon": 4.90073, "name": "Amsterdam Centraal"}, {"id": "2510717", "lat": 51.45083, "lon": 5.45661, "name": "Eindhoven Strijp-S"}, {"id": "2511212", "lat": 50.89086, "lon": 5.97431, "name": "Heerlen"}, {"id": "2511099", "lat": 52.2617, "lon": 6.79577, "name": "Hengelo"}, {"id": "2510584", "lat": 53.17774, "lon": 5.63484, "name": "Dronryp"}, {"id": "2510737", "lat": 51.44327, "lon": 5.48034, "name": "Eindhoven Centraal"}, {"id": "2511467", "lat": 50.63944, "lon": 3.075, "name": "Lille Europe"}, {"id": "2511004", "lat": 52.06964, "lon": 4.32246, "name": "Den Haag HS"}, {"id": "2510569", "lat": 52.04477, "lon": 6.10298, "name": "Dieren"}, {"id": "2512332", "lat": 52.08487, "lon": 4.89322, "name": "Woerden"}, {"id": "2512467", "lat": 52.5049, "lon": 6.09142, "name": "Zwolle"}, {"id": "2511086", "lat": 52.93293, "lon": 4.76407, "name": "Den Helder Zuid"}, {"id": "2511796", "lat": 52.26539, "lon": 5.57587, "name": "Putten"}, {"id": "2511933", "lat": 51.79438, "lon": 5.63623, "name": "Ravenstein"}, {"id": "2511035", "lat": 53.0896, "lon": 5.82234, "name": "Grou-Jirnsum"}, {"id": "2511300", "lat": 51.3851, "lon": 5.56966, "name": "Heeze"}, {"id": "2512154", "lat": 52.09009, "lon": 5.11024, "name": "Utrecht Centraal"}, {"id": "2511896", "lat": 51.92536, "lon": 4.46837, "name": "Rotterdam Centraal"}, {"id": "2512147", "lat": 52.09047, "lon": 5.11026, "name": "Utrecht Centraal"}, {"id": "2510347", "lat": 52.17087, "lon": 4.99068, "name": "Breukelen"}, {"id": "2512070", "lat": 52.79119, "lon": 6.1162, "name": "Steenwijk"}, {"id": "2511682", "lat": 51.82688, "lon": 5.86789, "name": "Nijmegen Heyendaal"}, {"id": "2511224", "lat": 53.17544, "lon": 6.61803, "name": "Haren"}, {"id": "2510093", "lat": 52.63809, "lon": 4.74004, "name": "Alkmaar"}, {"id": "2510634", "lat": 51.94347, "lon": 6.0145, "name": "Duiven"}, {"id": "2510225", "lat": 52.38978, "lon": 4.83813, "name": "Amsterdam Sloterdijk"}, {"id": "2510412", "lat": 51.85489, "lon": 4.55305, "name": "Barendrecht"}, {"id": "2511410", "lat": 52.07899, "lon": 4.34326, "name": "Den Haag Laan v NOI"}, {"id": "2510763", "lat": 52.30149, "lon": 5.61461, "name": "Ermelo"}, {"id": "2512470", "lat": 52.50481, "lon": 6.09136, "name": "Zwolle"}, {"id": "2510003", "lat": 51.98516, "lon": 5.91995, "name": "Arnhem Velperpoort"}, {"id": "2511738", "lat": 52.50964, "lon": 6.41675, "name": "Ommen"}, {"id": "2522657", "lat": 51.92925, "lon": 4.50195, "name": "Rotterdam, Vlietlaan"}, {"id": "2522299", "lat": 51.90528, "lon": 4.45976, "name": "Rotterdam, Pieter de Hoochweg"}, {"id": "2510891", "lat": 52.21518, "lon": 7.02152, "name": "Gronau Westf"}, {"id": "2512271", "lat": 52.02819, "lon": 5.5315, "name": "Veenendaal West"}, {"id": "2510163", "lat": 52.37954, "lon": 4.89986, "name": "Amsterdam Centraal"}, {"id": "2512484", "lat": 51.69049, "lon": 4.66365, "name": "Lage Zwaluwe"}, {"id": "2510170", "lat": 52.379, "lon": 4.90176, "name": "Amsterdam Centraal"}, {"id": "2510431", "lat": 51.89942, "lon": 5.19465, "name": "Beesd"}, {"id": "2511891", "lat": 51.91982, "lon": 4.48916, "name": "Rotterdam Blaak"}, {"id": "2510483", "lat": 52.66323, "lon": 6.7357, "name": "Coevorden"}, {"id": "2511342", "lat": 52.04585, "lon": 5.57343, "name": "Veenendaal-De Klomp"}, {"id": "2510707", "lat": 50.88953, "lon": 6.04677, "name": "Eygelshoven"}, {"id": "2510237", "lat": 52.35273, "lon": 4.94891, "name": "Amsterdam Science Park"}, {"id": "2511241", "lat": 51.69037, "lon": 5.2937, "name": "Hertogenbosch ('s)"}, {"id": "2511143", "lat": 52.38811, "lon": 4.63689, "name": "Haarlem"}, {"id": "2511317", "lat": 52.17778, "lon": 6.08478, "name": "Klarenbeek"}, {"id": "2510703", "lat": 51.30443, "lon": 7.3432, "name": "Ennepetal"}, {"id": "2510011", "lat": 51.95512, "lon": 5.85179, "name": "Arnhem Zuid"}, {"id": "2512296", "lat": 52.12619, "lon": 4.43384, "name": "Voorschoten"}, {"id": "2510627", "lat": 52.32373, "lon": 4.93732, "name": "Duivendrecht"}, {"id": "2512382", "lat": 53.13928, "lon": 7.03498, "name": "Winschoten"}, {"id": "2510470", "lat": 45.57198, "lon": 5.91867, "name": "Chambery"}, {"id": "2512411", "lat": 51.96818, "lon": 6.71475, "name": "Winterswijk"}, {"id": "2510280", "lat": 52.08161, "lon": 4.74584, "name": "Bodegraven"}, {"id": "2511957", "lat": 51.9218, "lon": 4.40951, "name": "Schiedam Centrum"}, {"id": "2511214", "lat": 50.89099, "lon": 5.97444, "name": "Heerlen"}, {"id": "2510692", "lat": 50.77169, "lon": 5.7099, "name": "Eijsden"}, {"id": "2512148", "lat": 52.0896, "lon": 5.10879, "name": "Utrecht Centraal"}, {"id": "2512088", "lat": 51.56526, "lon": 5.04961, "name": "Tilburg Universiteit"}, {"id": "2510938", "lat": 53.20477, "lon": 6.58541, "name": "Groningen Europapark"}, {"id": "2511101", "lat": 52.26195, "lon": 6.79291, "name": "Hengelo"}, {"id": "2511700", "lat": 52.36646, "lon": 6.46271, "name": "Nijverdal"}, {"id": "2512249", "lat": 51.36452, "lon": 6.17191, "name": "Venlo"}, {"id": "2511499", "lat": 53.3348, "lon": 6.74742, "name": "Loppersum"}, {"id": "2510863", "lat": 53.18239, "lon": 5.55004, "name": "Franeker"}, {"id": "2510180", "lat": 52.37888, "lon": 4.90048, "name": "Amsterdam Centraal"}, {"id": "2510206", "lat": 52.33917, "lon": 4.87378, "name": "Amsterdam Zuid"}, {"id": "2512002", "lat": 50.85619, "lon": 5.87155, "name": "Schin op Geul"}, {"id": "2510668", "lat": 51.10076, "lon": 5.87908, "name": "Echt"}, {"id": "2512441", "lat": 52.43842, "lon": 4.81369, "name": "Zaandam"}, {"id": "2510549", "lat": 52.6945, "lon": 6.75831, "name": "Dalen"}, {"id": "2512369", "lat": 52.48918, "lon": 4.79246, "name": "Wormerveer"}, {"id": "2511537", "lat": 53.19643, "lon": 5.79483, "name": "Leeuwarden"}, {"id": "2511156", "lat": 52.60007, "lon": 4.70126, "name": "Heiloo"}, {"id": "2510669", "lat": 51.10077, "lon": 5.87904, "name": "Echt"}, {"id": "2510455", "lat": 52.47878, "lon": 4.6568, "name": "Beverwijk"}, {"id": "2511301", "lat": 51.38507, "lon": 5.56953, "name": "Heeze"}, {"id": "2511149", "lat": 52.38832, "lon": 4.63854, "name": "Haarlem"}, {"id": "2511205", "lat": 52.17918, "lon": 5.18008, "name": "Hollandsche Rading"}, {"id": "2510381", "lat": 52.06314, "lon": 5.19526, "name": "Bunnik"}, {"id": "2511432", "lat": 51.89461, "lon": 5.09235, "name": "Leerdam"}, {"id": "2511613", "lat": 50.85102, "lon": 5.70535, "name": "Maastricht"}, {"id": "2512003", "lat": 50.85628, "lon": 5.87153, "name": "Schin op Geul"}, {"id": "2510487", "lat": 51.95418, "lon": 4.58412, "name": "Capelle Schollevaar"}, {"id": "2511556", "lat": 43.30357, "lon": 5.38279, "name": "Marseille-St-Charles"}, {"id": "2511446", "lat": 52.16647, "lon": 4.48185, "name": "Leiden Centraal"}, {"id": "2510019", "lat": 51.87214, "lon": 4.99288, "name": "Arkel"}, {"id": "2509987", "lat": 51.98524, "lon": 5.90043, "name": "Arnhem Centraal"}, {"id": "2511569", "lat": 50.88258, "lon": 5.75027, "name": "Meerssen"}, {"id": "2512213", "lat": 52.06671, "lon": 4.35932, "name": "Voorburg"}, {"id": "2511257", "lat": 52.03399, "lon": 5.1681, "name": "Houten"}, {"id": "2510174", "lat": 52.37873, "lon": 4.90036, "name": "Amsterdam Centraal"}, {"id": "2511428", "lat": 52.14674, "lon": 4.49292, "name": "Leiden Lammenschans"}, {"id": "2510368", "lat": 51.64397, "lon": 5.93966, "name": "Boxmeer"}, {"id": "2510449", "lat": 51.58466, "lon": 5.31846, "name": "Boxtel"}, {"id": "2510462", "lat": 51.48053, "lon": 3.9564, "name": "Kapelle-Biezelinge"}, {"id": "2512396", "lat": 51.96346, "lon": 5.96856, "name": "Westervoort"}, {"id": "2511041", "lat": 51.58378, "lon": 4.92526, "name": "Gilze-Rijen"}, {"id": "2511230", "lat": 51.42678, "lon": 6.04156, "name": "Horst-Sevenum"}, {"id": "2512439", "lat": 52.43849, "lon": 4.81406, "name": "Zaandam"}, {"id": "2511990", "lat": 53.0401, "lon": 5.66281, "name": "Sneek Noord"}, {"id": "2511431", "lat": 51.8946, "lon": 5.09362, "name": "Leerdam"}, {"id": "2511773", "lat": 48.88174, "lon": 2.35592, "name": "Paris-Nord"}, {"id": "2512514", "lat": 51.64112, "lon": 4.60993, "name": "Zevenbergen"}, {"id": "2512375", "lat": 52.31245, "lon": 5.04334, "name": "Weesp"}, {"id": "2511248", "lat": 51.69042, "lon": 5.29331, "name": "Hertogenbosch ('s)"}, {"id": "2510561", "lat": 51.45611, "lon": 5.78829, "name": "Deurne"}, {"id": "2510302", "lat": 51.5105, "lon": 5.38882, "name": "Best"}, {"id": "2512032", "lat": 51.00199, "lon": 5.85893, "name": "Sittard"}, {"id": "2510750", "lat": 51.87435, "lon": 6.15415, "name": "Emmerich-Elten"}, {"id": "2510335", "lat": 50.9473, "lon": 5.78639, "name": "Beek-Elsloo"}, {"id": "2510454", "lat": 52.20217, "lon": 8.57414, "name": "Bunde (Westf.)"}, {"id": "2510107", "lat": 52.86764, "lon": 4.81138, "name": "Anna Paulowna"}, {"id": "2512377", "lat": 52.31265, "lon": 5.04361, "name": "Weesp"}, {"id": "2511242", "lat": 51.69143, "lon": 5.29416, "name": "Hertogenbosch ('s)"}, {"id": "2512462", "lat": 52.50464, "lon": 6.09281, "name": "Zwolle"}, {"id": "2510200", "lat": 52.33869, "lon": 4.87284, "name": "Amsterdam Zuid"}, {"id": "2512256", "lat": 51.36383, "lon": 6.17229, "name": "Venlo"}, {"id": "2510665", "lat": 52.11918, "lon": 7.39616, "name": "Steinfurt-Borghorst"}, {"id": "2511546", "lat": 48.36547, "lon": 10.8856, "name": "Augsburg Hbf"}, {"id": "2510490", "lat": 50.87595, "lon": 6.05963, "name": "Chevremont"}, {"id": "2510241", "lat": 51.92128, "lon": 6.57842, "name": "Aalten"}, {"id": "2511849", "lat": 51.19361, "lon": 5.99474, "name": "Roermond"}, {"id": "2510268", "lat": 51.5954, "lon": 4.77986, "name": "Breda"}, {"id": "2511163", "lat": 51.47546, "lon": 5.66169, "name": "Helmond"}, {"id": "2511109", "lat": 52.26937, "lon": 6.82084, "name": "Hengelo Oost"}, {"id": "2510411", "lat": 51.85491, "lon": 4.55311, "name": "Barendrecht"}, {"id": "2561536", "lat": 52.16643, "lon": 5.45747, "name": "Hoevelaken"}, {"id": "2561535", "lat": 52.16652, "lon": 5.45749, "name": "Hoevelaken"}, {"id": "2511063", "lat": 52.33749, "lon": 5.61984, "name": "Harderwijk"}, {"id": "2510482", "lat": 52.66323, "lon": 6.73576, "name": "Coevorden"}, {"id": "2512150", "lat": 52.09046, "lon": 5.11021, "name": "Utrecht Centraal"}, {"id": "2512212", "lat": 52.06666, "lon": 4.35927, "name": "Voorburg"}, {"id": "2512059", "lat": 51.53054, "lon": -0.12515, "name": "London St. Pancras Int."}, {"id": "2510641", "lat": 52.14715, "lon": 4.45648, "name": "De Vink"}, {"id": "2510033", "lat": 52.37495, "lon": 5.2181, "name": "Almere Centrum"}, {"id": "2511670", "lat": 51.84249, "lon": 5.85188, "name": "Nijmegen"}, {"id": "2512151", "lat": 52.0901, "lon": 5.11036, "name": "Utrecht Centraal"}, {"id": "2512518", "lat": 52.37568, "lon": 4.53142, "name": "Zandvoort aan Zee"}, {"id": "2511016", "lat": 52.08019, "lon": 4.32544, "name": "Den Haag Centraal"}, {"id": "2510958", "lat": 53.21091, "lon": 6.56642, "name": "Groningen"}, {"id": "2511750", "lat": 52.33533, "lon": 6.11342, "name": "Olst"}, {"id": "2512300", "lat": 51.93718, "lon": 6.45877, "name": "Varsseveld"}, {"id": "2511483", "lat": 52.50791, "lon": 5.47293, "name": "Lelystad Centrum"}, {"id": "2511388", "lat": 51.29065, "lon": 7.2907, "name": "Schwelm"}, {"id": "2512130", "lat": 52.0905, "lon": 5.1104, "name": "Utrecht Centraal"}, {"id": "2510615", "lat": 52.25739, "lon": 6.16071, "name": "Deventer"}, {"id": "2510175", "lat": 52.37908, "lon": 4.89939, "name": "Amsterdam Centraal"}, {"id": "2512035", "lat": 51.00202, "lon": 5.85883, "name": "Sittard"}, {"id": "2510008", "lat": 51.98765, "lon": 5.94316, "name": "Arnhem Presikhaaf"}, {"id": "2511118", "lat": 53.15971, "lon": 6.77149, "name": "Hoogezand-Sappemeer"}, {"id": "2510519", "lat": 51.80705, "lon": 4.6691, "name": "Dordrecht"}, {"id": "2511199", "lat": 52.2841, "lon": 6.42099, "name": "Holten"}, {"id": "2511100", "lat": 52.26172, "lon": 6.79448, "name": "Hengelo"}, {"id": "2510781", "lat": 52.07758, "lon": 7.4617, "name": "Nordwalde"}, {"id": "2512227", "lat": 52.1576, "lon": 6.14376, "name": "Voorst-Empe"}, {"id": "2510720", "lat": 51.45072, "lon": 5.45628, "name": "Eindhoven Strijp-S"}, {"id": "2512124", "lat": 53.40098, "lon": 6.60904, "name": "Usquert"}, {"id": "2512337", "lat": 52.36152, "lon": 6.59226, "name": "Wierden"}, {"id": "2512087", "lat": 51.56489, "lon": 5.0526, "name": "Tilburg Universiteit"}, {"id": "2511308", "lat": 47.26407, "lon": 11.39819, "name": "Innsbruck Hbf"}, {"id": "2511295", "lat": 52.38598, "lon": 4.74708, "name": "Halfweg-Zwanenburg"}, {"id": "2510232", "lat": 52.38826, "lon": 4.8356, "name": "Amsterdam Sloterdijk"}, {"id": "2510063", "lat": 52.15377, "lon": 5.37299, "name": "Amersfoort Centraal"}, {"id": "2510719", "lat": 51.45076, "lon": 5.45643, "name": "Eindhoven Strijp-S"}, {"id": "2511973", "lat": 52.78523, "lon": 4.8052, "name": "Schagen"}, {"id": "2510090", "lat": 52.63787, "lon": 4.74013, "name": "Alkmaar"}, {"id": "2510767", "lat": 52.79062, "lon": 6.89981, "name": "Emmen"}, {"id": "2511147", "lat": 52.38804, "lon": 4.63968, "name": "Haarlem"}, {"id": "2510224", "lat": 52.3884, "lon": 4.83806, "name": "Amsterdam Sloterdijk"}, {"id": "2510931", "lat": 51.93062, "lon": 6.34879, "name": "Gaanderen"}, {"id": "2517064", "lat": 52.21503, "lon": 4.51673, "name": "Sassenheim"}, {"id": "2510507", "lat": 51.80729, "lon": 4.66941, "name": "Dordrecht"}, {"id": "2510901", "lat": 52.01729, "lon": 4.70568, "name": "Gouda"}, {"id": "2511934", "lat": 51.7943, "lon": 5.63632, "name": "Ravenstein"}, {"id": "2512368", "lat": 52.48925, "lon": 4.79252, "name": "Wormerveer"}, {"id": "2511970", "lat": 50.87345, "lon": 5.79648, "name": "Houthem-St. Gerlach"}, {"id": "2511435", "lat": 52.16577, "lon": 4.48211, "name": "Leiden Centraal"}, {"id": "2510288", "lat": 51.60576, "lon": 4.72147, "name": "Breda-Prinsenbeek"}, {"id": "2511304", "lat": 53.01467, "lon": 5.61596, "name": "IJlst"}, {"id": "2512251", "lat": 51.3654, "lon": 6.1706, "name": "Venlo"}, {"id": "2510456", "lat": 52.47873, "lon": 4.65686, "name": "Beverwijk"}, {"id": "2510791", "lat": 52.22236, "lon": 6.88958, "name": "Enschede"}, {"id": "2510269", "lat": 51.59549, "lon": 4.77984, "name": "Breda"}, {"id": "2512276", "lat": 51.99489, "lon": 5.98071, "name": "Velp"}, {"id": "2511157", "lat": 52.60011, "lon": 4.70114, "name": "Heiloo"}, {"id": "2561520", "lat": 52.3063, "lon": 6.93372, "name": "Oldenzaal"}, {"id": "2510125", "lat": 53.32591, "lon": 6.86151, "name": "Appingedam"}, {"id": "2510070", "lat": 52.17483, "lon": 5.40372, "name": "Amersfoort Schothorst"}, {"id": "2510466", "lat": 52.54569, "lon": 4.65873, "name": "Castricum"}, {"id": "2510538", "lat": 51.93336, "lon": 6.13275, "name": "Didam"}, {"id": "2511562", "lat": 51.19658, "lon": 6.44618, "name": "Monchengladbach Hbf"}, {"id": "2510086", "lat": 52.3429, "lon": 5.15227, "name": "Almere Poort"}, {"id": "2511832", "lat": 51.95845, "lon": 5.5785, "name": "Rhenen"}, {"id": "2510231", "lat": 52.38877, "lon": 4.83841, "name": "Amsterdam Sloterdijk"}, {"id": "2511573", "lat": 53.13002, "lon": 5.71351, "name": "Mantgum"}, {"id": "2512374", "lat": 52.3124, "lon": 5.0433, "name": "Weesp"}, {"id": "2512338", "lat": 52.36145, "lon": 6.59229, "name": "Wierden"}, {"id": "2511122", "lat": 52.30313, "lon": 4.56599, "name": "Hillegom"}, {"id": "2512350", "lat": 53.39027, "lon": 6.56695, "name": "Warffum"}, {"id": "2511121", "lat": 52.30309, "lon": 4.56611, "name": "Hillegom"}, {"id": "2511731", "lat": 52.30628, "lon": 6.93385, "name": "Oldenzaal"}, {"id": "2511336", "lat": 50.94091, "lon": 6.9746, "name": "Koln Messe/Deutz"}, {"id": "2510281", "lat": 52.0815, "lon": 4.74579, "name": "Bodegraven"}, {"id": "2511657", "lat": 52.22217, "lon": 5.49363, "name": "Nijkerk"}, {"id": "2510168", "lat": 52.37935, "lon": 4.90084, "name": "Amsterdam Centraal"}, {"id": "2512508", "lat": 47.37767, "lon": 8.5401, "name": "Zurich HB"}, {"id": "2510883", "lat": 50.73797, "lon": 5.69249, "name": "Vise"}, {"id": "2512131", "lat": 52.0899, "lon": 5.10965, "name": "Utrecht Centraal"}, {"id": "2510140", "lat": 52.34658, "lon": 4.91718, "name": "Amsterdam Amstel"}, {"id": "2511975", "lat": 52.78524, "lon": 4.80545, "name": "Schagen"}, {"id": "2517063", "lat": 52.21514, "lon": 4.51666, "name": "Sassenheim"}, {"id": "2511288", "lat": 52.67034, "lon": 4.82386, "name": "Heerhugowaard"}, {"id": "2510041", "lat": 52.36757, "lon": 5.19061, "name": "Almere Muziekwijk"}, {"id": "2511895", "lat": 51.92527, "lon": 4.4684, "name": "Rotterdam Centraal"}, {"id": "2510812", "lat": 52.23706, "lon": 6.83929, "name": "Enschede Kennispark"}, {"id": "2511314", "lat": 51.43357, "lon": 4.11662, "name": "Krabbendijke"}, {"id": "2510744", "lat": 51.50508, "lon": 7.62052, "name": "Holzwickede"}, {"id": "2511250", "lat": 51.68927, "lon": 5.29283, "name": "Hertogenbosch ('s)"}, {"id": "2510327", "lat": 52.13005, "lon": 5.20438, "name": "Bilthoven"}, {"id": "2512324", "lat": 48.18501, "lon": 16.37785, "name": "Wien Hbf"}, {"id": "2511894", "lat": 51.92517, "lon": 4.46845, "name": "Rotterdam Centraal"}, {"id": "2510777", "lat": 52.02236, "lon": 7.56262, "name": "Munster-Hager"}, {"id": "2510534", "lat": 53.18876, "lon": 5.72798, "name": "Deinum"}, {"id": "2512252", "lat": 51.36444, "lon": 6.17167, "name": "Venlo"}, {"id": "2511102", "lat": 52.26158, "lon": 6.79574, "name": "Hengelo"}, {"id": "2511055", "lat": 52.37673, "lon": 9.74095, "name": "Hannover Hbf"}, {"id": "2511754", "lat": 51.5824, "lon": 5.1948, "name": "Oisterwijk"}, {"id": "2510373", "lat": 52.29857, "lon": 6.74855, "name": "Borne"}, {"id": "2511966", "lat": 51.82962, "lon": 4.74324, "name": "Sliedrecht Baanhoek"}, {"id": "2512406", "lat": 52.88026, "lon": 6.00474, "name": "Wolvega"}, {"id": "2510969", "lat": 53.21044, "lon": 6.56336, "name": "Groningen"}, {"id": "2515179", "lat": 52.08556, "lon": 4.28281, "name": "Den Haag, Groot Hertoginnelaan"}, {"id": "2511910", "lat": 51.94222, "lon": 4.48165, "name": "Rotterdam Noord"}, {"id": "2511245", "lat": 51.69146, "lon": 5.29399, "name": "Hertogenbosch ('s)"}, {"id": "2512117", "lat": 53.41394, "lon": 6.7202, "name": "Uithuizermeeden"}, {"id": "2510510", "lat": 51.80734, "lon": 4.66771, "name": "Dordrecht"}, {"id": "2510948", "lat": 50.96743, "lon": 5.84342, "name": "Geleen Oost"}, {"id": "2511708", "lat": 51.96528, "lon": 4.61672, "name": "Nieuwerkerk ad IJssel"}, {"id": "2510183", "lat": 52.37894, "lon": 4.90054, "name": "Amsterdam Centraal"}, {"id": "2512141", "lat": 52.08969, "lon": 5.10906, "name": "Utrecht Centraal"}, {"id": "2511411", "lat": 52.07894, "lon": 4.3433, "name": "Den Haag Laan v NOI"}, {"id": "2510461", "lat": 51.48061, "lon": 3.95646, "name": "Kapelle-Biezelinge"}, {"id": "2510308", "lat": 53.361, "lon": 6.51884, "name": "Baflo"}, {"id": "2511866", "lat": 51.54148, "lon": 4.46018, "name": "Roosendaal"}, {"id": "2511012", "lat": 52.08003, "lon": 4.32502, "name": "Den Haag Centraal"}, {"id": "2510542", "lat": 52.49831, "lon": 6.25883, "name": "Dalfsen"}, {"id": "2512460", "lat": 52.50477, "lon": 6.09322, "name": "Zwolle"}, {"id": "2511355", "lat": 52.90273, "lon": 5.41078, "name": "Koudum-Molkwerum"}, {"id": "2511586", "lat": 51.76691, "lon": 5.87925, "name": "Mook-Molenhoek"}, {"id": "2511096", "lat": 52.26156, "lon": 6.79604, "name": "Hengelo"}, {"id": "2510479", "lat": 51.94655, "lon": 5.22695, "name": "Culemborg"}, {"id": "2510250", "lat": 52.19221, "lon": 5.43331, "name": "Amersfoort Vathorst"}, {"id": "2511030", "lat": 52.05459, "lon": 4.30862, "name": "Den Haag Moerwijk"}, {"id": "2512015", "lat": 51.06102, "lon": 5.86308, "name": "Susteren"}, {"id": "2512440", "lat": 52.43846, "lon": 4.81393, "name": "Zaandam"}, {"id": "2511170", "lat": 51.46203, "lon": 5.60732, "name": "Helmond Brandevoort"}, {"id": "2510185", "lat": 52.37863, "lon": 4.90141, "name": "Amsterdam Centraal"}, {"id": "2511899", "lat": 51.92543, "lon": 4.4676, "name": "Rotterdam Centraal"}, {"id": "2510194", "lat": 52.36066, "lon": 4.93176, "name": "Amsterdam Muiderpoort"}, {"id": "2511515", "lat": 52.01218, "lon": 6.5955, "name": "Lichtenvoorde-Groenlo"}, {"id": "2512391", "lat": 51.24869, "lon": 5.70278, "name": "Weert"}, {"id": "2510738", "lat": 51.44335, "lon": 5.48032, "name": "Eindhoven Centraal"}, {"id": "2510718", "lat": 51.45079, "lon": 5.45648, "name": "Eindhoven Strijp-S"}, {"id": "2511804", "lat": 52.33693, "lon": 4.89025, "name": "Amsterdam RAI"}, {"id": "2511409", "lat": 52.07906, "lon": 4.34318, "name": "Den Haag Laan v NOI"}, {"id": "2510861", "lat": 50.0013, "lon": 8.25865, "name": "Mainz Hbf"}, {"id": "2511424", "lat": 52.16685, "lon": 6.42594, "name": "Lochem"}, {"id": "2511219", "lat": 50.89619, "lon": 5.9533, "name": "Heerlen Woonboulevard"}, {"id": "2510754", "lat": 51.8925, "lon": 7.18695, "name": "Lette (Kr Coesfeld)"}, {"id": "2510248", "lat": 52.19236, "lon": 5.43311, "name": "Amersfoort Vathorst"}, {"id": "2511599", "lat": 52.50914, "lon": 6.57485, "name": "Marienberg"}, {"id": "2511930", "lat": 51.28296, "lon": 6.07942, "name": "Reuver"}, {"id": "2512503", "lat": 52.04641, "lon": 4.49199, "name": "Zoetermeer Oost"}, {"id": "2511345", "lat": 52.49497, "lon": 4.75535, "name": "Krommenie-Assendelft"}, {"id": "2512286", "lat": 51.44445, "lon": 3.59561, "name": "Vlissingen"}, {"id": "2510364", "lat": 52.09095, "lon": 6.14696, "name": "Brummen"}, {"id": "2511693", "lat": 53.18457, "lon": 7.19988, "name": "Bad Nieuweschans"}, {"id": "2511260", "lat": 52.01722, "lon": 5.1793, "name": "Houten Castellum"}, {"id": "2510984", "lat": 52.23033, "lon": 6.58461, "name": "Goor"}, {"id": "2510839", "lat": 50.10712, "lon": 8.66383, "name": "Frankfurt (M) Hbf"}, {"id": "2510139", "lat": 52.34665, "lon": 4.91762, "name": "Amsterdam Amstel"}, {"id": "2512330", "lat": 52.08509, "lon": 4.89296, "name": "Woerden"}, {"id": "2510442", "lat": 52.26544, "lon": 5.16299, "name": "Bussum Zuid"}, {"id": "2512080", "lat": 51.9226, "lon": 6.36429, "name": "Terborg"}, {"id": "2510758", "lat": 51.61657, "lon": 7.52953, "name": "Lunen Hbf"}, {"id": "2512376", "lat": 52.31263, "lon": 5.04355, "name": "Weesp"}, {"id": "2511617", "lat": 53.16084, "lon": 6.74058, "name": "Martenshoek"}, {"id": "2510577", "lat": 52.44284, "lon": 4.63881, "name": "Driehuis"}, {"id": "2511374", "lat": 52.53295, "lon": 5.91312, "name": "Kampen Zuid"}, {"id": "2512174", "lat": 52.5215, "lon": 4.70238, "name": "Uitgeest"}, {"id": "2510266", "lat": 51.59524, "lon": 4.77985, "name": "Breda"}, {"id": "2511805", "lat": 52.337, "lon": 4.89038, "name": "Amsterdam RAI"}, {"id": "2510037", "lat": 52.39412, "lon": 5.278, "name": "Almere Buiten"}, {"id": "2511699", "lat": 52.36628, "lon": 6.46269, "name": "Nijverdal"}, {"id": "2510714", "lat": 52.12328, "lon": 7.37561, "name": "Steinfurt-Grottenkamp"}, {"id": "2511839", "lat": 51.88032, "lon": 4.53132, "name": "Rotterdam Lombardijen"}, {"id": "2511711", "lat": 51.76523, "lon": 5.53104, "name": "Oss"}, {"id": "2510996", "lat": 51.49825, "lon": 3.8906, "name": "Goes"}, {"id": "2511570", "lat": 50.88266, "lon": 5.75029, "name": "Meerssen"}, {"id": "2510120", "lat": 52.21569, "lon": 6.00615, "name": "Apeldoorn Osseveld"}, {"id": "2510351", "lat": 52.85497, "lon": 6.52117, "name": "Beilen"}, {"id": "2510091", "lat": 52.63795, "lon": 4.7401, "name": "Alkmaar"}, {"id": "2510691", "lat": 50.7717, "lon": 5.70985, "name": "Eijsden"}, {"id": "2511404", "lat": 51.27387, "lon": 7.22149, "name": "Wuppertal Oberbarmen"}, {"id": "2510819", "lat": 51.917, "lon": 5.855, "name": "Elst"}, {"id": "2512401", "lat": 51.25431, "lon": 7.14935, "name": "Wuppertal Hbf"}, {"id": "2512403", "lat": 51.23408, "lon": 7.07143, "name": "Wuppertal-Vohwinkel"}, {"id": "2511633", "lat": 51.95687, "lon": 7.63584, "name": "Munster (Westf) Hbf"}, {"id": "2511195", "lat": 52.94646, "lon": 5.42314, "name": "Hindeloopen"}, {"id": "2512393", "lat": 51.24861, "lon": 5.70485, "name": "Weert"}, {"id": "2511276", "lat": 52.22633, "lon": 5.18217, "name": "Hilversum"}, {"id": "2510054", "lat": 52.15329, "lon": 5.37062, "name": "Amersfoort Centraal"}, {"id": "2510486", "lat": 51.95406, "lon": 4.58416, "name": "Capelle Schollevaar"}, {"id": "2510429", "lat": 50.83522, "lon": 4.33548, "name": "Brussel-Zuid/Midi"}, {"id": "2510417", "lat": 50.64426, "lon": 5.61144, "name": "Bressoux"}, {"id": "2511781", "lat": 52.50367, "lon": 4.95427, "name": "Purmerend"}, {"id": "2511437", "lat": 52.16625, "lon": 4.48233, "name": "Leiden Centraal"}, {"id": "2510377", "lat": 52.14001, "lon": 5.59033, "name": "Barneveld Centrum"}, {"id": "2511536", "lat": 53.19635, "lon": 5.79482, "name": "Leeuwarden"}, {"id": "2510100", "lat": 52.64389, "lon": 4.76414, "name": "Alkmaar Noord"}, {"id": "2510446", "lat": 52.53451, "lon": 13.19752, "name": "Berlin-Spandau"}, {"id": "2511558", "lat": 52.13571, "lon": 5.03333, "name": "Maarssen"}, {"id": "2510473", "lat": 51.72722, "lon": 5.87396, "name": "Cuijk"}, {"id": "2510966", "lat": 53.21067, "lon": 6.56565, "name": "Groningen"}, {"id": "2516217", "lat": 51.49464, "lon": 4.29597, "name": "Bergen op Zoom"}, {"id": "2511835", "lat": 52.08067, "lon": 6.45028, "name": "Ruurlo"}, {"id": "2510678", "lat": 52.02764, "lon": 5.67246, "name": "Ede-Wageningen"}, {"id": "2510304", "lat": 51.51042, "lon": 5.38859, "name": "Best"}, {"id": "2510149", "lat": 52.31236, "lon": 4.94634, "name": "Amsterdam Bijlmer ArenA"}, {"id": "2510076", "lat": 52.3591, "lon": 6.65216, "name": "Almelo"}, {"id": "2511436", "lat": 52.1658, "lon": 4.48205, "name": "Leiden Centraal"}, {"id": "2512331", "lat": 52.08503, "lon": 4.89302, "name": "Woerden"}, {"id": "2511068", "lat": 52.57242, "lon": 6.6281, "name": "Hardenberg"}, {"id": "2511923", "lat": 51.9041, "lon": 4.51086, "name": "Rotterdam Zuid"}, {"id": "2512079", "lat": 51.92262, "lon": 6.36434, "name": "Terborg"}, {"id": "2511003", "lat": 52.0698, "lon": 4.32228, "name": "Den Haag HS"}, {"id": "2510648", "lat": 53.33372, "lon": 6.92345, "name": "Delfzijl"}, {"id": "2510502", "lat": 52.26006, "lon": 6.71521, "name": "Delden"}, {"id": "2511397", "lat": 53.16189, "lon": 6.72154, "name": "Kropswolde"}, {"id": "2511949", "lat": 52.18388, "lon": 5.29993, "name": "Soestdijk"}, {"id": "2511209", "lat": 52.96072, "lon": 5.91533, "name": "Heerenveen"}, {"id": "2511888", "lat": 51.91995, "lon": 4.48947, "name": "Rotterdam Blaak"}, {"id": "2510620", "lat": 52.25714, "lon": 6.16174, "name": "Deventer"}, {"id": "2510059", "lat": 52.15354, "lon": 5.36961, "name": "Amersfoort Centraal"}, {"id": "2512347", "lat": 52.00561, "lon": 5.79284, "name": "Wolfheze"}, {"id": "2510230", "lat": 52.38888, "lon": 4.83842, "name": "Amsterdam Sloterdijk"}, {"id": "2512383", "lat": 53.1392, "lon": 7.03495, "name": "Winschoten"}, {"id": "2510563", "lat": 51.45601, "lon": 5.78813, "name": "Deurne"}, {"id": "2511563", "lat": 51.49492, "lon": 3.6174, "name": "Middelburg"}, {"id": "2510698", "lat": 51.82794, "lon": 7.29581, "name": "Dulmen"}, {"id": "2510030", "lat": 52.37521, "lon": 5.21796, "name": "Almere Centrum"}, {"id": "2511707", "lat": 51.96542, "lon": 4.61717, "name": "Nieuwerkerk ad IJssel"}, {"id": "2511780", "lat": 52.50371, "lon": 4.9541, "name": "Purmerend"}, {"id": "2512346", "lat": 52.00557, "lon": 5.79282, "name": "Wolfheze"}, {"id": "2512285", "lat": 51.44445, "lon": 3.5957, "name": "Vlissingen"}, {"id": "2512042", "lat": 53.32635, "lon": 6.68756, "name": "Stedum"}, {"id": "2510993", "lat": 51.83382, "lon": 4.96784, "name": "Gorinchem"}, {"id": "2512451", "lat": 53.24781, "lon": 6.40812, "name": "Zuidhorn"}, {"id": "2509996", "lat": 51.98498, "lon": 5.90028, "name": "Arnhem Centraal"}, {"id": "2511129", "lat": 52.69039, "lon": 5.18277, "name": "Hoogkarspel"}, {"id": "2510942", "lat": 53.25586, "lon": 6.31006, "name": "Grijpskerk"}, {"id": "2509988", "lat": 51.98534, "lon": 5.90047, "name": "Arnhem Centraal"}, {"id": "2512234", "lat": 52.22413, "lon": 4.48457, "name": "Voorhout"}, {"id": "2510320", "lat": 51.83226, "lon": 4.87825, "name": "Boven-Hardinxveld"}, {"id": "2512407", "lat": 52.88025, "lon": 6.00471, "name": "Wolvega"}, {"id": "2511330", "lat": 51.25701, "lon": 6.33828, "name": "Dulken"}, {"id": "2512066", "lat": 53.29156, "lon": 6.54031, "name": "Sauwerd"}, {"id": "2511126", "lat": 52.49474, "lon": 4.68634, "name": "Heemskerk"}, {"id": "2512244", "lat": 50.86936, "lon": 5.83267, "name": "Valkenburg"}, {"id": "2511274", "lat": 52.22624, "lon": 5.18195, "name": "Hilversum"}, {"id": "2510195", "lat": 52.36071, "lon": 4.93193, "name": "Amsterdam Muiderpoort"}, {"id": "2510305", "lat": 51.51039, "lon": 5.38848, "name": "Best"}, {"id": "2510273", "lat": 51.59567, "lon": 4.77983, "name": "Breda"}, {"id": "2511092", "lat": 52.29277, "lon": 4.69881, "name": "Hoofddorp"}, {"id": "2511386", "lat": 50.79405, "lon": 7.20334, "name": "Siegburg"}, {"id": "2511598", "lat": 52.50922, "lon": 6.5747, "name": "Marienberg"}, {"id": "2512201", "lat": 52.07843, "lon": 5.12274, "name": "Utrecht Vaartsche Rijn"}, {"id": "2510699", "lat": 53.45881, "lon": 6.82997, "name": "Eemshaven"}, {"id": "2511694", "lat": 53.18451, "lon": 7.19995, "name": "Bad Nieuweschans"}, {"id": "2511108", "lat": 52.2687, "lon": 6.81862, "name": "Hengelo Oost"}, {"id": "2510229", "lat": 52.38898, "lon": 4.83841, "name": "Amsterdam Sloterdijk"}, {"id": "2510977", "lat": 51.83052, "lon": 4.83591, "name": "Hardinxveld-Giessendam"}, {"id": "2511987", "lat": 53.03254, "lon": 5.65148, "name": "Sneek"}, {"id": "2512373", "lat": 47.49172, "lon": 12.06013, "name": "Worgl Hbf"}, {"id": "2510016", "lat": 45.5498, "lon": 6.6476, "name": "Aime-la-Plagne"}, {"id": "2510101", "lat": 52.64383, "lon": 4.76423, "name": "Alkmaar Noord"}, {"id": "2512125", "lat": 53.40103, "lon": 6.60904, "name": "Usquert"}, {"id": "2511716", "lat": 52.67798, "lon": 4.90875, "name": "Obdam"}, {"id": "2511481", "lat": 52.50791, "lon": 5.47264, "name": "Lelystad Centrum"}, {"id": "2510465", "lat": 52.54572, "lon": 4.65886, "name": "Castricum"}, {"id": "2512118", "lat": 53.414, "lon": 6.72021, "name": "Uithuizermeeden"}, {"id": "2512160", "lat": 52.08999, "lon": 5.10993, "name": "Utrecht Centraal"}, {"id": "2510513", "lat": 51.80717, "lon": 4.66917, "name": "Dordrecht"}, {"id": "2510783", "lat": 52.20173, "lon": 7.18261, "name": "Ochtrup"}, {"id": "2512363", "lat": 51.95706, "lon": 6.21344, "name": "Wehl"}, {"id": "2511574", "lat": 53.12994, "lon": 5.71326, "name": "Mantgum"}, {"id": "2512318", "lat": 52.02678, "lon": 4.64907, "name": "Waddinxveen Triangel"}, {"id": "2511658", "lat": 52.2221, "lon": 5.49377, "name": "Nijkerk"}, {"id": "2512194", "lat": 52.1001, "lon": 5.04383, "name": "Utrecht Terwijde"}, {"id": "2510608", "lat": 51.43001, "lon": 6.77474, "name": "Duisburg Hbf"}, {"id": "2511963", "lat": 51.82955, "lon": 4.77846, "name": "Sliedrecht"}, {"id": "2510121", "lat": 52.21581, "lon": 6.00606, "name": "Apeldoorn Osseveld"}, {"id": "2511900", "lat": 51.92451, "lon": 4.46882, "name": "Rotterdam Centraal"}, {"id": "2510197", "lat": 52.36051, "lon": 4.93045, "name": "Amsterdam Muiderpoort"}, {"id": "2511890", "lat": 51.91986, "lon": 4.48926, "name": "Rotterdam Blaak"}, {"id": "2512473", "lat": 52.50465, "lon": 6.09168, "name": "Zwolle"}, {"id": "2511793", "lat": 50.08306, "lon": 14.43605, "name": "Praha hl.n."}, {"id": "2511208", "lat": 52.96078, "lon": 5.91552, "name": "Heerenveen"}, {"id": "2511591", "lat": 52.69187, "lon": 6.19773, "name": "Meppel"}, {"id": "2512114", "lat": 52.23835, "lon": 6.10059, "name": "Twello"}, {"id": "2511926", "lat": 51.90399, "lon": 4.51043, "name": "Rotterdam Zuid"}, {"id": "2512178", "lat": 52.06739, "lon": 5.1423, "name": "Utrecht Lunetten"}, {"id": "2512177", "lat": 52.06742, "lon": 5.14237, "name": "Utrecht Lunetten"}, {"id": "2512203", "lat": 52.07806, "lon": 5.12287, "name": "Utrecht Vaartsche Rijn"}, {"id": "2512482", "lat": 51.69045, "lon": 4.66343, "name": "Lage Zwaluwe"}, {"id": "2510236", "lat": 52.35266, "lon": 4.94881, "name": "Amsterdam Science Park"}, {"id": "2511627", "lat": 50.83783, "lon": 5.71761, "name": "Maastricht Randwyck"}, {"id": "2512200", "lat": 52.07849, "lon": 5.12278, "name": "Utrecht Vaartsche Rijn"}, {"id": "2511958", "lat": 51.9219, "lon": 4.40957, "name": "Schiedam Centrum"}, {"id": "2510234", "lat": 52.38903, "lon": 4.83891, "name": "Amsterdam Sloterdijk"}, {"id": "2511006", "lat": 52.06949, "lon": 4.32262, "name": "Den Haag HS"}, {"id": "2510340", "lat": 52.69613, "lon": 5.25371, "name": "Bovenkarspel Flora"}, {"id": "2512493", "lat": 52.14485, "lon": 6.19403, "name": "Zutphen"}, {"id": "2510092", "lat": 52.63802, "lon": 4.74006, "name": "Alkmaar"}, {"id": "2511612", "lat": 50.84996, "lon": 5.70583, "name": "Maastricht"}, {"id": "2512216", "lat": 52.10729, "lon": 6.31769, "name": "Vorden"}, {"id": "2510912", "lat": 52.01511, "lon": 4.74107, "name": "Gouda Goverwelle"}, {"id": "2511442", "lat": 52.16571, "lon": 4.48144, "name": "Leiden Centraal"}, {"id": "2511031", "lat": 52.05458, "lon": 4.30872, "name": "Den Haag Moerwijk"}, {"id": "2511784", "lat": 52.49641, "lon": 4.93499, "name": "Purmerend Weidevenne"}, {"id": "2512449", "lat": 53.24809, "lon": 6.40712, "name": "Zuidhorn"}, {"id": "2511919", "lat": 51.89402, "lon": 4.51942, "name": "Rotterdam Stadion"}, {"id": "2510862", "lat": 53.18242, "lon": 5.55004, "name": "Franeker"}, {"id": "2511665", "lat": 51.84221, "lon": 5.85225, "name": "Nijmegen"}, {"id": "2510833", "lat": 50.89697, "lon": 4.48417, "name": "Brussels Airport - Zaventem"}, {"id": "2510380", "lat": 52.06325, "lon": 5.19525, "name": "Bunnik"}, {"id": "2512492", "lat": 52.1453, "lon": 6.19565, "name": "Zutphen"}, {"id": "2511013", "lat": 52.08008, "lon": 4.32514, "name": "Den Haag Centraal"}, {"id": "2512415", "lat": 51.9746, "lon": 6.70402, "name": "Winterswijk West"}, {"id": "2511869", "lat": 51.54151, "lon": 4.46007, "name": "Roosendaal"}, {"id": "2510135", "lat": 51.50152, "lon": 3.66974, "name": "Arnemuiden"}, {"id": "2511789", "lat": 48.2084, "lon": 15.6247, "name": "St. Polten Hbf"}, {"id": "2511531", "lat": 53.19605, "lon": 5.79144, "name": "Leeuwarden"}, {"id": "2512224", "lat": 53.10506, "lon": 6.88653, "name": "Veendam"}, {"id": "2511171", "lat": 51.46212, "lon": 5.60723, "name": "Helmond Brandevoort"}, {"id": "2510623", "lat": 52.25036, "lon": 6.2143, "name": "Deventer Colmschate"}, {"id": "2510959", "lat": 53.21076, "lon": 6.56358, "name": "Groningen"}, {"id": "2511445", "lat": 52.16586, "lon": 4.48119, "name": "Leiden Centraal"}, {"id": "2510515", "lat": 51.80742, "lon": 4.6665, "name": "Dordrecht"}, {"id": "2511213", "lat": 50.89091, "lon": 5.97435, "name": "Heerlen"}, {"id": "2510915", "lat": 52.01516, "lon": 4.74109, "name": "Gouda Goverwelle"}, {"id": "2510497", "lat": 52.06529, "lon": 5.2597, "name": "Driebergen-Zeist"}, {"id": "2511638", "lat": 52.71871, "lon": 6.84887, "name": "Nieuw Amsterdam"}, {"id": "2509981", "lat": 52.27966, "lon": 4.97637, "name": "Abcoude"}, {"id": "2510820", "lat": 51.917, "lon": 5.85514, "name": "Elst"}, {"id": "2512446", "lat": 52.45671, "lon": 4.81927, "name": "Zaandam Kogerveld"}, {"id": "2512354", "lat": 52.39087, "lon": 6.14084, "name": "Wijhe"}, {"id": "2512311", "lat": 52.04403, "lon": 4.64985, "name": "Waddinxveen"}, {"id": "2512450", "lat": 53.24799, "lon": 6.40707, "name": "Zuidhorn"}, {"id": "2510541", "lat": 52.49842, "lon": 6.25891, "name": "Dalfsen"}, {"id": "2510640", "lat": 52.14718, "lon": 4.45639, "name": "De Vink"}, {"id": "2512489", "lat": 52.14505, "lon": 6.19536, "name": "Zutphen"}, {"id": "2512456", "lat": 52.50613, "lon": 6.08887, "name": "Zwolle"}, {"id": "2510705", "lat": 52.18351, "lon": 7.03014, "name": "Epe (Westf)"}, {"id": "2510220", "lat": 52.99219, "lon": 6.5713, "name": "Assen"}, {"id": "2511215", "lat": 50.89105, "lon": 5.97447, "name": "Heerlen"}, {"id": "2512500", "lat": 52.04764, "lon": 4.47725, "name": "Zoetermeer"}, {"id": "2510997", "lat": 51.49819, "lon": 3.8906, "name": "Goes"}, {"id": "2511152", "lat": 52.38282, "lon": 4.6716, "name": "Haarlem Spaarnwoude"}, {"id": "2510080", "lat": 52.3584, "lon": 6.65347, "name": "Almelo"}, {"id": "2510216", "lat": 52.99258, "lon": 6.57115, "name": "Assen"}, {"id": "2511823", "lat": 49.01173, "lon": 12.09975, "name": "Regensburg Hbf"}, {"id": "2511174", "lat": 51.46783, "lon": 5.63074, "name": "Helmond 't Hout"}, {"id": "2511475", "lat": 51.31383, "lon": 4.43296, "name": "Kapellen"}, {"id": "2510427", "lat": 50.86043, "lon": 4.36172, "name": "Brussel-Noord"}, {"id": "2511134", "lat": 53.17037, "lon": 5.42527, "name": "Harlingen"}, {"id": "2511853", "lat": 48.47644, "lon": 7.94667, "name": "Offenburg"}, {"id": "2510404", "lat": 51.37235, "lon": 6.15548, "name": "Blerick"}, {"id": "2512168", "lat": 52.52204, "lon": 4.70187, "name": "Uitgeest"}, {"id": "2510156", "lat": 52.37906, "lon": 4.90061, "name": "Amsterdam Centraal"}, {"id": "2511530", "lat": 53.19609, "lon": 5.79143, "name": "Leeuwarden"}, {"id": "2512390", "lat": 51.24882, "lon": 5.70271, "name": "Weert"}, {"id": "2510992", "lat": 51.83387, "lon": 4.96777, "name": "Gorinchem"}, {"id": "2510240", "lat": 51.92125, "lon": 6.57842, "name": "Aalten"}, {"id": "2510223", "lat": 52.38821, "lon": 4.83554, "name": "Amsterdam Sloterdijk"}, {"id": "2512076", "lat": 51.56073, "lon": 5.08365, "name": "Tilburg"}, {"id": "2511498", "lat": 53.33476, "lon": 6.74741, "name": "Loppersum"}, {"id": "2510847", "lat": 51.39103, "lon": 4.46662, "name": "Kalmthout"}, {"id": "2511216", "lat": 50.89111, "lon": 5.97448, "name": "Heerlen"}, {"id": "2511668", "lat": 51.84338, "lon": 5.85231, "name": "Nijmegen"}, {"id": "2511704", "lat": 52.25899, "lon": 4.64561, "name": "Nieuw Vennep"}, {"id": "2510677", "lat": 52.02771, "lon": 5.6725, "name": "Ede-Wageningen"}, {"id": "2512169", "lat": 52.52246, "lon": 4.70113, "name": "Uitgeest"}, {"id": "2512028", "lat": 51.00243, "lon": 5.85938, "name": "Sittard"}, {"id": "2510075", "lat": 52.35834, "lon": 6.65333, "name": "Almelo"}, {"id": "2510106", "lat": 52.86764, "lon": 4.81119, "name": "Anna Paulowna"}, {"id": "2511469", "lat": 48.29029, "lon": 14.29198, "name": "Linz Hbf"}, {"id": "2511626", "lat": 50.83779, "lon": 5.7175, "name": "Maastricht Randwyck"}, {"id": "2510804", "lat": 52.22127, "lon": 6.95115, "name": "Enschede De Eschmarke"}, {"id": "2512014", "lat": 51.06121, "lon": 5.86293, "name": "Susteren"}, {"id": "2510403", "lat": 51.3723, "lon": 6.15539, "name": "Blerick"}, {"id": "2511836", "lat": 52.08064, "lon": 6.45026, "name": "Ruurlo"}, {"id": "2512023", "lat": 52.17292, "lon": 5.31016, "name": "Soest"}, {"id": "2510905", "lat": 52.01737, "lon": 4.70567, "name": "Gouda"}, {"id": "2512243", "lat": 51.25488, "lon": 6.40396, "name": "Viersen"}, {"id": "2512189", "lat": 52.10992, "lon": 5.12541, "name": "Utrecht Overvecht"}, {"id": "2510816", "lat": 51.46268, "lon": 4.45118, "name": "Essen (B)"}, {"id": "2511864", "lat": 51.5414, "lon": 4.46033, "name": "Roosendaal"}, {"id": "2511261", "lat": 52.01721, "lon": 5.17922, "name": "Houten Castellum"}, {"id": "2512405", "lat": 49.80155, "lon": 9.93578, "name": "Wurzburg Hbf"}, {"id": "2511904", "lat": 51.92488, "lon": 4.4686, "name": "Rotterdam Centraal"}, {"id": "2510494", "lat": 52.44176, "lon": 6.57566, "name": "Daarlerveen"}, {"id": "2511243", "lat": 51.6892, "lon": 5.29325, "name": "Hertogenbosch ('s)"}, {"id": "2510062", "lat": 52.15367, "lon": 5.3696, "name": "Amersfoort Centraal"}, {"id": "2511712", "lat": 51.76519, "lon": 5.53108, "name": "Oss"}, {"id": "2510629", "lat": 52.32314, "lon": 4.93721, "name": "Duivendrecht"}, {"id": "2510297", "lat": 52.52563, "lon": 13.36951, "name": "Berlin Hbf"}, {"id": "2510325", "lat": 52.51101, "lon": 13.43461, "name": "Berlin Ostbahnhof"}, {"id": "2511753", "lat": 51.58196, "lon": 5.19329, "name": "Oisterwijk"}, {"id": "2511253", "lat": 51.68928, "lon": 5.29274, "name": "Hertogenbosch ('s)"}, {"id": "2510148", "lat": 52.3124, "lon": 4.94647, "name": "Amsterdam Bijlmer ArenA"}, {"id": "2510520", "lat": 51.80728, "lon": 4.66644, "name": "Dordrecht"}, {"id": "2510980", "lat": 53.22999, "lon": 6.55652, "name": "Groningen Noord"}, {"id": "2510189", "lat": 52.35786, "lon": 4.83395, "name": "Amsterdam Lelylaan"}, {"id": "2510568", "lat": 52.04473, "lon": 6.10308, "name": "Dieren"}, {"id": "2511532", "lat": 53.19595, "lon": 5.79147, "name": "Leeuwarden"}, {"id": "2510825", "lat": 51.57533, "lon": 4.63669, "name": "Etten-Leur"}, {"id": "2511885", "lat": 51.9518, "lon": 4.55274, "name": "Rotterdam Alexander"}, {"id": "2512289", "lat": 51.46434, "lon": 3.59482, "name": "Vlissingen Souburg"}, {"id": "2512345", "lat": 52.00547, "lon": 5.79278, "name": "Wolfheze"}, {"id": "2511318", "lat": 52.17825, "lon": 6.08364, "name": "Klarenbeek"}, {"id": "2511962", "lat": 51.8295, "lon": 4.77842, "name": "Sliedrecht"}, {"id": "2511582", "lat": 51.36495, "lon": 4.46065, "name": "Heide (B)"}, {"id": "2511053", "lat": 51.67804, "lon": 7.80782, "name": "Hamm (Westf.)"}, {"id": "2511858", "lat": 51.71511, "lon": 5.36921, "name": "Rosmalen"}, {"id": "2510228", "lat": 52.38909, "lon": 4.8384, "name": "Amsterdam Sloterdijk"}, {"id": "2510441", "lat": 52.26546, "lon": 5.16313, "name": "Bussum Zuid"}, {"id": "2512113", "lat": 52.23826, "lon": 6.10066, "name": "Twello"}, {"id": "2510529", "lat": 51.79014, "lon": 4.67166, "name": "Dordrecht Zuid"}, {"id": "2511906", "lat": 51.92506, "lon": 4.46852, "name": "Rotterdam Centraal"}, {"id": "2510458", "lat": 52.47861, "lon": 4.65702, "name": "Beverwijk"}, {"id": "2511039", "lat": 51.42812, "lon": 4.46176, "name": "Wildert"}, {"id": "2512432", "lat": 53.15931, "lon": 6.86754, "name": "Zuidbroek"}, {"id": "2511552", "lat": 51.29178, "lon": 4.43485, "name": "Sint-Mariaburg"}, {"id": "2511338", "lat": 50.95154, "lon": 6.91733, "name": "Koln-Ehrenfeld"}, {"id": "2511133", "lat": 53.17043, "lon": 5.42526, "name": "Harlingen"}, {"id": "2510962", "lat": 53.21068, "lon": 6.56359, "name": "Groningen"}, {"id": "2511377", "lat": 50.86132, "lon": 6.05726, "name": "Kerkrade Centrum"}, {"id": "2511648", "lat": 51.35722, "lon": 4.63292, "name": "Noorderkempen"}, {"id": "2512084", "lat": 51.57361, "lon": 4.99356, "name": "Tilburg Reeshof"}, {"id": "2511722", "lat": 51.51211, "lon": 6.84357, "name": "Oberhausen-Sterkrade"}, {"id": "2510050", "lat": 52.3768, "lon": 5.24474, "name": "Almere Parkwijk"}, {"id": "2511766", "lat": 51.7584, "lon": 5.5066, "name": "Oss West"}, {"id": "2511310", "lat": 47.3882, "lon": 11.77466, "name": "Jenbach"}, {"id": "2510525", "lat": 51.80188, "lon": 4.7166, "name": "Dordrecht Stadspolders"}, {"id": "2510055", "lat": 52.15343, "lon": 5.3706, "name": "Amersfoort Centraal"}, {"id": "2512006", "lat": 52.43372, "lon": 4.63261, "name": "Santpoort Noord"}, {"id": "2512185", "lat": 52.08774, "lon": 5.13141, "name": "Utrecht Maliebaan"}, {"id": "2510638", "lat": 52.14727, "lon": 4.45619, "name": "De Vink"}, {"id": "2510595", "lat": 51.95842, "lon": 6.29558, "name": "Doetinchem"}, {"id": "2511999", "lat": 50.93922, "lon": 5.87369, "name": "Schinnen"}, {"id": "2511249", "lat": 51.6915, "lon": 5.29376, "name": "Hertogenbosch ('s)"}, {"id": "2510761", "lat": 51.83433, "lon": 6.25409, "name": "Emmerich"}, {"id": "2512170", "lat": 52.52164, "lon": 4.70265, "name": "Uitgeest"}, {"id": "2510391", "lat": 50.73202, "lon": 7.09708, "name": "Bonn Hbf"}, {"id": "2510321", "lat": 51.83237, "lon": 4.87819, "name": "Boven-Hardinxveld"}, {"id": "2510022", "lat": 53.04709, "lon": 5.84346, "name": "Akkrum"}, {"id": "2511077", "lat": 53.21909, "lon": 5.93492, "name": "Hurdegaryp"}, {"id": "2511071", "lat": 52.40923, "lon": 5.89304, "name": "Harde ('t)"}, {"id": "2510047", "lat": 52.40299, "lon": 5.30023, "name": "Almere Oostvaarders"}, {"id": "2512459", "lat": 52.50471, "lon": 6.09314, "name": "Zwolle"}, {"id": "2510147", "lat": 52.31245, "lon": 4.94664, "name": "Amsterdam Bijlmer ArenA"}, {"id": "2512258", "lat": 51.36553, "lon": 6.17055, "name": "Venlo"}, {"id": "2511763", "lat": 52.39097, "lon": 4.60714, "name": "Overveen"}, {"id": "2512268", "lat": 52.01996, "lon": 5.54884, "name": "Veenendaal Centrum"}, {"id": "2510203", "lat": 52.33883, "lon": 4.87281, "name": "Amsterdam Zuid"}, {"id": "2511724", "lat": 51.58775, "lon": 4.53324, "name": "Oudenbosch"}, {"id": "2511283", "lat": 52.21612, "lon": 5.18722, "name": "Hilversum Sportpark"}, {"id": "2510503", "lat": 52.26008, "lon": 6.7152, "name": "Delden"}, {"id": "2511067", "lat": 52.57244, "lon": 6.62807, "name": "Hardenberg"}, {"id": "2511795", "lat": 50.11077, "lon": 14.43971, "name": "Praha-Holesovice"}, {"id": "2511198", "lat": 52.28401, "lon": 6.42103, "name": "Holten"}, {"id": "2510072", "lat": 52.17471, "lon": 5.40391, "name": "Amersfoort Schothorst"}, {"id": "2511634", "lat": 51.30424, "lon": 5.63044, "name": "Maarheeze"}, {"id": "2512030", "lat": 51.00063, "lon": 5.85838, "name": "Sittard"}, {"id": "2511917", "lat": 51.8941, "lon": 4.5196, "name": "Rotterdam Stadion"}, {"id": "2512524", "lat": 51.81524, "lon": 4.64118, "name": "Zwijndrecht"}, {"id": "2510766", "lat": 52.79064, "lon": 6.89963, "name": "Emmen"}, {"id": "2510166", "lat": 52.37958, "lon": 4.89992, "name": "Amsterdam Centraal"}, {"id": "2515178", "lat": 52.08441, "lon": 4.28373, "name": "Den Haag, Groot Hertoginnelaan"}, {"id": "2512427", "lat": 51.91966, "lon": 5.72241, "name": "Zetten-Andelst"}, {"id": "2511826", "lat": 52.00993, "lon": 6.03022, "name": "Rheden"}, {"id": "2511367", "lat": 50.94356, "lon": 6.95832, "name": "Koln Hbf"}, {"id": "2510771", "lat": 52.7487, "lon": 6.87454, "name": "Emmen Zuid"}, {"id": "2511818", "lat": 48.79007, "lon": 8.19049, "name": "Baden-Baden"}, {"id": "2510939", "lat": 53.20469, "lon": 6.58531, "name": "Groningen Europapark"}, {"id": "2511608", "lat": 50.85092, "lon": 5.7049, "name": "Maastricht"}, {"id": "2510348", "lat": 52.17087, "lon": 4.99056, "name": "Breukelen"}, {"id": "2512333", "lat": 52.08482, "lon": 4.89327, "name": "Woerden"}, {"id": "2511825", "lat": 47.99792, "lon": 7.84131, "name": "Freiburg (Breisgau) Hbf"}, {"id": "2511511", "lat": 52.08509, "lon": 5.62426, "name": "Lunteren"}, {"id": "2511146", "lat": 52.38816, "lon": 4.63847, "name": "Haarlem"}, {"id": "2511875", "lat": 52.31206, "lon": 6.51995, "name": "Rijssen"}, {"id": "2510410", "lat": 51.85496, "lon": 4.55324, "name": "Barendrecht"}, {"id": "2510981", "lat": 53.23007, "lon": 6.55641, "name": "Groningen Noord"}, {"id": "2511459", "lat": 50.89635, "lon": 6.01961, "name": "Landgraaf"}, {"id": "2510925", "lat": 51.8825, "lon": 5.27114, "name": "Geldermalsen"}, {"id": "2511979", "lat": 52.30913, "lon": 4.76203, "name": "Schiphol Airport"}, {"id": "2512140", "lat": 52.08973, "lon": 5.1092, "name": "Utrecht Centraal"}, {"id": "2512367", "lat": 52.48932, "lon": 4.79258, "name": "Wormerveer"}, {"id": "2510786", "lat": 51.82185, "lon": 6.34562, "name": "Praest"}, {"id": "2511005", "lat": 52.06956, "lon": 4.32255, "name": "Den Haag HS"}, {"id": "2510553", "lat": 52.34565, "lon": 4.96637, "name": "Diemen"}, {"id": "2510227", "lat": 52.38918, "lon": 4.83841, "name": "Amsterdam Sloterdijk"}, {"id": "2511480", "lat": 52.5079, "lon": 5.47252, "name": "Lelystad Centrum"}, {"id": "2510161", "lat": 52.37878, "lon": 4.90155, "name": "Amsterdam Centraal"}, {"id": "2511064", "lat": 52.33756, "lon": 5.61983, "name": "Harderwijk"}, {"id": "2511204", "lat": 52.17738, "lon": 5.17881, "name": "Hollandsche Rading"}, {"id": "2511382", "lat": 51.46544, "lon": 4.03666, "name": "Kruiningen-Yerseke"}, {"id": "2512067", "lat": 53.29156, "lon": 6.54048, "name": "Sauwerd"}, {"id": "2511178", "lat": 51.9224, "lon": 5.67275, "name": "Hemmen-Dodewaard"}, {"id": "2510818", "lat": 51.44222, "lon": 7.55917, "name": "Schwerte (Ruhr)"}, {"id": "2511477", "lat": 51.2819, "lon": 4.43438, "name": "Ekeren"}, {"id": "2512217", "lat": 52.10726, "lon": 6.31766, "name": "Vorden"}, {"id": "2511654", "lat": 50.91976, "lon": 5.89276, "name": "Nuth"}, {"id": "2510254", "lat": 43.92182, "lon": 4.78566, "name": "Avignon TGV"}, {"id": "2511631", "lat": 48.14018, "lon": 11.55841, "name": "Munchen Hbf"}, {"id": "2511265", "lat": 51.70047, "lon": 5.31864, "name": "Hertogenb ('s) Oost"}, {"id": "2510272", "lat": 51.59559, "lon": 4.77984, "name": "Breda"}, {"id": "2511915", "lat": 51.8941, "lon": 4.5196, "name": "Rotterdam Stadion"}, {"id": "2510182", "lat": 52.37857, "lon": 4.90135, "name": "Amsterdam Centraal"}, {"id": "2512359", "lat": 52.97198, "lon": 5.45644, "name": "Workum"}, {"id": "2511810", "lat": 52.3915, "lon": 6.27805, "name": "Raalte"}, {"id": "2510217", "lat": 52.99221, "lon": 6.57117, "name": "Assen"}, {"id": "2510196", "lat": 52.36048, "lon": 4.9306, "name": "Amsterdam Muiderpoort"}, {"id": "2511252", "lat": 51.69152, "lon": 5.29364, "name": "Hertogenbosch ('s)"}, {"id": "2509998", "lat": 51.98515, "lon": 5.90039, "name": "Arnhem Centraal"}, {"id": "2510635", "lat": 51.94341, "lon": 6.01442, "name": "Duiven"}, {"id": "2511739", "lat": 52.50966, "lon": 6.41674, "name": "Ommen"}, {"id": "2512031", "lat": 51.00069, "lon": 5.85816, "name": "Sittard"}, {"id": "2511487", "lat": 52.04097, "lon": 4.51874, "name": "Lansingerland-Zoetermeer"}, {"id": "2512294", "lat": 52.12628, "lon": 4.43364, "name": "Voorschoten"}, {"id": "2512457", "lat": 52.50554, "lon": 6.08974, "name": "Zwolle"}, {"id": "2567475", "lat": 52.3063, "lon": 6.93372, "name": "Oldenzaal"}, {"id": "2510811", "lat": 52.23711, "lon": 6.83938, "name": "Enschede Kennispark"}, {"id": "2510514", "lat": 51.8073, "lon": 4.6677, "name": "Dordrecht"}, {"id": "2512381", "lat": 53.16347, "lon": 7.3427, "name": "Weener"}, {"id": "2510245", "lat": 51.21602, "lon": 4.42105, "name": "Antwerpen-Centraal"}, {"id": "2510007", "lat": 51.98772, "lon": 5.94308, "name": "Arnhem Presikhaaf"}, {"id": "2512071", "lat": 52.79124, "lon": 6.11622, "name": "Steenwijk"}, {"id": "2512386", "lat": 53.33021, "lon": 6.52033, "name": "Winsum"}, {"id": "2510184", "lat": 52.37928, "lon": 4.89963, "name": "Amsterdam Centraal"}, {"id": "2512491", "lat": 52.14444, "lon": 6.19289, "name": "Zutphen"}, {"id": "2510187", "lat": 52.37785, "lon": 4.89999, "name": "Amsterdam Centraal"}, {"id": "2511191", "lat": 52.42733, "lon": 6.22149, "name": "Heino"}, {"id": "2512074", "lat": 51.56056, "lon": 5.08363, "name": "Tilburg"}, {"id": "2510779", "lat": 51.98497, "lon": 7.63856, "name": "Munster (W) Zentrum Nord"}, {"id": "2512488", "lat": 52.14434, "lon": 6.19292, "name": "Zutphen"}, {"id": "2510435", "lat": 52.07754, "lon": 4.64668, "name": "Boskoop"}, {"id": "2510179", "lat": 52.37847, "lon": 4.90126, "name": "Amsterdam Centraal"}, {"id": "2510696", "lat": 51.51785, "lon": 7.45931, "name": "Dortmund Hbf"}, {"id": "2510732", "lat": 51.44308, "lon": 5.48041, "name": "Eindhoven Centraal"}, {"id": "2511130", "lat": 52.69037, "lon": 5.18278, "name": "Hoogkarspel"}, {"id": "2512173", "lat": 52.52228, "lon": 4.70092, "name": "Uitgeest"}, {"id": "2511914", "lat": 51.8941, "lon": 4.5196, "name": "Rotterdam Stadion"}, {"id": "2511439", "lat": 52.16566, "lon": 4.48155, "name": "Leiden Centraal"}, {"id": "2511614", "lat": 50.85068, "lon": 5.70561, "name": "Maastricht"}, {"id": "2511880", "lat": 52.03941, "lon": 4.31977, "name": "Rijswijk"}, {"id": "2510976", "lat": 51.83043, "lon": 4.83592, "name": "Hardinxveld-Giessendam"}, {"id": "2512235", "lat": 52.2241, "lon": 4.48442, "name": "Voorhout"}, {"id": "2511846", "lat": 51.19287, "lon": 5.99429, "name": "Roermond"}, {"id": "2511723", "lat": 51.58778, "lon": 4.53314, "name": "Oudenbosch"}, {"id": "2512366", "lat": 52.48939, "lon": 4.79262, "name": "Wormerveer"}, {"id": "2510752", "lat": 51.76182, "lon": 7.43167, "name": "Ludinghausen"}, {"id": "2510829", "lat": 51.53902, "lon": 7.69241, "name": "Unna"}, {"id": "2510628", "lat": 52.32341, "lon": 4.93564, "name": "Duivendrecht"}, {"id": "2510355", "lat": 52.40399, "lon": 4.62742, "name": "Bloemendaal"}, {"id": "2510158", "lat": 52.37874, "lon": 4.90151, "name": "Amsterdam Centraal"}, {"id": "2510192", "lat": 52.35798, "lon": 4.83436, "name": "Amsterdam Lelylaan"}, {"id": "2510557", "lat": 52.33017, "lon": 4.95542, "name": "Diemen Zuid"}, {"id": "2512191", "lat": 52.11005, "lon": 5.12534, "name": "Utrecht Overvecht"}, {"id": "2510506", "lat": 51.80744, "lon": 4.66772, "name": "Dordrecht"}, {"id": "2510144", "lat": 52.31263, "lon": 4.94735, "name": "Amsterdam Bijlmer ArenA"}, {"id": "2510067", "lat": 52.1539, "lon": 5.37053, "name": "Amersfoort Centraal"}, {"id": "2512182", "lat": 52.0991, "lon": 5.06538, "name": "Utrecht Leidsche Rijn"}, {"id": "2511112", "lat": 52.73353, "lon": 6.47278, "name": "Hoogeveen"}, {"id": "2511603", "lat": 52.06422, "lon": 5.37035, "name": "Maarn"}, {"id": "2511280", "lat": 52.23788, "lon": 5.1741, "name": "Hilversum Media Park"}, {"id": "2511083", "lat": 52.9566, "lon": 4.76073, "name": "Den Helder"}, {"id": "2510247", "lat": 51.24483, "lon": 4.42476, "name": "Antwerpen-Luchtbal"}, {"id": "2510663", "lat": 52.14754, "lon": 7.32919, "name": "Steinfurt-Burgsteinfurt"}, {"id": "2511412", "lat": 52.07887, "lon": 4.3434, "name": "Den Haag Laan v NOI"}, {"id": "2511959", "lat": 51.922, "lon": 4.40963, "name": "Schiedam Centrum"}, {"id": "2512342", "lat": 48.16595, "lon": 14.02651, "name": "Wels Hbf"}, {"id": "2511609", "lat": 50.85097, "lon": 5.7051, "name": "Maastricht"}, {"id": "2511018", "lat": 52.08026, "lon": 4.32565, "name": "Den Haag Centraal"}, {"id": "2512034", "lat": 51.00073, "lon": 5.85804, "name": "Sittard"}, {"id": "2511897", "lat": 51.92544, "lon": 4.46833, "name": "Rotterdam Centraal"}, {"id": "2510742", "lat": 51.99847, "lon": 7.12261, "name": "Rosendahl-Holtwick"}, {"id": "2511341", "lat": 52.04596, "lon": 5.5735, "name": "Veenendaal-De Klomp"}, {"id": "2511673", "lat": 51.82403, "lon": 5.79452, "name": "Nijmegen Dukenburg"}, {"id": "2510326", "lat": 52.13014, "lon": 5.20432, "name": "Bilthoven"}, {"id": "2510051", "lat": 52.37668, "lon": 5.24476, "name": "Almere Parkwijk"}, {"id": "2510745", "lat": 52.69959, "lon": 5.28804, "name": "Enkhuizen"}, {"id": "2512325", "lat": 51.81157, "lon": 5.73045, "name": "Wijchen"}, {"id": "2510824", "lat": 51.57524, "lon": 4.63678, "name": "Etten-Leur"}, {"id": "2511256", "lat": 52.03401, "lon": 5.16818, "name": "Houten"}, {"id": "2511594", "lat": 52.69184, "lon": 6.19797, "name": "Meppel"}, {"id": "2512010", "lat": 52.41964, "lon": 4.63131, "name": "Santpoort Zuid"}, {"id": "2511324", "lat": 51.29468, "lon": 6.24103, "name": "Breyell"}, {"id": "2510352", "lat": 52.85496, "lon": 6.5213, "name": "Beilen"}, {"id": "2512206", "lat": 52.10319, "lon": 5.08946, "name": "Utrecht Zuilen"}, {"id": "2511878", "lat": 52.03933, "lon": 4.31953, "name": "Rijswijk"}, {"id": "2512121", "lat": 53.40969, "lon": 6.67342, "name": "Uithuizen"}, {"id": "2510173", "lat": 52.37832, "lon": 4.9011, "name": "Amsterdam Centraal"}, {"id": "2511911", "lat": 51.94231, "lon": 4.4816, "name": "Rotterdam Noord"}, {"id": "2511389", "lat": 51.93151, "lon": 5.58334, "name": "Kesteren"}, {"id": "2511618", "lat": 53.16077, "lon": 6.74051, "name": "Martenshoek"}, {"id": "2511093", "lat": 52.29269, "lon": 4.6989, "name": "Hoofddorp"}, {"id": "2510762", "lat": 52.30147, "lon": 5.61473, "name": "Ermelo"}, {"id": "2511275", "lat": 52.2263, "lon": 5.18208, "name": "Hilversum"}, {"id": "2511390", "lat": 51.93143, "lon": 5.58331, "name": "Kesteren"}, {"id": "2510922", "lat": 51.88264, "lon": 5.27129, "name": "Geldermalsen"}, {"id": "2510425", "lat": 50.84538, "lon": 4.35715, "name": "Brussel-Centraal"}, {"id": "2511312", "lat": 48.99357, "lon": 8.40043, "name": "Karlsruhe Hbf"}, {"id": "2511742", "lat": 51.92617, "lon": 5.63653, "name": "Opheusden"}, {"id": "2512279", "lat": 51.5269, "lon": 6.01432, "name": "Venray"}, {"id": "2510208", "lat": 52.29831, "lon": 4.95992, "name": "Amsterdam Holendrecht"}, {"id": "2511924", "lat": 51.90404, "lon": 4.51071, "name": "Rotterdam Zuid"}, {"id": "2510729", "lat": 51.44297, "lon": 5.48043, "name": "Eindhoven Centraal"}, {"id": "2511351", "lat": 50.86634, "lon": 5.89046, "name": "Klimmen-Ransdaal"}, {"id": "2511703", "lat": 52.25904, "lon": 4.64552, "name": "Nieuw Vennep"}, {"id": "2511550", "lat": 49.47963, "lon": 8.46986, "name": "Mannheim Hbf"}, {"id": "2510908", "lat": 52.01755, "lon": 4.70569, "name": "Gouda"}, {"id": "2511251", "lat": 51.69043, "lon": 5.29321, "name": "Hertogenbosch ('s)"}, {"id": "2512022", "lat": 52.17293, "lon": 5.31025, "name": "Soest"}, {"id": "2512392", "lat": 51.24873, "lon": 5.70169, "name": "Weert"}, {"id": "2511916", "lat": 51.8941, "lon": 4.5196, "name": "Rotterdam Stadion"}, {"id": "2510124", "lat": 53.32586, "lon": 6.86151, "name": "Appingedam"}, {"id": "2510002", "lat": 50.76778, "lon": 6.09145, "name": "Aachen Hbf"}, {"id": "2510276", "lat": 50.89719, "lon": 5.73645, "name": "Bunde"}, {"id": "2512245", "lat": 50.86942, "lon": 5.83277, "name": "Valkenburg"}, {"id": "2511125", "lat": 52.49478, "lon": 4.6862, "name": "Heemskerk"}, {"id": "2510430", "lat": 51.89939, "lon": 5.19466, "name": "Beesd"}, {"id": "2510396", "lat": 53.25634, "lon": 6.1452, "name": "Buitenpost"}, {"id": "2511322", "lat": 51.27431, "lon": 6.27462, "name": "Boisheim"}, {"id": "2511405", "lat": 52.45777, "lon": 4.80577, "name": "Koog aan de Zaan"}, {"id": "2510336", "lat": 50.94736, "lon": 5.78629, "name": "Beek-Elsloo"}, {"id": "2511229", "lat": 51.42686, "lon": 6.04168, "name": "Horst-Sevenum"}, {"id": "2511981", "lat": 52.30923, "lon": 4.7619, "name": "Schiphol Airport"}, {"id": "2511841", "lat": 51.88025, "lon": 4.53107, "name": "Rotterdam Lombardijen"}, {"id": "2512137", "lat": 52.08979, "lon": 5.10937, "name": "Utrecht Centraal"}, {"id": "2511045", "lat": 52.35947, "lon": 4.60668, "name": "Heemstede-Aerdenhout"}, {"id": "2511458", "lat": 50.89663, "lon": 6.02045, "name": "Landgraaf"}, {"id": "2510421", "lat": 52.20811, "lon": 5.28115, "name": "Baarn"}, {"id": "2510611", "lat": 52.25674, "lon": 6.16187, "name": "Deventer"}, {"id": "2511689", "lat": 52.37084, "lon": 5.78481, "name": "Nunspeet"}, {"id": "2511105", "lat": 52.26164, "lon": 6.76764, "name": "Hengelo Gezondheidspark"}, {"id": "2512504", "lat": 52.04648, "lon": 4.49201, "name": "Zoetermeer Oost"}, {"id": "2512262", "lat": 51.5916, "lon": 5.9972, "name": "Vierlingsbeek"}, {"id": "2511313", "lat": 51.43315, "lon": 4.11737, "name": "Krabbendijke"}, {"id": "2510284", "lat": 53.30684, "lon": 6.59218, "name": "Bedum"}, {"id": "2510040", "lat": 52.36765, "lon": 5.19046, "name": "Almere Muziekwijk"}, {"id": "2510413", "lat": 51.85484, "lon": 4.55294, "name": "Barendrecht"}, {"id": "2511137", "lat": 53.17476, "lon": 5.41145, "name": "Harlingen Haven"}, {"id": "2512412", "lat": 51.9671, "lon": 6.71623, "name": "Winterswijk"}, {"id": "2511279", "lat": 52.23783, "lon": 5.17391, "name": "Hilversum Media Park"}, {"id": "2512290", "lat": 51.46505, "lon": 3.59536, "name": "Vlissingen Souburg"}, {"id": "2510893", "lat": 52.60975, "lon": 6.67628, "name": "Gramsbergen"}, {"id": "2510899", "lat": 52.01761, "lon": 4.7057, "name": "Gouda"}, {"id": "2510867", "lat": 50.0532, "lon": 8.57014, "name": "Frankfurt Flughafen Fernb"}, {"id": "2512303", "lat": 52.10285, "lon": 5.00785, "name": "Vleuten"}, {"id": "2511747", "lat": 52.27267, "lon": 8.06161, "name": "Osnabruck Hbf"}, {"id": "2512478", "lat": 52.52792, "lon": 6.05106, "name": "Zwolle Stadshagen"}, {"id": "2511652", "lat": 51.20486, "lon": 6.68463, "name": "Neuss Hbf"}, {"id": "2510032", "lat": 52.37502, "lon": 5.21807, "name": "Almere Centrum"}, {"id": "2510498", "lat": 52.0652, "lon": 5.2597, "name": "Driebergen-Zeist"}, {"id": "2511040", "lat": 51.58382, "lon": 4.92527, "name": "Gilze-Rijen"}, {"id": "2511402", "lat": 51.26708, "lon": 7.19599, "name": "Wuppertal-Barmen"}, {"id": "2511982", "lat": 52.30928, "lon": 4.76176, "name": "Schiphol Airport"}, {"id": "2512172", "lat": 52.52189, "lon": 4.70165, "name": "Uitgeest"}, {"id": "2511025", "lat": 52.09044, "lon": 4.36917, "name": "Den Haag Mariahoeve"}, {"id": "2511326", "lat": 51.29157, "lon": 6.78696, "name": "Dusseldorf Flughafen"}, {"id": "2511457", "lat": 50.89674, "lon": 6.02045, "name": "Landgraaf"}, {"id": "2512202", "lat": 52.07817, "lon": 5.12299, "name": "Utrecht Vaartsche Rijn"}, {"id": "2510661", "lat": 51.59806, "lon": 7.75735, "name": "Boenen"}, {"id": "2510262", "lat": 47.56736, "lon": 7.60778, "name": "Basel Bad Bf"}, {"id": "2510989", "lat": 51.41998, "lon": 5.55053, "name": "Geldrop"}, {"id": "2510450", "lat": 51.58463, "lon": 5.31839, "name": "Boxtel"}, {"id": "2511611", "lat": 50.85099, "lon": 5.70519, "name": "Maastricht"}, {"id": "2511141", "lat": 52.38795, "lon": 4.63844, "name": "Haarlem"}, {"id": "2512481", "lat": 51.69041, "lon": 4.66329, "name": "Lage Zwaluwe"}, {"id": "2510679", "lat": 52.02758, "lon": 5.67244, "name": "Ede-Wageningen"}, {"id": "2512267", "lat": 52.02001, "lon": 5.54897, "name": "Veenendaal Centrum"}, {"id": "2511299", "lat": 50.8709, "lon": 6.09431, "name": "Herzogenrath"}, {"id": "2510573", "lat": 51.04029, "lon": 13.73187, "name": "Dresden Hbf"}, {"id": "2509989", "lat": 51.98469, "lon": 5.90009, "name": "Arnhem Centraal"}, {"id": "2511564", "lat": 51.49479, "lon": 3.61747, "name": "Middelburg"}, {"id": "2511901", "lat": 51.92459, "lon": 4.46873, "name": "Rotterdam Centraal"}, {"id": "2511090", "lat": 52.29288, "lon": 4.6984, "name": "Hoofddorp"}, {"id": "2512426", "lat": 51.91974, "lon": 5.72244, "name": "Zetten-Andelst"}, {"id": "2510177", "lat": 52.37877, "lon": 4.90047, "name": "Amsterdam Centraal"}, {"id": "2510651", "lat": 53.33196, "lon": 6.9066, "name": "Delfzijl West"}, {"id": "2511238", "lat": 51.69033, "lon": 5.29395, "name": "Hertogenbosch ('s)"}, {"id": "2511600", "lat": 52.50914, "lon": 6.57488, "name": "Marienberg"}, {"id": "2511526", "lat": 50.97563, "lon": 5.82472, "name": "Geleen-Lutterade"}, {"id": "2510249", "lat": 52.19227, "lon": 5.43319, "name": "Amersfoort Vathorst"}, {"id": "2510405", "lat": 51.37243, "lon": 6.15563, "name": "Blerick"}, {"id": "2511995", "lat": 51.2358, "lon": 6.03204, "name": "Swalmen"}, {"id": "2512307", "lat": 52.40204, "lon": 6.60046, "name": "Vriezenveen"}, {"id": "2510960", "lat": 53.21084, "lon": 6.56562, "name": "Groningen"}, {"id": "2511831", "lat": 52.27611, "lon": 7.4352, "name": "Rheine"}, {"id": "2511848", "lat": 51.1924, "lon": 5.99421, "name": "Roermond"}, {"id": "2512423", "lat": 52.05617, "lon": 4.39003, "name": "Den Haag Ypenburg"}, {"id": "2511662", "lat": 51.84401, "lon": 5.85305, "name": "Nijmegen"}, {"id": "2510434", "lat": 52.07753, "lon": 4.64675, "name": "Boskoop"}, {"id": "2512092", "lat": 51.33932, "lon": 6.14332, "name": "Tegelen"}, {"id": "2512419", "lat": 52.45431, "lon": 6.00288, "name": "Wezep"}, {"id": "2510448", "lat": 51.5848, "lon": 5.31871, "name": "Boxtel"}, {"id": "2512230", "lat": 51.65564, "lon": 5.29203, "name": "Vught"}, {"id": "2512149", "lat": 52.08957, "lon": 5.10866, "name": "Utrecht Centraal"}, {"id": "2511986", "lat": 53.03248, "lon": 5.65156, "name": "Sneek"}, {"id": "2512515", "lat": 51.64114, "lon": 4.60979, "name": "Zevenbergen"}, {"id": "2510018", "lat": 43.455, "lon": 5.31722, "name": "Aix-en-Provence TGV"}, {"id": "2511777", "lat": 52.51127, "lon": 4.96746, "name": "Purmerend Overwhere"}, {"id": "2510524", "lat": 51.80197, "lon": 4.71664, "name": "Dordrecht Stadspolders"}, {"id": "2512011", "lat": 52.41965, "lon": 4.63147, "name": "Santpoort Zuid"}, {"id": "2511983", "lat": 52.30937, "lon": 4.76159, "name": "Schiphol Airport"}, {"id": "2511294", "lat": 52.3859, "lon": 4.74702, "name": "Halfweg-Zwanenburg"}, {"id": "2510023", "lat": 53.0471, "lon": 5.84354, "name": "Akkrum"}, {"id": "2511188", "lat": 52.65327, "lon": 5.08493, "name": "Hoorn Kersenboogerd"}, {"id": "2512163", "lat": 52.08994, "lon": 5.1098, "name": "Utrecht Centraal"}, {"id": "2512445", "lat": 52.45681, "lon": 4.81927, "name": "Zaandam Kogerveld"}, {"id": "2511785", "lat": 52.49634, "lon": 4.93505, "name": "Purmerend Weidevenne"}, {"id": "2512250", "lat": 51.36394, "lon": 6.17259, "name": "Venlo"}, {"id": "2510190", "lat": 52.35786, "lon": 4.8341, "name": "Amsterdam Lelylaan"}, {"id": "2511767", "lat": 51.75831, "lon": 5.50663, "name": "Oss West"}, {"id": "2510226", "lat": 52.38928, "lon": 4.83842, "name": "Amsterdam Sloterdijk"}, {"id": "2512519", "lat": 52.37576, "lon": 4.5315, "name": "Zandvoort aan Zee"}, {"id": "2510128", "lat": 52.1247, "lon": 4.65743, "name": "Alphen a/d Rijn"}, {"id": "2511028", "lat": 52.05459, "lon": 4.30838, "name": "Den Haag Moerwijk"}, {"id": "2510289", "lat": 51.60573, "lon": 4.72131, "name": "Breda-Prinsenbeek"}, {"id": "2510045", "lat": 52.40314, "lon": 5.30008, "name": "Almere Oostvaarders"}, {"id": "2511809", "lat": 52.39152, "lon": 6.27809, "name": "Raalte"}, {"id": "2512442", "lat": 52.43839, "lon": 4.81361, "name": "Zaandam"}, {"id": "2512483", "lat": 51.69047, "lon": 4.6635, "name": "Lage Zwaluwe"}, {"id": "2510552", "lat": 52.34493, "lon": 4.96819, "name": "Diemen"}, {"id": "2510474", "lat": 51.72659, "lon": 5.87425, "name": "Cuijk"}, {"id": "2510546", "lat": 52.14037, "lon": 5.24279, "name": "Den Dolder"}, {"id": "2510167", "lat": 52.37893, "lon": 4.9017, "name": "Amsterdam Centraal"}, {"id": "2511698", "lat": 49.44639, "lon": 11.08194, "name": "Nurnberg Hbf"}, {"id": "2510949", "lat": 50.96741, "lon": 5.8435, "name": "Geleen Oost"}, {"id": "2511072", "lat": 52.40916, "lon": 5.89316, "name": "Harde ('t)"}, {"id": "2510644", "lat": 53.24833, "lon": 6.03551, "name": "De Westereen"}, {"id": "2510169", "lat": 52.37965, "lon": 4.89998, "name": "Amsterdam Centraal"}, {"id": "2512511", "lat": 51.92315, "lon": 6.0718, "name": "Zevenaar"}, {"id": "2511014", "lat": 52.08011, "lon": 4.32523, "name": "Den Haag Centraal"}, {"id": "2511486", "lat": 52.04106, "lon": 4.51873, "name": "Lansingerland-Zoetermeer"}, {"id": "2512315", "lat": 52.05534, "lon": 4.64835, "name": "Waddinxveen Noord"}, {"id": "2511098", "lat": 52.26202, "lon": 6.79293, "name": "Hengelo"}, {"id": "2510112", "lat": 52.20944, "lon": 5.96934, "name": "Apeldoorn"}, {"id": "2510071", "lat": 52.17477, "lon": 5.40382, "name": "Amersfoort Schothorst"}, {"id": "2512075", "lat": 51.56065, "lon": 5.08362, "name": "Tilburg"}, {"id": "2510892", "lat": 52.60979, "lon": 6.67616, "name": "Gramsbergen"}, {"id": "2510319", "lat": 52.30988, "lon": 7.15791, "name": "Bad Bentheim"}, {"id": "2510044", "lat": 52.40321, "lon": 5.30002, "name": "Almere Oostvaarders"}, {"id": "2510214", "lat": 52.99204, "lon": 6.57076, "name": "Assen"}, {"id": "2510367", "lat": 51.64471, "lon": 5.93905, "name": "Boxmeer"}, {"id": "2510618", "lat": 52.25751, "lon": 6.16084, "name": "Deventer"}, {"id": "2512499", "lat": 52.04756, "lon": 4.47723, "name": "Zoetermeer"}, {"id": "2510726", "lat": 51.44285, "lon": 5.48048, "name": "Eindhoven Centraal"}, {"id": "2510512", "lat": 51.80747, "lon": 4.66651, "name": "Dordrecht"}, {"id": "2512029", "lat": 51.00145, "lon": 5.85858, "name": "Sittard"}, {"id": "2511144", "lat": 52.38824, "lon": 4.63635, "name": "Haarlem"}, {"id": "2511918", "lat": 51.89402, "lon": 4.51942, "name": "Rotterdam Stadion"}, {"id": "2511664", "lat": 51.84342, "lon": 5.85253, "name": "Nijmegen"}, {"id": "2510682", "lat": 52.0434, "lon": 5.66823, "name": "Ede Centrum"}, {"id": "2512304", "lat": 52.10305, "lon": 5.00789, "name": "Vleuten"}, {"id": "2512211", "lat": 44.99167, "lon": 4.97861, "name": "Valence TGV"}, {"id": "2510111", "lat": 51.26158, "lon": 4.42782, "name": "Antwerpen-Noorderdokken"}, {"id": "2510089", "lat": 52.63779, "lon": 4.74015, "name": "Alkmaar"}, {"id": "2511049", "lat": 51.36158, "lon": 7.45939, "name": "Hagen Hbf"}, {"id": "2511406", "lat": 52.45777, "lon": 4.80562, "name": "Koog aan de Zaan"}, {"id": "2511762", "lat": 52.39102, "lon": 4.60717, "name": "Overveen"}, {"id": "2511585", "lat": 51.76622, "lon": 5.87876, "name": "Mook-Molenhoek"}, {"id": "2511840", "lat": 51.88029, "lon": 4.53121, "name": "Rotterdam Lombardijen"}, {"id": "2510610", "lat": 51.21995, "lon": 6.79429, "name": "Dusseldorf Hbf"}, {"id": "2510667", "lat": 51.66985, "lon": 7.45658, "name": "Bork (Westf)"}, {"id": "2512351", "lat": 53.39024, "lon": 6.56699, "name": "Warffum"}, {"id": "2510178", "lat": 52.37913, "lon": 4.89944, "name": "Amsterdam Centraal"}, {"id": "2510585", "lat": 53.17772, "lon": 5.63485, "name": "Dronryp"}, {"id": "2510810", "lat": 51.70803, "lon": 7.45311, "name": "Selm"}, {"id": "2510896", "lat": 52.21873, "lon": 6.97386, "name": "Glanerbrug"}, {"id": "2511870", "lat": 51.54032, "lon": 4.45815, "name": "Roosendaal"}, {"id": "2510314", "lat": 51.49463, "lon": 4.2961, "name": "Bergen op Zoom"}, {"id": "2511953", "lat": 53.165, "lon": 6.97876, "name": "Scheemda"}, {"id": "2511272", "lat": 52.22619, "lon": 5.18171, "name": "Hilversum"}, {"id": "2516424", "lat": 52.08386, "lon": 4.29212, "name": "Den Haag, Zoutmanstraat"}, {"id": "2510528", "lat": 51.7902, "lon": 4.67152, "name": "Dordrecht Zuid"}, {"id": "2510518", "lat": 51.80734, "lon": 4.66646, "name": "Dordrecht"}, {"id": "2511643", "lat": 52.28074, "lon": 5.15715, "name": "Naarden-Bussum"}, {"id": "2512358", "lat": 52.97199, "lon": 5.4564, "name": "Workum"}, {"id": "2511678", "lat": 51.82724, "lon": 5.82236, "name": "Nijmegen Goffert"}, {"id": "2510164", "lat": 52.37889, "lon": 4.90166, "name": "Amsterdam Centraal"}, {"id": "2511607", "lat": 50.85092, "lon": 5.70482, "name": "Maastricht"}, {"id": "2510985", "lat": 52.23022, "lon": 6.58542, "name": "Goor"}, {"id": "2510012", "lat": 51.95513, "lon": 5.85195, "name": "Arnhem Zuid"}, {"id": "2512344", "lat": 51.65582, "lon": 6.62729, "name": "Wesel"}, {"id": "2511117", "lat": 53.15977, "lon": 6.77149, "name": "Hoogezand-Sappemeer"}, {"id": "2510655", "lat": 52.05224, "lon": 7.48124, "name": "Altenberge"}, {"id": "2510031", "lat": 52.37512, "lon": 5.21799, "name": "Almere Centrum"}, {"id": "2511669", "lat": 51.84405, "lon": 5.85269, "name": "Nijmegen"}, {"id": "2512326", "lat": 51.81152, "lon": 5.73049, "name": "Wijchen"}, {"id": "2512295", "lat": 52.12622, "lon": 4.43377, "name": "Voorschoten"}, {"id": "2510004", "lat": 51.98505, "lon": 5.91991, "name": "Arnhem Velperpoort"}, {"id": "2512525", "lat": 51.81518, "lon": 4.64111, "name": "Zwijndrecht"}, {"id": "2511720", "lat": 51.47509, "lon": 6.85198, "name": "Oberhausen Hbf"}, {"id": "2512171", "lat": 52.52195, "lon": 4.70174, "name": "Uitgeest"}, {"id": "2511264", "lat": 51.70057, "lon": 5.31863, "name": "Hertogenb ('s) Oost"}, {"id": "2510157", "lat": 52.37939, "lon": 4.8997, "name": "Amsterdam Centraal"}, {"id": "2511557", "lat": 52.13574, "lon": 5.0334, "name": "Maarssen"}, {"id": "2510181", "lat": 52.37921, "lon": 4.89957, "name": "Amsterdam Centraal"}, {"id": "2436194", "lat": 50.94352, "lon": 6.93399, "name": "Koln West"}, {"id": "2510887", "lat": 53.23514, "lon": 5.9901, "name": "Feanwalden"}, {"id": "2511803", "lat": 52.33712, "lon": 4.88965, "name": "Amsterdam RAI"}, {"id": "2512312", "lat": 52.04403, "lon": 4.64992, "name": "Waddinxveen"}, {"id": "2511441", "lat": 52.16716, "lon": 4.48336, "name": "Leiden Centraal"}, {"id": "2512220", "lat": 50.8868, "lon": 5.92943, "name": "Voerendaal"}, {"id": "2511625", "lat": 50.83778, "lon": 5.71744, "name": "Maastricht Randwyck"}, {"id": "2511010", "lat": 52.08032, "lon": 4.32574, "name": "Den Haag Centraal"}, {"id": "2510330", "lat": 52.0293, "lon": 8.5327, "name": "Bielefeld Hbf"}, {"id": "2510511", "lat": 51.80764, "lon": 4.66632, "name": "Dordrecht"}, {"id": "2511352", "lat": 50.86642, "lon": 5.89035, "name": "Klimmen-Ransdaal"}, {"id": "2510645", "lat": 53.24823, "lon": 6.03553, "name": "De Westereen"}, {"id": "2511009", "lat": 52.07995, "lon": 4.32482, "name": "Den Haag Centraal"}, {"id": "2511015", "lat": 52.08016, "lon": 4.32534, "name": "Den Haag Centraal"}, {"id": "2511184", "lat": 52.64512, "lon": 5.05466, "name": "Hoorn"}, {"id": "2511087", "lat": 52.93291, "lon": 4.76395, "name": "Den Helder Zuid"}, {"id": "2510886", "lat": 53.23518, "lon": 5.99006, "name": "Feanwalden"}, {"id": "2512397", "lat": 51.96338, "lon": 5.9684, "name": "Westervoort"}, {"id": "2510789", "lat": 52.22222, "lon": 6.88959, "name": "Enschede"}, {"id": "2511898", "lat": 51.92552, "lon": 4.4683, "name": "Rotterdam Centraal"}, {"id": "2511902", "lat": 51.92467, "lon": 4.46869, "name": "Rotterdam Centraal"}, {"id": "2511759", "lat": 51.99465, "lon": 5.84058, "name": "Oosterbeek"}, {"id": "2510447", "lat": 51.58484, "lon": 5.31875, "name": "Boxtel"}, {"id": "2512431", "lat": 53.15932, "lon": 6.86754, "name": "Zuidbroek"}, {"id": "2510113", "lat": 52.20928, "lon": 5.96956, "name": "Apeldoorn"}, {"id": "2511482", "lat": 52.50791, "lon": 5.4728, "name": "Lelystad Centrum"}, {"id": "2512458", "lat": 52.50462, "lon": 6.09305, "name": "Zwolle"}, {"id": "2512509", "lat": 51.92327, "lon": 6.07189, "name": "Zevenaar"}, {"id": "2510397", "lat": 53.25616, "lon": 6.14468, "name": "Buitenpost"}, {"id": "2510558", "lat": 52.33024, "lon": 4.95534, "name": "Diemen Zuid"}, {"id": "2510673", "lat": 51.93906, "lon": 7.16424, "name": "Coesfeld (Westf)"}, {"id": "2510264", "lat": 47.54735, "lon": 7.58899, "name": "Basel SBB"}, {"id": "2511610", "lat": 50.84984, "lon": 5.70571, "name": "Maastricht"}, {"id": "2510589", "lat": 52.00736, "lon": 4.35674, "name": "Delft"}, {"id": "2511520", "lat": 50.62428, "lon": 5.56659, "name": "Liege-Guillemins"}, {"id": "2511394", "lat": 47.58302, "lon": 12.16495, "name": "Kufstein"}, {"id": "2511867", "lat": 51.54025, "lon": 4.45824, "name": "Roosendaal"}, {"id": "2511346", "lat": 52.4949, "lon": 4.75531, "name": "Krommenie-Assendelft"}, {"id": "2510770", "lat": 52.74876, "lon": 6.87442, "name": "Emmen Zuid"}, {"id": "2512275", "lat": 51.99496, "lon": 5.98066, "name": "Velp"}, {"id": "2510657", "lat": 52.08161, "lon": 7.01669, "name": "Ahaus"}, {"id": "2510145", "lat": 52.31258, "lon": 4.94724, "name": "Amsterdam Bijlmer ArenA"}, {"id": "2512207", "lat": 52.10315, "lon": 5.0894, "name": "Utrecht Zuilen"}, {"id": "2511776", "lat": 52.51135, "lon": 4.96741, "name": "Purmerend Overwhere"}, {"id": "2512060", "lat": 52.88663, "lon": 5.35976, "name": "Stavoren"}, {"id": "2512157", "lat": 52.09004, "lon": 5.11008, "name": "Utrecht Centraal"}, {"id": "2510630", "lat": 52.32398, "lon": 4.9358, "name": "Duivendrecht"}, {"id": "2510114", "lat": 52.2092, "lon": 5.96954, "name": "Apeldoorn"}, {"id": "2512281", "lat": 51.52682, "lon": 6.01403, "name": "Venray"}, {"id": "2510256", "lat": 50.78055, "lon": 6.07005, "name": "Aachen West"}, {"id": "2510420", "lat": 52.20818, "lon": 5.28122, "name": "Baarn"}, {"id": "2510937", "lat": 53.20481, "lon": 6.58547, "name": "Groningen Europapark"}, {"id": "2511868", "lat": 51.54088, "lon": 4.45908, "name": "Roosendaal"}, {"id": "2511690", "lat": 52.37095, "lon": 5.78476, "name": "Nunspeet"}, {"id": "2589757", "lat": 52.37702, "lon": 4.89498, "name": "Amsterdam, Nieuwezijds Kolk"}, {"id": "2589758", "lat": 52.37667, "lon": 4.89425, "name": "Amsterdam, Nieuwezijds Kolk"}, {"id": "2588983", "lat": 52.35321, "lon": 4.93135, "name": "Amsterdam, Hogeweg"}, {"id": "2589000", "lat": 52.3479, "lon": 4.93994, "name": "Amsterdam, Kruislaan"}, {"id": "2589001", "lat": 52.34761, "lon": 4.94045, "name": "Amsterdam, Kruislaan"}, {"id": "2589118", "lat": 52.33824, "lon": 4.96143, "name": "Diemen, Diemerbrug"}, {"id": "2589119", "lat": 52.33838, "lon": 4.96098, "name": "Diemen, Diemerbrug"}, {"id": "2588967", "lat": 52.36122, "lon": 4.9328, "name": "Amsterdam, Muiderpoortstation"}, {"id": "2588969", "lat": 52.36118, "lon": 4.93356, "name": "Amsterdam, Muiderpoortstation"}, {"id": "2589123", "lat": 52.36088, "lon": 4.93254, "name": "Amsterdam, Muiderpoortstation"}, {"id": "2588970", "lat": 52.36111, "lon": 4.92978, "name": "Amsterdam, Dapperstraat"}, {"id": "2590293", "lat": 52.36092, "lon": 4.92891, "name": "Amsterdam, Dapperstraat"}, {"id": "2588972", "lat": 52.36027, "lon": 4.92507, "name": "Amsterdam, Wijttenbachstraat"}, {"id": "2590047", "lat": 52.35979, "lon": 4.92547, "name": "Amsterdam, Wijttenbachstraat"}, {"id": "2590294", "lat": 52.36013, "lon": 4.92574, "name": "Amsterdam, Linnaeusstraat"}, {"id": "2589126", "lat": 52.35991, "lon": 4.9249, "name": "Amsterdam, Linnaeusstraat"}, {"id": "2588976", "lat": 52.35906, "lon": 4.91675, "name": "Amsterdam, Beukenweg"}, {"id": "2588977", "lat": 52.3583, "lon": 4.91721, "name": "Amsterdam, Beukenweg"}, {"id": "2590295", "lat": 52.35707, "lon": 4.92719, "name": "Amsterdam, Oostpoort"}, {"id": "2588981", "lat": 52.35739, "lon": 4.92694, "name": "Amsterdam, Oostpoort"}, {"id": "2588982", "lat": 52.35358, "lon": 4.93084, "name": "Amsterdam, Hogeweg"}, {"id": "2588998", "lat": 52.35101, "lon": 4.93487, "name": "Amsterdam, Hugo de Vrieslaan"}, {"id": "2588999", "lat": 52.35073, "lon": 4.9354, "name": "Amsterdam, Hugo de Vrieslaan"}, {"id": "2589002", "lat": 52.34285, "lon": 4.94797, "name": "Amsterdam, Brinkstraat"}, {"id": "2589003", "lat": 52.34324, "lon": 4.94742, "name": "Amsterdam, Brinkstraat"}, {"id": "2589128", "lat": 52.33645, "lon": 4.96965, "name": "Diemen, Diemen Sniep"}, {"id": "2589129", "lat": 52.337, "lon": 4.96958, "name": "Diemen, Diemen Sniep"}, {"id": "2589137", "lat": 52.33957, "lon": 4.95469, "name": "Diemen, Arent Krijtsstraat"}, {"id": "2589140", "lat": 52.3394, "lon": 4.95549, "name": "Diemen, Arent Krijtsstraat"}, {"id": "2589388", "lat": 52.38516, "lon": 4.88371, "name": "Amsterdam, Haarlemmerplein"}, {"id": "2589389", "lat": 52.38484, "lon": 4.88341, "name": "Amsterdam, Haarlemmerplein"}, {"id": "2589390", "lat": 52.38173, "lon": 4.88126, "name": "Amsterdam, Nw. Willemsstraat"}, {"id": "2589391", "lat": 52.38127, "lon": 4.88088, "name": "Amsterdam, Nw. Willemsstraat"}, {"id": "2589440", "lat": 52.37773, "lon": 4.8786, "name": "Amsterdam, Marnixplein"}, {"id": "2589441", "lat": 52.37742, "lon": 4.87844, "name": "Amsterdam, Marnixplein"}, {"id": "2589393", "lat": 52.37417, "lon": 4.87632, "name": "Amsterdam, Bloemgracht"}, {"id": "2589394", "lat": 52.3745, "lon": 4.87658, "name": "Amsterdam, Bloemgracht"}, {"id": "2589395", "lat": 52.37253, "lon": 4.87584, "name": "Amsterdam, Rozengracht"}, {"id": "2589798", "lat": 52.37188, "lon": 4.87591, "name": "Amsterdam, Rozengracht"}, {"id": "2589398", "lat": 52.37439, "lon": 4.87259, "name": "Amsterdam, Hugo de Grootplein"}, {"id": "2589399", "lat": 52.37497, "lon": 4.87292, "name": "Amsterdam, Hugo de Grootplein"}, {"id": "2589400", "lat": 52.37863, "lon": 4.87543, "name": "Amsterdam, F. Hendrikplantsoen"}, {"id": "2589401", "lat": 52.37842, "lon": 4.87521, "name": "Amsterdam, F. Hendrikplantsoen"}, {"id": "2589421", "lat": 52.37148, "lon": 4.8601, "name": "Amsterdam, Adm. de Ruijterweg"}, {"id": "2589422", "lat": 52.37129, "lon": 4.86097, "name": "Amsterdam, Adm. de Ruijterweg"}, {"id": "2589426", "lat": 52.37725, "lon": 4.85777, "name": "Amsterdam, De Rijpstraat"}, {"id": "2589427", "lat": 52.38016, "lon": 4.85548, "name": "Amsterdam, Bos en Lommerweg"}, {"id": "2589428", "lat": 52.38118, "lon": 4.8538, "name": "Amsterdam, Bos en Lommerweg"}, {"id": "2589430", "lat": 52.38206, "lon": 4.85219, "name": "Amsterdam, Wiltzanghlaan"}, {"id": "2589432", "lat": 52.3829, "lon": 4.8506, "name": "Amsterdam, Wiltzanghlaan"}, {"id": "2589433", "lat": 52.38588, "lon": 4.84594, "name": "Amsterdam, Molenwerf"}, {"id": "2589434", "lat": 52.38588, "lon": 4.84685, "name": "Amsterdam, Molenwerf"}, {"id": "2589449", "lat": 52.37532, "lon": 4.85842, "name": "Amsterdam, Jan van Galenstraat"}, {"id": "2589495", "lat": 52.36478, "lon": 4.85852, "name": "Amsterdam, Witte de Withstraat"}, {"id": "2589496", "lat": 52.3648, "lon": 4.85928, "name": "Amsterdam, Witte de Withstraat"}, {"id": "2589510", "lat": 52.37952, "lon": 4.83339, "name": "Amsterdam, Burg. Fockstraat"}, {"id": "2589511", "lat": 52.37992, "lon": 4.83108, "name": "Amsterdam, Burg. Fockstraat"}, {"id": "2589514", "lat": 52.37778, "lon": 4.84523, "name": "Amsterdam, Bos en Lommerplein"}, {"id": "2589562", "lat": 52.37709, "lon": 4.8465, "name": "Amsterdam, Bos en Lommerplein"}, {"id": "2589517", "lat": 52.37142, "lon": 4.8381, "name": "Amsterdam, Jan Tooropstraat"}, {"id": "2589518", "lat": 52.37172, "lon": 4.83817, "name": "Amsterdam, Jan Tooropstraat"}, {"id": "2589545", "lat": 52.38075, "lon": 4.82112, "name": "Amsterdam, Plein '40 - '45"}, {"id": "2589546", "lat": 52.38121, "lon": 4.82268, "name": "Amsterdam, Plein '40 - '45"}, {"id": "2589521", "lat": 52.37588, "lon": 4.81752, "name": "Amsterdam, Slotermeerlaan"}, {"id": "2522602", "lat": 51.88212, "lon": 4.52119, "name": "Rotterdam, Smeetslandsedijk"}, {"id": "2589410", "lat": 52.38418, "lon": 4.8699, "name": "Amsterdam, Van Hallstraat"}, {"id": "2589412", "lat": 52.38427, "lon": 4.87518, "name": "Amsterdam, Van L.Stirumstraat"}, {"id": "2589413", "lat": 52.38443, "lon": 4.8749, "name": "Amsterdam, Van L.Stirumstraat"}, {"id": "2589414", "lat": 52.3831, "lon": 4.87717, "name": "Amsterdam, De Wittenkade"}, {"id": "2589415", "lat": 52.38326, "lon": 4.87695, "name": "Amsterdam, De Wittenkade"}, {"id": "2589416", "lat": 52.38083, "lon": 4.87906, "name": "Amsterdam, Nassaukade"}, {"id": "2589417", "lat": 52.38132, "lon": 4.8792, "name": "Amsterdam, Nassaukade"}, {"id": "2589418", "lat": 52.37119, "lon": 4.87053, "name": "Amsterdam, De Clercqstraat"}, {"id": "2589801", "lat": 52.37061, "lon": 4.8704, "name": "Amsterdam, De Clercqstraat"}, {"id": "2589419", "lat": 52.37071, "lon": 4.8636, "name": "Amsterdam, Willem de Zwijgerlaan"}, {"id": "2589420", "lat": 52.37039, "lon": 4.86425, "name": "Amsterdam, Willem de Zwijgerlaan"}, {"id": "2589450", "lat": 52.374, "lon": 4.85874, "name": "Amsterdam, Jan van Galenstraat"}, {"id": "2589439", "lat": 52.37889, "lon": 4.85695, "name": "Amsterdam, Karel Doormanstraat"}, {"id": "2589457", "lat": 52.38933, "lon": 4.83899, "name": "Amsterdam, Station Sloterdijk"}, {"id": "2589458", "lat": 52.38881, "lon": 4.83878, "name": "Amsterdam, Station Sloterdijk"}, {"id": "2589459", "lat": 52.39511, "lon": 4.85104, "name": "Amsterdam, Isolatorweg"}, {"id": "2589460", "lat": 52.39523, "lon": 4.85013, "name": "Amsterdam, Isolatorweg"}, {"id": "2589485", "lat": 52.38833, "lon": 4.83932, "name": "Amsterdam, Station Sloterdijk"},