{"nodes": [{"id": "L1_HOS", "lat": 41.3768, "lon": 2.1417, "name": "Hostafrancs"}, {"id": "L1_BEL", "lat": 41.3559, "lon": 2.1119, "name": "Bellvitge"}, {"id": "L1_RBL", "lat": 41.3627, "lon": 2.1127, "name": "Rambla Just Oliveras"}, {"id": "L1_FLO", "lat": 41.3695, "lon": 2.1258, "name": "Florida"}, {"id": "L1_TOR", "lat": 41.3719, "lon": 2.1324, "name": "Torrassa"}, {"id": "L1_STA", "lat": 41.375, "lon": 2.1426, "name": "Santa Eul\u00e0lia"}, {"id": "L1_MER", "lat": 41.3765, "lon": 2.1506, "name": "Mercat Nou"}, {"id": "L1_PLA", "lat": 41.3789, "lon": 2.1335, "name": "Pla\u00e7a de Sants"}, {"id": "L1_ESP", "lat": 41.375, "lon": 2.1489, "name": "Espanya"}, {"id": "L1_ROC", "lat": 41.3781, "lon": 2.1489, "name": "Rocafort"}, {"id": "L1_URG", "lat": 41.3871, "lon": 2.1583, "name": "Urgell"}, {"id": "L1_UNI", "lat": 41.3869, "lon": 2.1644, "name": "Universitat"}, {"id": "L1_CAT", "lat": 41.387, "lon": 2.17, "name": "Catalunya"}, {"id": "L1_URQ", "lat": 41.3882, "lon": 2.176, "name": "Urquinaona"}, {"id": "L1_ARC", "lat": 41.3909, "lon": 2.181, "name": "Arc de Triomf"}, {"id": "L1_MAR", "lat": 41.3955, "lon": 2.188, "name": "Marina"}, {"id": "L3_ZON", "lat": 41.3862, "lon": 2.1137, "name": "Zona Universit\u00e0ria"}, {"id": "L3_PAL", "lat": 41.3875, "lon": 2.1238, "name": "Palau Reial"}, {"id": "L3_MAR", "lat": 41.3932, "lon": 2.1349, "name": "Maria Cristina"}, {"id": "L3_HOS", "lat": 41.3865, "lon": 2.1297, "name": "Les Corts"}, {"id": "L3_PLA", "lat": 41.3849, "lon": 2.1324, "name": "Pla\u00e7a del Centre"}, {"id": "L3_SAN", "lat": 41.3791, "lon": 2.1397, "name": "Sants Estaci\u00f3"}, {"id": "L3_TAR", "lat": 41.3783, "lon": 2.1505, "name": "Tarragona"}, {"id": "L3_ESP", "lat": 41.375, "lon": 2.1489, "name": "Espanya"}, {"id": "L3_POB", "lat": 41.3732, "lon": 2.164, "name": "Poble Sec"}, {"id": "L3_PAR", "lat": 41.3755, "lon": 2.1738, "name": "Paral\u00b7lel"}, {"id": "L3_DRA", "lat": 41.3757, "lon": 2.177, "name": "Drassanes"}, {"id": "L3_LIC", "lat": 41.3803, "lon": 2.1735, "name": "Liceu"}, {"id": "L3_CAT", "lat": 41.387, "lon": 2.17, "name": "Catalunya"}, {"id": "L3_PAS", "lat": 41.3912, "lon": 2.165, "name": "Passeig de Gr\u00e0cia"}, {"id": "L3_DIA", "lat": 41.3946, "lon": 2.161, "name": "Diagonal"}, {"id": "L3_FON", "lat": 41.4025, "lon": 2.1547, "name": "Fontana"}, {"id": "L3_LES", "lat": 41.4068, "lon": 2.1503, "name": "Lesseps"}, {"id": "L3_VAL", "lat": 41.4111, "lon": 2.1451, "name": "Vallcarca"}, {"id": "L3_PEN", "lat": 41.4133, "lon": 2.14, "name": "Penitents"}, {"id": "L3_VAD", "lat": 41.4277, "lon": 2.1472, "name": "Vall d'Hebron"}, {"id": "L3_MON", "lat": 41.4388, "lon": 2.1419, "name": "Montbau"}, {"id": "L3_MUN", "lat": 41.4435, "lon": 2.1489, "name": "Mundet"}, {"id": "L3_TRI", "lat": 41.4507, "lon": 2.185, "name": "Trinitat Nova"}], "edges": [{"from": "L1_HOS", "to": "L1_BEL", "weight": 120}, {"from": "L1_BEL", "to": "L1_RBL", "weight": 120}, {"from": "L1_RBL", "to": "L1_FLO", "weight": 120}, {"from": "L1_FLO", "to": "L1_TOR", "weight": 120}, {"from": "L1_TOR", "to": "L1_STA", "weight": 120}, {"from": "L1_STA", "to": "L1_MER", "weight": 120}, {"from": "L1_MER", "to": "L1_PLA", "weight": 120}, {"from": "L1_PLA", "to": "L1_HOS", "weight": 120}, {"from": "L1_HOS", "to": "L1_ESP", "weight": 120}, {"from": "L1_ESP", "to": "L1_ROC", "weight": 120}, {"from": "L1_ROC", "to": "L1_URG", "weight": 120}, {"from": "L1_URG", "to": "L1_UNI", "weight": 120}, {"from": "L1_UNI", "to": "L1_CAT", "weight": 120}, {"from": "L1_CAT", "to": "L1_URQ", "weight": 120}, {"from": "L1_URQ", "to": "L1_ARC", "weight": 120}, {"from": "L1_ARC", "to": "L1_MAR", "weight": 120}, {"from": "L3_ZON", "to": "L3_PAL", "weight": 120}, {"from": "L3_PAL", "to": "L3_MAR", "weight": 120}, {"from": "L3_MAR", "to": "L3_HOS", "weight": 120}, {"from": "L3_HOS", "to": "L3_PLA", "weight": 120}, {"from": "L3_PLA", "to": "L3_SAN", "weight": 120}, {"from": "L3_SAN", "to": "L3_TAR", "weight": 120}, {"from": "L3_TAR", "to": "L3_ESP", "weight": 120}, {"from": "L3_ESP", "to": "L3_POB", "weight": 120}, {"from": "L3_POB", "to": "L3_PAR", "weight": 120}, {"from": "L3_PAR", "to": "L3_DRA", "weight": 120}, {"from": "L3_DRA", "to": "L3_LIC", "weight": 120}, {"from": "L3_LIC", "to": "L3_CAT", "weight": 120}, {"from": "L3_CAT", "to": "L3_PAS", "weight": 120}, {"from": "L3_PAS", "to": "L3_DIA", "weight": 120}, {"from": "L3_DIA", "to": "L3_FON", "weight": 120}, {"from": "L3_FON", "to": "L3_LES", "weight": 120}, {"from": "L3_LES", "to": "L3_VAL", "weight": 120}, {"from": "L3_VAL", "to": "L3_PEN", "weight": 120}, {"from": "L3_PEN", "to": "L3_VAD", "weight": 120}, {"from": "L3_VAD", "to": "L3_MON", "weight": 120}, {"from": "L3_MON", "to": "L3_MUN", "weight": 120}, {"from": "L3_MUN", "to": "L3_TRI", "weight": 120}]}