{"nodes": [{"id": "L1_HBE", "lat": 41.3471, "lon": 2.0976, "name": "Hospital de Bellvitge"}, {"id": "L1_BEL", "lat": 41.3519, "lon": 2.1062, "name": "Bellvitge"}, {"id": "L1_AVE", "lat": 41.3585, "lon": 2.1116, "name": "Av. Carrilet"}, {"id": "L1_RBL", "lat": 41.3631, "lon": 2.1161, "name": "Rambla Just Oliveras"}, {"id": "L1_CAN", "lat": 41.3678, "lon": 2.1208, "name": "Can Serra"}, {"id": "L1_FLO", "lat": 41.3713, "lon": 2.1276, "name": "Florida"}, {"id": "L1_TOR", "lat": 41.3744, "lon": 2.1363, "name": "Torrassa"}, {"id": "L1_SJO", "lat": 41.3744, "lon": 2.1454, "name": "Santa Eul\u00e0lia"}, {"id": "L1_MER", "lat": 41.3722, "lon": 2.1545, "name": "Mercat Nou"}, {"id": "L1_PLA", "lat": 41.3783, "lon": 2.1349, "name": "Pla\u00e7a de Sants"}, {"id": "L1_HOS", "lat": 41.3762, "lon": 2.142, "name": "Hostafrancs"}, {"id": "L1_ESP", "lat": 41.3753, "lon": 2.1493, "name": "Espanya"}, {"id": "L1_ROC", "lat": 41.3773, "lon": 2.1539, "name": "Rocafort"}, {"id": "L1_URG", "lat": 41.3856, "lon": 2.1583, "name": "Urgell"}, {"id": "L1_UNI", "lat": 41.3871, "lon": 2.1651, "name": "Universitat"}, {"id": "L1_CAT", "lat": 41.3873, "lon": 2.17, "name": "Catalunya"}, {"id": "L1_URQ", "lat": 41.3881, "lon": 2.1746, "name": "Urquinaona"}, {"id": "L1_ARC", "lat": 41.3916, "lon": 2.1812, "name": "Arc de Triomf"}, {"id": "L1_MAR", "lat": 41.3977, "lon": 2.1886, "name": "Marina"}, {"id": "L1_GLO", "lat": 41.4023, "lon": 2.1877, "name": "Gl\u00f2ries"}, {"id": "L1_CLO", "lat": 41.4103, "lon": 2.189, "name": "Clot"}, {"id": "L1_NAV", "lat": 41.4132, "lon": 2.1832, "name": "Navas"}, {"id": "L1_SAG", "lat": 41.4194, "lon": 2.1852, "name": "La Sagrera"}, {"id": "L1_FAB", "lat": 41.4249, "lon": 2.1796, "name": "Fabra i Puig"}, {"id": "L1_STN", "lat": 41.4351, "lon": 2.1896, "name": "Sant Andreu"}, {"id": "L1_TOR1", "lat": 41.4415, "lon": 2.1868, "name": "Torras i Bages"}, {"id": "L1_TRN", "lat": 41.4497, "lon": 2.1827, "name": "Trinitat Vella"}, {"id": "L1_BAR", "lat": 41.4549, "lon": 2.1864, "name": "Bar\u00f3 de Viver"}, {"id": "L1_SRO", "lat": 41.4538, "lon": 2.1942, "name": "Santa Rosa"}, {"id": "L1_FON", "lat": 41.4492, "lon": 2.1998, "name": "Fondo"}, {"id": "L2_PAR", "lat": 41.3759, "lon": 2.1698, "name": "Paral\u00b7lel"}, {"id": "L2_SEU", "lat": 41.3801, "lon": 2.1609, "name": "Sant Antoni"}, {"id": "L2_UNI2", "lat": 41.3871, "lon": 2.1651, "name": "Universitat"}, {"id": "L2_PGR", "lat": 41.3918, "lon": 2.1651, "name": "Passeig de Gr\u00e0cia"}, {"id": "L2_TET", "lat": 41.3949, "lon": 2.1735, "name": "Tetuan"}, {"id": "L2_MON", "lat": 41.3982, "lon": 2.1815, "name": "Monumental"}, {"id": "L2_SAG2", "lat": 41.404, "lon": 2.1748, "name": "Sagrada Fam\u00edlia"}, {"id": "L2_ENC", "lat": 41.4055, "lon": 2.1828, "name": "Encants"}, {"id": "L2_CLO2", "lat": 41.4103, "lon": 2.189, "name": "Clot"}, {"id": "L2_BAC", "lat": 41.4173, "lon": 2.1998, "name": "Bac de Roda"}, {"id": "L2_SMA", "lat": 41.4184, "lon": 2.2054, "name": "Sant Mart\u00ed"}, {"id": "L2_POB", "lat": 41.4191, "lon": 2.2149, "name": "La Pau"}, {"id": "L2_VER", "lat": 41.4218, "lon": 2.2194, "name": "Verneda"}, {"id": "L2_ARC2", "lat": 41.4258, "lon": 2.2231, "name": "Artigues-Sant Adri\u00e0"}, {"id": "L2_SNT", "lat": 41.4284, "lon": 2.2326, "name": "Sant Roc"}, {"id": "L2_GOR", "lat": 41.4339, "lon": 2.235, "name": "Gorg"}, {"id": "L2_PLY", "lat": 41.4404, "lon": 2.2391, "name": "Pep Ventura"}, {"id": "L2_POM", "lat": 41.4464, "lon": 2.2413, "name": "Badalona Pompeu Fabra"}, {"id": "L3_ZUN", "lat": 41.3868, "lon": 2.1138, "name": "Zona Universit\u00e0ria"}, {"id": "L3_PAL", "lat": 41.387, "lon": 2.121, "name": "Palau Reial"}, {"id": "L3_MAR3", "lat": 41.3932, "lon": 2.1323, "name": "Maria Cristina"}, {"id": "L3_HUB", "lat": 41.3863, "lon": 2.1327, "name": "Les Corts"}, {"id": "L3_PLA3", "lat": 41.3822, "lon": 2.1344, "name": "Pla\u00e7a del Centre"}, {"id": "L3_SAN3", "lat": 41.3792, "lon": 2.1402, "name": "Sants Estaci\u00f3"}, {"id": "L3_TRS", "lat": 41.378, "lon": 2.1455, "name": "Tarragona"}, {"id": "L3_ESP3", "lat": 41.3753, "lon": 2.1493, "name": "Espanya"}, {"id": "L3_POB3", "lat": 41.3729, "lon": 2.164, "name": "Poble Sec"}, {"id": "L3_PAR3", "lat": 41.3759, "lon": 2.1698, "name": "Paral\u00b7lel"}, {"id": "L3_DRA", "lat": 41.3772, "lon": 2.1745, "name": "Drassanes"}, {"id": "L3_LIC", "lat": 41.3807, "lon": 2.174, "name": "Liceu"}, {"id": "L3_CAT3", "lat": 41.3873, "lon": 2.17, "name": "Catalunya"}, {"id": "L3_PGR3", "lat": 41.3918, "lon": 2.1651, "name": "Passeig de Gr\u00e0cia"}, {"id": "L3_DIA", "lat": 41.3978, "lon": 2.1616, "name": "Diagonal"}, {"id": "L3_FON3", "lat": 41.4028, "lon": 2.1544, "name": "Fontana"}, {"id": "L3_LES", "lat": 41.4036, "lon": 2.1499, "name": "Lesseps"}, {"id": "L3_VAL", "lat": 41.4103, "lon": 2.1423, "name": "Vallcarca"}, {"id": "L3_PEN", "lat": 41.4152, "lon": 2.1434, "name": "Penitents"}, {"id": "L3_VAD", "lat": 41.4295, "lon": 2.1476, "name": "Vall d'Hebron"}, {"id": "L3_MON3", "lat": 41.4361, "lon": 2.14, "name": "Montbau"}, {"id": "L3_MUN", "lat": 41.4375, "lon": 2.1452, "name": "Mundet"}, {"id": "L3_VAU", "lat": 41.4449, "lon": 2.1526, "name": "Valldaura"}, {"id": "L3_CAN3", "lat": 41.4483, "lon": 2.1543, "name": "Canyelles"}, {"id": "L3_ROQ", "lat": 41.452, "lon": 2.1628, "name": "Roquetes"}, {"id": "L3_TRI", "lat": 41.4507, "lon": 2.1697, "name": "Trinitat Nova"}, {"id": "L4_TRI4", "lat": 41.4507, "lon": 2.1697, "name": "Trinitat Nova"}, {"id": "L4_VIO", "lat": 41.4482, "lon": 2.172, "name": "Via J\u00falia"}, {"id": "L4_LLU", "lat": 41.4403, "lon": 2.1754, "name": "Llucmajor"}, {"id": "L4_MRA", "lat": 41.4304, "lon": 2.1737, "name": "Maragall"}, {"id": "L4_GUI", "lat": 41.4238, "lon": 2.1724, "name": "Guinard\u00f3 Hospital de Sant Pau"}, {"id": "L4_ALF", "lat": 41.4184, "lon": 2.1714, "name": "Alfons X"}, {"id": "L4_JOA", "lat": 41.4079, "lon": 2.1678, "name": "Joanic"}, {"id": "L4_VER4", "lat": 41.4007, "lon": 2.1649, "name": "Verdaguer"}, {"id": "L4_GIR", "lat": 41.3945, "lon": 2.1662, "name": "Girona"}, {"id": "L4_PGR4", "lat": 41.3918, "lon": 2.1651, "name": "Passeig de Gr\u00e0cia"}, {"id": "L4_URQ4", "lat": 41.3881, "lon": 2.1746, "name": "Urquinaona"}, {"id": "L4_JAU", "lat": 41.3856, "lon": 2.18, "name": "Jaume I"}, {"id": "L4_BAR4", "lat": 41.3812, "lon": 2.1855, "name": "Barceloneta"}, {"id": "L4_CIU", "lat": 41.3893, "lon": 2.1947, "name": "Ciutadella - Vila Ol\u00edmpica"}, {"id": "L4_BOG", "lat": 41.3956, "lon": 2.2005, "name": "Bogatell"}, {"id": "L4_LLA", "lat": 41.3989, "lon": 2.2022, "name": "Llacuna"}, {"id": "L4_POB4", "lat": 41.4006, "lon": 2.2098, "name": "Poblenou"}, {"id": "L4_SEL", "lat": 41.4094, "lon": 2.2104, "name": "Selva de Mar"}, {"id": "L4_MAC", "lat": 41.4127, "lon": 2.2204, "name": "El Maresme-F\u00f2rum"}, {"id": "L4_BES", "lat": 41.4113, "lon": 2.2318, "name": "Bes\u00f2s Mar"}, {"id": "L4_BES4", "lat": 41.4172, "lon": 2.2234, "name": "Bes\u00f2s"}, {"id": "L4_PAU", "lat": 41.4191, "lon": 2.2149, "name": "La Pau"}, {"id": "L5_COR", "lat": 41.3534, "lon": 2.0741, "name": "Cornell\u00e0 Centre"}, {"id": "L5_GAV", "lat": 41.3577, "lon": 2.0823, "name": "Gavarra"}, {"id": "L5_SIL", "lat": 41.3568, "lon": 2.0905, "name": "Sant Ildefons"}, {"id": "L5_CAN5", "lat": 41.3635, "lon": 2.1057, "name": "Can Boixeres"}, {"id": "L5_CPI", "lat": 41.3625, "lon": 2.1081, "name": "Can Peixauet"}, {"id": "L5_PUB", "lat": 41.3634, "lon": 2.1185, "name": "Pubilla Cases"}, {"id": "L5_COL", "lat": 41.3716, "lon": 2.1237, "name": "Collblanc"}, {"id": "L5_BAD", "lat": 41.3771, "lon": 2.129, "name": "Badal"}, {"id": "L5_PLA5", "lat": 41.3783, "lon": 2.1349, "name": "Pla\u00e7a de Sants"}, {"id": "L5_SAN5", "lat": 41.3792, "lon": 2.1402, "name": "Sants Estaci\u00f3"}, {"id": "L5_ENT", "lat": 41.3821, "lon": 2.145, "name": "Enten\u00e7a"}, {"id": "L5_HCL", "lat": 41.3897, "lon": 2.1519, "name": "Hospital Cl\u00ednic"}, {"id": "L5_DIA5", "lat": 41.3978, "lon": 2.1616, "name": "Diagonal"}, {"id": "L5_VER5", "lat": 41.4007, "lon": 2.1649, "name": "Verdaguer"}, {"id": "L5_SAG5", "lat": 41.404, "lon": 2.1748, "name": "Sagrada Fam\u00edlia"}, {"id": "L5_SNP", "lat": 41.4143, "lon": 2.1766, "name": "Sant Pau-Dos de Maig"}, {"id": "L5_CAM", "lat": 41.4145, "lon": 2.1837, "name": "Camp de l'Arpa"}, {"id": "L5_MRA5", "lat": 41.4194, "lon": 2.1852, "name": "La Sagrera"}, {"id": "L5_CON", "lat": 41.4243, "lon": 2.1799, "name": "Congr\u00e9s"}, {"id": "L5_MRA52", "lat": 41.4304, "lon": 2.1737, "name": "Maragall"}, {"id": "L5_VIR", "lat": 41.4322, "lon": 2.1655, "name": "Vilapicina"}, {"id": "L5_HOR", "lat": 41.4371, "lon": 2.1622, "name": "Horta"}, {"id": "L5_CAR", "lat": 41.433, "lon": 2.1508, "name": "El Carmel"}, {"id": "L5_COU", "lat": 41.4305, "lon": 2.1486, "name": "El Coll-La Teixonera"}, {"id": "L5_VAD5", "lat": 41.4295, "lon": 2.1476, "name": "Vall d'Hebron"}, {"id": "L9_AFO", "lat": 41.2873, "lon": 2.076, "name": "Aeroport T1"}, {"id": "L9_AT2", "lat": 41.2995, "lon": 2.0779, "name": "Aeroport T2"}, {"id": "L9_MAS", "lat": 41.3092, "lon": 2.0897, "name": "Mas Blau"}, {"id": "L9_PRO", "lat": 41.3133, "lon": 2.09, "name": "Parc Nou"}, {"id": "L9_CMI", "lat": 41.3201, "lon": 2.0897, "name": "C\u00e8ntric"}, {"id": "L9_ELE", "lat": 41.3243, "lon": 2.0877, "name": "El Prat Estaci\u00f3"}, {"id": "L9_LES9", "lat": 41.3311, "lon": 2.0768, "name": "Les Moreres"}, {"id": "L9_MER9", "lat": 41.3395, "lon": 2.0687, "name": "Mercabarna"}, {"id": "L9_PFR", "lat": 41.3437, "lon": 2.0707, "name": "Parc Log\u00edstic"}, {"id": "L9_FIR", "lat": 41.3536, "lon": 2.1276, "name": "Fira"}, {"id": "L9_EUR", "lat": 41.357, "lon": 2.1323, "name": "Europa-Fira"}, {"id": "L9_GOR9", "lat": 41.3609, "lon": 2.1234, "name": "Gornal"}, {"id": "L9_SAN9", "lat": 41.3658, "lon": 2.1175, "name": "Sant Josep"}, {"id": "L9_ONZ", "lat": 41.3643, "lon": 2.1128, "name": "L'Hospitalet - Av. Carrilet"}, {"id": "L9_SRJ", "lat": 41.3686, "lon": 2.1174, "name": "Santa Rosa"}, {"id": "L9_COL9", "lat": 41.3716, "lon": 2.1237, "name": "Collblanc"}, {"id": "L9_TOR9", "lat": 41.3744, "lon": 2.1363, "name": "Torrassa"}, {"id": "L9_ZUN9", "lat": 41.3868, "lon": 2.1138, "name": "Zona Universit\u00e0ria"}, {"id": "L9_CAM9", "lat": 41.389, "lon": 2.1136, "name": "Campus Nord"}, {"id": "L9_PLN", "lat": 41.387, "lon": 2.121, "name": "Palau Reial"}, {"id": "L9_MGA", "lat": 41.3932, "lon": 2.1323, "name": "Maria Cristina"}, {"id": "L9_LCA", "lat": 41.3863, "lon": 2.1327, "name": "Les Corts"}, {"id": "L9_PCE", "lat": 41.3822, "lon": 2.1344, "name": "Pla\u00e7a del Centre"}, {"id": "L9_PRV", "lat": 41.3775, "lon": 2.1225, "name": "Proven\u00e7ana"}, {"id": "L9_CAN9", "lat": 41.3709, "lon": 2.1147, "name": "Can Tries-Gornal"}, {"id": "L9_SNG", "lat": 41.4527, "lon": 2.2155, "name": "Singuerlin"}, {"id": "L9_EGL", "lat": 41.4475, "lon": 2.2165, "name": "Esgl\u00e9sia Major"}, {"id": "L9_SEI", "lat": 41.4543, "lon": 2.2216, "name": "Singuerl\u00edn"}, {"id": "L9_CAF", "lat": 41.4608, "lon": 2.2183, "name": "Can Zam"}, {"id": "L9_LLF", "lat": 41.4355, "lon": 2.2247, "name": "Llefi\u00e0"}, {"id": "L9_MOL", "lat": 41.4386, "lon": 2.2198, "name": "La Salut"}, {"id": "L9_GOR2", "lat": 41.4339, "lon": 2.235, "name": "Gorg"}, {"id": "L9_BON", "lat": 41.4404, "lon": 2.2005, "name": "Bon Pastor"}, {"id": "L9_OSN", "lat": 41.4353, "lon": 2.1935, "name": "Onze de Setembre"}, {"id": "L9_SGR", "lat": 41.4194, "lon": 2.1852, "name": "La Sagrera"}, {"id": "L11_TRI11", "lat": 41.4507, "lon": 2.1697, "name": "Trinitat Nova"}, {"id": "L11_CAS", "lat": 41.4546, "lon": 2.1686, "name": "Casa de l'Aigua"}, {"id": "L11_TOR11", "lat": 41.4594, "lon": 2.17, "name": "Torre Bar\u00f3-Vallbona"}, {"id": "L11_CID", "lat": 41.4634, "lon": 2.1714, "name": "Ciutat Meridiana"}, {"id": "L11_CUI", "lat": 41.4676, "lon": 2.1745, "name": "Can Cui\u00e0s"}], "edges": [{"from": "L1_HBE", "to": "L1_BEL", "weight": 120}, {"from": "L1_BEL", "to": "L1_AVE", "weight": 120}, {"from": "L1_AVE", "to": "L1_RBL", "weight": 120}, {"from": "L1_RBL", "to": "L1_CAN", "weight": 120}, {"from": "L1_CAN", "to": "L1_FLO", "weight": 120}, {"from": "L1_FLO", "to": "L1_TOR", "weight": 120}, {"from": "L1_TOR", "to": "L1_SJO", "weight": 120}, {"from": "L1_SJO", "to": "L1_MER", "weight": 120}, {"from": "L1_MER", "to": "L1_PLA", "weight": 120}, {"from": "L1_PLA", "to": "L1_HOS", "weight": 120}, {"from": "L1_HOS", "to": "L1_ESP", "weight": 120}, {"from": "L1_ESP", "to": "L1_ROC", "weight": 120}, {"from": "L1_ROC", "to": "L1_URG", "weight": 120}, {"from": "L1_URG", "to": "L1_UNI", "weight": 120}, {"from": "L1_UNI", "to": "L1_CAT", "weight": 120}, {"from": "L1_CAT", "to": "L1_URQ", "weight": 120}, {"from": "L1_URQ", "to": "L1_ARC", "weight": 120}, {"from": "L1_ARC", "to": "L1_MAR", "weight": 120}, {"from": "L1_MAR", "to": "L1_GLO", "weight": 120}, {"from": "L1_GLO", "to": "L1_CLO", "weight": 120}, {"from": "L1_CLO", "to": "L1_NAV", "weight": 120}, {"from": "L1_NAV", "to": "L1_SAG", "weight": 120}, {"from": "L1_SAG", "to": "L1_FAB", "weight": 120}, {"from": "L1_FAB", "to": "L1_STN", "weight": 120}, {"from": "L1_STN", "to": "L1_TOR1", "weight": 120}, {"from": "L1_TOR1", "to": "L1_TRN", "weight": 120}, {"from": "L1_TRN", "to": "L1_BAR", "weight": 120}, {"from": "L1_BAR", "to": "L1_SRO", "weight": 120}, {"from": "L1_SRO", "to": "L1_FON", "weight": 120}, {"from": "L2_PAR", "to": "L2_SEU", "weight": 120}, {"from": "L2_SEU", "to": "L2_UNI2", "weight": 120}, {"from": "L2_UNI2", "to": "L2_PGR", "weight": 120}, {"from": "L2_PGR", "to": "L2_TET", "weight": 120}, {"from": "L2_TET", "to": "L2_MON", "weight": 120}, {"from": "L2_MON", "to": "L2_SAG2", "weight": 120}, {"from": "L2_SAG2", "to": "L2_ENC", "weight": 120}, {"from": "L2_ENC", "to": "L2_CLO2", "weight": 120}, {"from": "L2_CLO2", "to": "L2_BAC", "weight": 120}, {"from": "L2_BAC", "to": "L2_SMA", "weight": 120}, {"from": "L2_SMA", "to": "L2_POB", "weight": 120}, {"from": "L2_POB", "to": "L2_VER", "weight": 120}, {"from": "L2_VER", "to": "L2_ARC2", "weight": 120}, {"from": "L2_ARC2", "to": "L2_SNT", "weight": 120}, {"from": "L2_SNT", "to": "L2_GOR", "weight": 120}, {"from": "L2_GOR", "to": "L2_PLY", "weight": 120}, {"from": "L2_PLY", "to": "L2_POM", "weight": 120}, {"from": "L3_ZUN", "to": "L3_PAL", "weight": 120}, {"from": "L3_PAL", "to": "L3_MAR3", "weight": 120}, {"from": "L3_MAR3", "to": "L3_HUB", "weight": 120}, {"from": "L3_HUB", "to": "L3_PLA3", "weight": 120}, {"from": "L3_PLA3", "to": "L3_SAN3", "weight": 120}, {"from": "L3_SAN3", "to": "L3_TRS", "weight": 120}, {"from": "L3_TRS", "to": "L3_ESP3", "weight": 120}, {"from": "L3_ESP3", "to": "L3_POB3", "weight": 120}, {"from": "L3_POB3", "to": "L3_PAR3", "weight": 120}, {"from": "L3_PAR3", "to": "L3_DRA", "weight": 120}, {"from": "L3_DRA", "to": "L3_LIC", "weight": 120}, {"from": "L3_LIC", "to": "L3_CAT3", "weight": 120}, {"from": "L3_CAT3", "to": "L3_PGR3", "weight": 120}, {"from": "L3_PGR3", "to": "L3_DIA", "weight": 120}, {"from": "L3_DIA", "to": "L3_FON3", "weight": 120}, {"from": "L3_FON3", "to": "L3_LES", "weight": 120}, {"from": "L3_LES", "to": "L3_VAL", "weight": 120}, {"from": "L3_VAL", "to": "L3_PEN", "weight": 120}, {"from": "L3_PEN", "to": "L3_VAD", "weight": 120}, {"from": "L3_VAD", "to": "L3_MON3", "weight": 120}, {"from": "L3_MON3", "to": "L3_MUN", "weight": 120}, {"from": "L3_MUN", "to": "L3_VAU", "weight": 120}, {"from": "L3_VAU", "to": "L3_CAN3", "weight": 120}, {"from": "L3_CAN3", "to": "L3_ROQ", "weight": 120}, {"from": "L3_ROQ", "to": "L3_TRI", "weight": 120}, {"from": "L4_TRI4", "to": "L4_VIO", "weight": 120}, {"from": "L4_VIO", "to": "L4_LLU", "weight": 120}, {"from": "L4_LLU", "to": "L4_MRA", "weight": 120}, {"from": "L4_MRA", "to": "L4_GUI", "weight": 120}, {"from": "L4_GUI", "to": "L4_ALF", "weight": 120}, {"from": "L4_ALF", "to": "L4_JOA", "weight": 120}, {"from": "L4_JOA", "to": "L4_VER4", "weight": 120}, {"from": "L4_VER4", "to": "L4_GIR", "weight": 120}, {"from": "L4_GIR", "to": "L4_PGR4", "weight": 120}, {"from": "L4_PGR4", "to": "L4_URQ4", "weight": 120}, {"from": "L4_URQ4", "to": "L4_JAU", "weight": 120}, {"from": "L4_JAU", "to": "L4_BAR4", "weight": 120}, {"from": "L4_BAR4", "to": "L4_CIU", "weight": 120}, {"from": "L4_CIU", "to": "L4_BOG", "weight": 120}, {"from": "L4_BOG", "to": "L4_LLA", "weight": 120}, {"from": "L4_LLA", "to": "L4_POB4", "weight": 120}, {"from": "L4_POB4", "to": "L4_SEL", "weight": 120}, {"from": "L4_SEL", "to": "L4_MAC", "weight": 120}, {"from": "L4_MAC", "to": "L4_BES", "weight": 120}, {"from": "L4_BES", "to": "L4_BES4", "weight": 120}, {"from": "L4_BES4", "to": "L4_PAU", "weight": 120}, {"from": "L5_COR", "to": "L5_GAV", "weight": 120}, {"from": "L5_GAV", "to": "L5_SIL", "weight": 120}, {"from": "L5_SIL", "to": "L5_CAN5", "weight": 120}, {"from": "L5_CAN5", "to": "L5_CPI", "weight": 120}, {"from": "L5_CPI", "to": "L5_PUB", "weight": 120}, {"from": "L5_PUB", "to": "L5_COL", "weight": 120}, {"from": "L5_COL", "to": "L5_BAD", "weight": 120}, {"from": "L5_BAD", "to": "L5_PLA5", "weight": 120}, {"from": "L5_PLA5", "to": "L5_SAN5", "weight": 120}, {"from": "L5_SAN5", "to": "L5_ENT", "weight": 120}, {"from": "L5_ENT", "to": "L5_HCL", "weight": 120}, {"from": "L5_HCL", "to": "L5_DIA5", "weight": 120}, {"from": "L5_DIA5", "to": "L5_VER5", "weight": 120}, {"from": "L5_VER5", "to": "L5_SAG5", "weight": 120}, {"from": "L5_SAG5", "to": "L5_SNP", "weight": 120}, {"from": "L5_SNP", "to": "L5_CAM", "weight": 120}, {"from": "L5_CAM", "to": "L5_MRA5", "weight": 120}, {"from": "L5_MRA5", "to": "L5_CON", "weight": 120}, {"from": "L5_CON", "to": "L5_MRA52", "weight": 120}, {"from": "L5_MRA52", "to": "L5_VIR", "weight": 120}, {"from": "L5_VIR", "to": "L5_HOR", "weight": 120}, {"from": "L5_HOR", "to": "L5_CAR", "weight": 120}, {"from": "L5_CAR", "to": "L5_COU", "weight": 120}, {"from": "L5_COU", "to": "L5_VAD5", "weight": 120}, {"from": "L9_AFO", "to": "L9_AT2", "weight": 120}, {"from": "L9_AT2", "to": "L9_MAS", "weight": 120}, {"from": "L9_MAS", "to": "L9_PRO", "weight": 120}, {"from": "L9_PRO", "to": "L9_CMI", "weight": 120}, {"from": "L9_CMI", "to": "L9_ELE", "weight": 120}, {"from": "L9_ELE", "to": "L9_LES9", "weight": 120}, {"from": "L9_LES9", "to": "L9_MER9", "weight": 120}, {"from": "L9_MER9", "to": "L9_PFR", "weight": 120}, {"from": "L9_PFR", "to": "L9_FIR", "weight": 120}, {"from": "L9_FIR", "to": "L9_EUR", "weight": 120}, {"from": "L9_EUR", "to": "L9_GOR9", "weight": 120}, {"from": "L9_GOR9", "to": "L9_SAN9", "weight": 120}, {"from": "L9_SAN9", "to": "L9_ONZ", "weight": 120}, {"from": "L9_ONZ", "to": "L9_SRJ", "weight": 120}, {"from": "L9_SRJ", "to": "L9_COL9", "weight": 120}, {"from": "L9_COL9", "to": "L9_TOR9", "weight": 120}, {"from": "L9_TOR9", "to": "L9_ZUN9", "weight": 120}, {"from": "L9_SGR", "to": "L9_OSN", "weight": 120}, {"from": "L9_OSN", "to": "L9_BON", "weight": 120}, {"from": "L9_BON", "to": "L9_SNG", "weight": 120}, {"from": "L9_SNG", "to": "L9_EGL", "weight": 120}, {"from": "L9_EGL", "to": "L9_CAF", "weight": 120}, {"from": "L9_CAF", "to": "L9_LLF", "weight": 120}, {"from": "L9_LLF", "to": "L9_MOL", "weight": 120}, {"from": "L9_MOL", "to": "L9_GOR2", "weight": 120}, {"from": "L11_TRI11", "to": "L11_CAS", "weight": 120}, {"from": "L11_CAS", "to": "L11_TOR11", "weight": 120}, {"from": "L11_TOR11", "to": "L11_CID", "weight": 120}, {"from": "L11_CID", "to": "L11_CUI", "weight": 120}]}