{"nodes": [{"id": "CM-0493-S", "lat": 41.7604, "lon": -70.7171, "name": "Wareham Village"}, {"id": "CM-0547-S", "lat": 41.7448, "lon": -70.61623, "name": "Buzzards Bay"}, {"id": "CM-0564-S", "lat": 41.7465, "lon": -70.58877, "name": "Bourne"}, {"id": "CM-0790-S", "lat": 41.66022, "lon": -70.27658, "name": "Hyannis"}, {"id": "FB-0095-04", "lat": 42.23777, "lon": -71.13357, "name": "Readville"}, {"id": "FB-0095-05", "lat": 42.23778, "lon": -71.13429, "name": "Readville"}, {"id": "NEC-2192-02", "lat": 42.23883, "lon": -71.13328, "name": "Readville"}, {"id": "NEC-2192-03", "lat": 42.23886, "lon": -71.13343, "name": "Readville"}, {"id": "DB-2205-01", "lat": 42.25364, "lon": -71.11927, "name": "Fairmount"}, {"id": "DB-2205-02", "lat": 42.25364, "lon": -71.11927, "name": "Fairmount"}, {"id": "DB-2222-01", "lat": 42.27147, "lon": -71.09578, "name": "Blue Hill Avenue"}, {"id": "DB-2222-02", "lat": 42.27147, "lon": -71.09578, "name": "Blue Hill Avenue"}, {"id": "DB-2230-01", "lat": 42.28099, "lon": -71.08548, "name": "Morton Street"}, {"id": "DB-2230-02", "lat": 42.28099, "lon": -71.08548, "name": "Morton Street"}, {"id": "DB-2240-01", "lat": 42.29225, "lon": -71.07814, "name": "Talbot Avenue"}, {"id": "DB-2240-02", "lat": 42.29225, "lon": -71.07814, "name": "Talbot Avenue"}, {"id": "DB-2249-01", "lat": 42.30396, "lon": -71.07798, "name": "Four Corners/Geneva"}, {"id": "DB-2249-02", "lat": 42.30569, "lon": -71.0761, "name": "Four Corners/Geneva"}, {"id": "DB-2258-01", "lat": 42.31912, "lon": -71.06863, "name": "Uphams Corner"}, {"id": "DB-2258-02", "lat": 42.31912, "lon": -71.06863, "name": "Uphams Corner"}, {"id": "DB-2265-01", "lat": 42.32742, "lon": -71.06567, "name": "Newmarket"}, {"id": "DB-2265-02", "lat": 42.32742, "lon": -71.06567, "name": "Newmarket"}, {"id": "ER-0099-01", "lat": 42.44993, "lon": -70.96985, "name": "River Works"}, {"id": "ER-0099-02", "lat": 42.44993, "lon": -70.96985, "name": "River Works"}, {"id": "ER-0117-01", "lat": 42.4654, "lon": -70.94, "name": "Lynn Interim"}, {"id": "ER-0117-02", "lat": 42.46516, "lon": -70.94088, "name": "Lynn Interim"}, {"id": "ER-0128-01", "lat": 42.47374, "lon": -70.92254, "name": "Swampscott"}, {"id": "ER-0128-02", "lat": 42.47374, "lon": -70.92254, "name": "Swampscott"}, {"id": "ER-0168-S", "lat": 42.52479, "lon": -70.89588, "name": "Salem"}, {"id": "ER-0183-01", "lat": 42.54728, "lon": -70.88543, "name": "Beverly"}, {"id": "ER-0183-02", "lat": 42.54728, "lon": -70.88543, "name": "Beverly"}, {"id": "ER-0208-01", "lat": 42.58378, "lon": -70.88385, "name": "North Beverly"}, {"id": "ER-0208-02", "lat": 42.58378, "lon": -70.88385, "name": "North Beverly"}, {"id": "ER-0227-S", "lat": 42.60921, "lon": -70.8748, "name": "Hamilton/Wenham"}, {"id": "ER-0276-S", "lat": 42.67692, "lon": -70.84059, "name": "Ipswich"}, {"id": "ER-0312-S", "lat": 42.72684, "lon": -70.85903, "name": "Rowley"}, {"id": "ER-0362-01", "lat": 42.79784, "lon": -70.87797, "name": "Newburyport"}, {"id": "FB-0109-01", "lat": 42.23325, "lon": -71.15865, "name": "Endicott"}, {"id": "FB-0109-02", "lat": 42.23325, "lon": -71.15865, "name": "Endicott"}, {"id": "FB-0118-01", "lat": 42.22708, "lon": -71.17425, "name": "Dedham Corporate Center"}, {"id": "FB-0118-02", "lat": 42.22708, "lon": -71.17425, "name": "Dedham Corporate Center"}, {"id": "FB-0125-01", "lat": 42.22105, "lon": -71.18396, "name": "Islington"}, {"id": "FB-0125-02", "lat": 42.22105, "lon": -71.18396, "name": "Islington"}, {"id": "FB-0143-01", "lat": 42.19686, "lon": -71.19669, "name": "Norwood Depot"}, {"id": "FB-0143-02", "lat": 42.19686, "lon": -71.19669, "name": "Norwood Depot"}, {"id": "FB-0148-01", "lat": 42.18877, "lon": -71.19966, "name": "Norwood Central"}, {"id": "FB-0148-02", "lat": 42.18877, "lon": -71.19966, "name": "Norwood Central"}, {"id": "FB-0166-S", "lat": 42.17213, "lon": -71.21937, "name": "Windsor Gardens"}, {"id": "FB-0191-S", "lat": 42.14555, "lon": -71.25765, "name": "Walpole"}, {"id": "FB-0230-S", "lat": 42.12069, "lon": -71.32522, "name": "Norfolk"}, {"id": "FB-0275-S", "lat": 42.08307, "lon": -71.39638, "name": "Franklin"}, {"id": "FB-0303-S", "lat": 42.08994, "lon": -71.43902, "name": "Forge Park/495"}, {"id": "FR-0064-01", "lat": 42.3959, "lon": -71.17619, "name": "Belmont"}, {"id": "FR-0064-02", "lat": 42.3959, "lon": -71.17619, "name": "Belmont"}, {"id": "FR-0074-01", "lat": 42.3876, "lon": -71.19074, "name": "Waverley"}, {"id": "FR-0074-02", "lat": 42.3876, "lon": -71.19074, "name": "Waverley"}, {"id": "FR-0098-01", "lat": 42.3737, "lon": -71.23867, "name": "Waltham"}, {"id": "FR-0098-S", "lat": 42.3743, "lon": -71.23561, "name": "Waltham"}, {"id": "FR-0115-01", "lat": 42.3619, "lon": -71.26006, "name": "Brandeis/Roberts"}, {"id": "FR-0115-02", "lat": 42.3619, "lon": -71.26006, "name": "Brandeis/Roberts"}, {"id": "FR-0132-01", "lat": 42.37897, "lon": -71.28241, "name": "Kendal Green"}, {"id": "FR-0132-02", "lat": 42.37897, "lon": -71.28241, "name": "Kendal Green"}, {"id": "FR-0147-01", "lat": 42.39563, "lon": -71.30236, "name": "Silver Hill"}, {"id": "FR-0147-02", "lat": 42.39563, "lon": -71.30236, "name": "Silver Hill"}, {"id": "FR-0167-01", "lat": 42.41498, "lon": -71.32646, "name": "Lincoln"}, {"id": "FR-0167-02", "lat": 42.41364, "lon": -71.32551, "name": "Lincoln"}, {"id": "FR-0201-01", "lat": 42.45656, "lon": -71.35768, "name": "Concord"}, {"id": "FR-0201-02", "lat": 42.45656, "lon": -71.35768, "name": "Concord"}, {"id": "FR-0219-01", "lat": 42.45704, "lon": -71.39289, "name": "West Concord"}, {"id": "FR-0219-02", "lat": 42.45704, "lon": -71.39289, "name": "West Concord"}, {"id": "FR-0253-01", "lat": 42.46037, "lon": -71.45774, "name": "South Acton"}, {"id": "FR-0253-02", "lat": 42.46037, "lon": -71.45774, "name": "South Acton"}, {"id": "FR-0301-01", "lat": 42.51924, "lon": -71.50264, "name": "Littleton/Route 495"}, {"id": "FR-0301-02", "lat": 42.51924, "lon": -71.50264, "name": "Littleton/Route 495"}, {"id": "FR-0361-01", "lat": 42.55907, "lon": -71.58848, "name": "Ayer"}, {"id": "FR-0361-02", "lat": 42.55907, "lon": -71.58848, "name": "Ayer"}, {"id": "FR-0394-01", "lat": 42.54509, "lon": -71.648, "name": "Shirley"}, {"id": "FR-0394-02", "lat": 42.54509, "lon": -71.648, "name": "Shirley"}, {"id": "FR-0451-01", "lat": 42.53902, "lon": -71.73919, "name": "North Leominster"}, {"id": "FR-0451-02", "lat": 42.53902, "lon": -71.73919, "name": "North Leominster"}, {"id": "FR-0494-CS", "lat": 42.58072, "lon": -71.79261, "name": "Fitchburg"}, {"id": "FR-3338-CS", "lat": 42.55348, "lon": -71.84849, "name": "Wachusett"}, {"id": "FRS-0054-S", "lat": 41.77348, "lon": -71.09105, "name": "Freetown"}, {"id": "FRS-0109-S", "lat": 41.71398, "lon": -71.15418, "name": "Fall River Depot"}, {"id": "FS-0049-S", "lat": 42.0951, "lon": -71.26151, "name": "Foxboro"}, {"id": "GB-0198-01", "lat": 42.56217, "lon": -70.86925, "name": "Montserrat"}, {"id": "GB-0198-02", "lat": 42.56217, "lon": -70.86925, "name": "Montserrat"}, {"id": "GB-0229-01", "lat": 42.56165, "lon": -70.8114, "name": "Beverly Farms"}, {"id": "GB-0229-02", "lat": 42.56165, "lon": -70.8114, "name": "Beverly Farms"}, {"id": "GB-0254-01", "lat": 42.57369, "lon": -70.77009, "name": "Manchester"}, {"id": "GB-0254-02", "lat": 42.57369, "lon": -70.77009, "name": "Manchester"}, {"id": "GB-0296-01", "lat": 42.61193, "lon": -70.70542, "name": "West Gloucester"}, {"id": "GB-0296-02", "lat": 42.61193, "lon": -70.70542, "name": "West Gloucester"}, {"id": "GB-0316-S", "lat": 42.6168, "lon": -70.66835, "name": "Gloucester"}, {"id": "GB-0353-S", "lat": 42.65549, "lon": -70.62705, "name": "Rockport"}, {"id": "GRB-0118-S", "lat": 42.2215, "lon": -70.96815, "name": "Weymouth Landing/East Braintree"}, {"id": "GRB-0146-S", "lat": 42.2191, "lon": -70.9214, "name": "East Weymouth"}, {"id": "GRB-0162-S", "lat": 42.23584, "lon": -70.90271, "name": "West Hingham"}, {"id": "GRB-0183-S", "lat": 42.24496, "lon": -70.8692, "name": "Nantasket Junction"}, {"id": "GRB-0199-S", "lat": 42.24421, "lon": -70.83753, "name": "Cohasset"}, {"id": "GRB-0233-S", "lat": 42.21953, "lon": -70.7886, "name": "North Scituate"}, {"id": "GRB-0276-S", "lat": 42.17878, "lon": -70.74664, "name": "Greenbush"}, {"id": "KB-0351-S", "lat": 41.97762, "lon": -70.72171, "name": "Kingston"}, {"id": "MBS-0350-S", "lat": 41.887, "lon": -70.92321, "name": "Middleborough"}, {"id": "MM-0150-S", "lat": 42.15634, "lon": -71.02737, "name": "Holbrook/Randolph"}, {"id": "MM-0186-CS", "lat": 42.10656, "lon": -71.022, "name": "Montello"}, {"id": "MM-0186-S", "lat": 42.10656, "lon": -71.022, "name": "Montello"}, {"id": "MM-0200-CS", "lat": 42.08466, "lon": -71.01653, "name": "Brockton"}, {"id": "MM-0200-S", "lat": 42.08466, "lon": -71.01653, "name": "Brockton"}, {"id": "MM-0219-S", "lat": 42.06095, "lon": -71.011, "name": "Campello"}, {"id": "MM-0277-S", "lat": 41.98492, "lon": -70.96537, "name": "Bridgewater"}, {"id": "MM-0356-S", "lat": 41.87821, "lon": -70.91844, "name": "Lakeville"}, {"id": "NB-0064-S", "lat": 42.28744, "lon": -71.13028, "name": "Roslindale Village"}, {"id": "NB-0072-S", "lat": 42.28659, "lon": -71.14556, "name": "Bellevue"}, {"id": "NB-0076-S", "lat": 42.28497, "lon": -71.15394, "name": "Highland"}, {"id": "NB-0080-S", "lat": 42.28136, "lon": -71.16007, "name": "West Roxbury"}, {"id": "NB-0109-S", "lat": 42.27565, "lon": -71.21553, "name": "Hersey"}, {"id": "NB-0120-S", "lat": 42.27319, "lon": -71.23556, "name": "Needham Junction"}, {"id": "NB-0127-S", "lat": 42.28077, "lon": -71.23769, "name": "Needham Center"}, {"id": "NB-0137-S", "lat": 42.29344, "lon": -71.23603, "name": "Needham Heights"}, {"id": "NBM-0374", "lat": 41.8682, "lon": -71.06169, "name": "East Taunton"}, {"id": "NBM-0374-01", "lat": 41.86818, "lon": -71.06173, "name": "East Taunton"}, {"id": "NBM-0374-02", "lat": 41.86821, "lon": -71.06167, "name": "East Taunton"}, {"id": "NBM-0523-S", "lat": 41.67433, "lon": -70.93913, "name": "Church Street"}, {"id": "NBM-0546-S", "lat": 41.64431, "lon": -70.92521, "name": "New Bedford"}, {"id": "NEC-1659-03", "lat": 41.58129, "lon": -71.49115, "name": "Wickford Junction"}, {"id": "NEC-1768-03", "lat": 41.7266, "lon": -71.44245, "name": "TF Green Airport"}, {"id": "NEC-1851-03", "lat": 41.82929, "lon": -71.4133, "name": "Providence"}, {"id": "NEC-1891-01", "lat": 41.8788, "lon": -71.39205, "name": "Pawtucket/Central Falls"}, {"id": "NEC-1891-02", "lat": 41.87872, "lon": -71.39196, "name": "Pawtucket/Central Falls"}, {"id": "NEC-1919-01", "lat": 41.89794, "lon": -71.35462, "name": "South Attleboro"}, {"id": "NEC-1919-02", "lat": 41.89794, "lon": -71.35462, "name": "South Attleboro"}, {"id": "NEC-1969-03", "lat": 41.94023, "lon": -71.28552, "name": "Attleboro"}, {"id": "NEC-1969-04", "lat": 41.94173, "lon": -71.28421, "name": "Attleboro"}, {"id": "NEC-2040-01", "lat": 42.03279, "lon": -71.21992, "name": "Mansfield"}, {"id": "NEC-2040-02", "lat": 42.03279, "lon": -71.21992, "name": "Mansfield"}, {"id": "NEC-2108-01", "lat": 42.12455, "lon": -71.18447, "name": "Sharon"}, {"id": "NEC-2108-02", "lat": 42.12455, "lon": -71.18447, "name": "Sharon"}, {"id": "NEC-2139", "lat": 42.1632, "lon": -71.15376, "name": "Canton Junction"}, {"id": "NEC-2139-01", "lat": 42.16202, "lon": -71.15383, "name": "Canton Junction"}, {"id": "NEC-2139-02", "lat": 42.1622, "lon": -71.15372, "name": "Canton Junction"}, {"id": "SB-0150-04", "lat": 42.16175, "lon": -71.15284, "name": "Canton Junction"}, {"id": "SB-0150-06", "lat": 42.16311, "lon": -71.15358, "name": "Canton Junction"}, {"id": "NEC-2173-01", "lat": 42.21031, "lon": -71.14713, "name": "Route 128"}, {"id": "NEC-2173-02", "lat": 42.21031, "lon": -71.14713, "name": "Route 128"}, {"id": "NEC-2203-02", "lat": 42.25503, "lon": -71.12553, "name": "Hyde Park"}, {"id": "NEC-2203-03", "lat": 42.25503, "lon": -71.12553, "name": "Hyde Park"}, {"id": "NHRML-0055-01", "lat": 42.42233, "lon": -71.13394, "name": "West Medford"}, {"id": "NHRML-0055-02", "lat": 42.42222, "lon": -71.13399, "name": "West Medford"}, {"id": "NHRML-0073-01", "lat": 42.44495, "lon": -71.14017, "name": "Wedgemere"}, {"id": "NHRML-0073-02", "lat": 42.44495, "lon": -71.14017, "name": "Wedgemere"}, {"id": "NHRML-0078-01", "lat": 42.45109, "lon": -71.13783, "name": "Winchester Center"}, {"id": "NHRML-0078-02", "lat": 42.45109, "lon": -71.13783, "name": "Winchester Center"}, {"id": "NHRML-0127-01", "lat": 42.51699, "lon": -71.14447, "name": "Anderson/Woburn"}, {"id": "NHRML-0127-02", "lat": 42.51699, "lon": -71.14447, "name": "Anderson/Woburn"}, {"id": "NHRML-0152-01", "lat": 42.54662, "lon": -71.17433, "name": "Wilmington"}, {"id": "NHRML-0152-02", "lat": 42.54662, "lon": -71.17433, "name": "Wilmington"}, {"id": "NHRML-0218-01", "lat": 42.59325, "lon": -71.281, "name": "North Billerica"}, {"id": "NHRML-0218-02", "lat": 42.59325, "lon": -71.281, "name": "North Billerica"}, {"id": "NHRML-0254-04", "lat": 42.63535, "lon": -71.31454, "name": "Lowell"}, {"id": "PB-0158-S", "lat": 42.15503, "lon": -70.9533, "name": "South Weymouth"}, {"id": "PB-0194-S", "lat": 42.10716, "lon": -70.9344, "name": "Abington"}, {"id": "PB-0212-S", "lat": 42.08275, "lon": -70.92341, "name": "Whitman"}, {"id": "PB-0245-S", "lat": 42.04397, "lon": -70.88244, "name": "Hanson"}, {"id": "PB-0281-S", "lat": 42.01474, "lon": -70.82426, "name": "Halifax"}, {"id": "SB-0156-S", "lat": 42.15709, "lon": -71.14628, "name": "Canton Center"}, {"id": "SB-0189-S", "lat": 42.12408, "lon": -71.10363, "name": "Stoughton"}, {"id": "WML-0025-05", "lat": 42.34758, "lon": -71.09997, "name": "Lansdowne"}, {"id": "WML-0025-07", "lat": 42.34758, "lon": -71.09997, "name": "Lansdowne"}, {"id": "WML-0035-01", "lat": 42.35729, "lon": -71.13988, "name": "Boston Landing"}, {"id": "WML-0035-02", "lat": 42.35729, "lon": -71.13988, "name": "Boston Landing"}, {"id": "WML-0081-02", "lat": 42.3517, "lon": -71.20541, "name": "Newtonville"}, {"id": "WML-0091-02", "lat": 42.34788, "lon": -71.23053, "name": "West Newton"}, {"id": "WML-0102-02", "lat": 42.34583, "lon": -71.25037, "name": "Auburndale"}, {"id": "WML-0125-01", "lat": 42.32361, "lon": -71.27229, "name": "Wellesley Farms"}, {"id": "WML-0125-02", "lat": 42.32361, "lon": -71.27229, "name": "Wellesley Farms"}, {"id": "WML-0135-01", "lat": 42.31037, "lon": -71.27704, "name": "Wellesley Hills"}, {"id": "WML-0135-02", "lat": 42.31037, "lon": -71.27704, "name": "Wellesley Hills"}, {"id": "WML-0147-01", "lat": 42.29696, "lon": -71.29571, "name": "Wellesley Square"}, {"id": "WML-0147-02", "lat": 42.29656, "lon": -71.29675, "name": "Wellesley Square"}, {"id": "WML-0177-01", "lat": 42.28572, "lon": -71.34713, "name": "Natick Center"}, {"id": "WML-0177-02", "lat": 42.28572, "lon": -71.34713, "name": "Natick Center"}, {"id": "WML-0199-01", "lat": 42.28306, "lon": -71.3918, "name": "West Natick"}, {"id": "WML-0199-02", "lat": 42.28306, "lon": -71.3918, "name": "West Natick"}, {"id": "WML-0214-01", "lat": 42.27611, "lon": -71.42006, "name": "Framingham"}, {"id": "WML-0214-02", "lat": 42.27611, "lon": -71.42006, "name": "Framingham"}, {"id": "WML-0252-01", "lat": 42.26149, "lon": -71.48216, "name": "Ashland"}, {"id": "WML-0252-02", "lat": 42.26149, "lon": -71.48216, "name": "Ashland"}, {"id": "WML-0274-01", "lat": 42.26702, "lon": -71.52437, "name": "Southborough"}, {"id": "WML-0274-02", "lat": 42.26702, "lon": -71.52437, "name": "Southborough"}, {"id": "WML-0340-01", "lat": 42.26964, "lon": -71.64708, "name": "Westborough"}, {"id": "WML-0340-02", "lat": 42.26964, "lon": -71.64708, "name": "Westborough"}, {"id": "WML-0364-01", "lat": 42.2466, "lon": -71.68533, "name": "Grafton"}, {"id": "WML-0364-02", "lat": 42.2466, "lon": -71.68533, "name": "Grafton"}, {"id": "WML-0442-CS", "lat": 42.26106, "lon": -71.79443, "name": "Worcester"}, {"id": "WR-0062-01", "lat": 42.45173, "lon": -71.06938, "name": "Wyoming Hill"}, {"id": "WR-0062-02", "lat": 42.45173, "lon": -71.06938, "name": "Wyoming Hill"}, {"id": "WR-0067-01", "lat": 42.45877, "lon": -71.06979, "name": "Melrose/Cedar Park"}, {"id": "WR-0067-02", "lat": 42.45877, "lon": -71.06979, "name": "Melrose/Cedar Park"}, {"id": "WR-0075-01", "lat": 42.46946, "lon": -71.0683, "name": "Melrose Highlands"}, {"id": "WR-0075-02", "lat": 42.46946, "lon": -71.0683, "name": "Melrose Highlands"}, {"id": "WR-0085-01", "lat": 42.483, "lon": -71.06725, "name": "Greenwood"}, {"id": "WR-0085-02", "lat": 42.483, "lon": -71.06725, "name": "Greenwood"}, {"id": "WR-0099-01", "lat": 42.50213, "lon": -71.07557, "name": "Wakefield"}, {"id": "WR-0099-02", "lat": 42.50213, "lon": -71.07557, "name": "Wakefield"}, {"id": "WR-0120-S", "lat": 42.52221, "lon": -71.10829, "name": "Reading"}, {"id": "WR-0163-S", "lat": 42.57107, "lon": -71.16094, "name": "North Wilmington"}, {"id": "WR-0205-02", "lat": 42.62736, "lon": -71.15996, "name": "Ballardvale"}, {"id": "WR-0228-02", "lat": 42.65834, "lon": -71.1445, "name": "Andover"}, {"id": "WR-0264-02", "lat": 42.70181, "lon": -71.15198, "name": "Lawrence"}, {"id": "WR-0325-01", "lat": 42.76691, "lon": -71.08841, "name": "Bradford"}, {"id": "WR-0325-02", "lat": 42.76691, "lon": -71.08841, "name": "Bradford"}, {"id": "WR-0329-01", "lat": 42.77347, "lon": -71.08624, "name": "Haverhill"}, {"id": "WR-0329-02", "lat": 42.77347, "lon": -71.08624, "name": "Haverhill"}, {"id": "70061", "lat": 42.39615, "lon": -71.1407, "name": "Alewife"}, {"id": "70126", "lat": 42.34865, "lon": -71.13788, "name": "Allston Street"}, {"id": "70127", "lat": 42.34855, "lon": -71.13736, "name": "Allston Street"}, {"id": "170140", "lat": 42.3509, "lon": -71.11432, "name": "Amory Street"}, {"id": "170141", "lat": 42.35107, "lon": -71.11503, "name": "Amory Street"}, {"id": "70083", "lat": 42.33015, "lon": -71.05765, "name": "Andrew"}, {"id": "70084", "lat": 42.33015, "lon": -71.05765, "name": "Andrew"}, {"id": "70047", "lat": 42.37426, "lon": -71.03039, "name": "Airport"}, {"id": "70048", "lat": 42.37426, "lon": -71.03039, "name": "Airport"}, {"id": "70043", "lat": 42.35978, "lon": -71.05165, "name": "Aquarium"}, {"id": "70044", "lat": 42.35978, "lon": -71.05165, "name": "Aquarium"}, {"id": "70156", "lat": 42.3519, "lon": -71.07089, "name": "Arlington"}, {"id": "70157", "lat": 42.3519, "lon": -71.07089, "name": "Arlington"}, {"id": "70093", "lat": 42.28451, "lon": -71.06383, "name": "Ashmont"}, {"id": "70094", "lat": 42.28453, "lon": -71.06373, "name": "Ashmont"}, {"id": "70261", "lat": 42.28377, "lon": -71.06319, "name": "Ashmont"}, {"id": "70278", "lat": 42.39233, "lon": -71.07726, "name": "Assembly"}, {"id": "70279", "lat": 42.39234, "lon": -71.07718, "name": "Assembly"}, {"id": "170136", "lat": 42.35154, "lon": -71.11955, "name": "Babcock Street"}, {"id": "170137", "lat": 42.35169, "lon": -71.12026, "name": "Babcock Street"}, {"id": "70509", "lat": 42.40038, "lon": -71.11133, "name": "Ball Square"}, {"id": "70510", "lat": 42.4001, "lon": -71.11121, "name": "Ball Square"}, {"id": "70014", "lat": 42.34735, "lon": -71.07573, "name": "Back Bay"}, {"id": "70015", "lat": 42.34735, "lon": -71.07573, "name": "Back Bay"}, {"id": "NEC-2276", "lat": 42.34735, "lon": -71.07573, "name": "Back Bay"}, {"id": "NEC-2276-01", "lat": 42.34728, "lon": -71.07531, "name": "Back Bay"}, {"id": "NEC-2276-02", "lat": 42.3472, "lon": -71.0753, "name": "Back Bay"}, {"id": "NEC-2276-03", "lat": 42.34728, "lon": -71.07531, "name": "Back Bay"}, {"id": "WML-0012-05", "lat": 42.34759, "lon": -71.07539, "name": "Back Bay"}, {"id": "WML-0012-07", "lat": 42.34759, "lon": -71.07539, "name": "Back Bay"}, {"id": "70257", "lat": 42.32937, "lon": -71.11105, "name": "Back of the Hill"}, {"id": "70258", "lat": 42.3294, "lon": -71.11093, "name": "Back of the Hill"}, {"id": "70176", "lat": 42.33563, "lon": -71.14011, "name": "Beaconsfield"}, {"id": "70177", "lat": 42.33591, "lon": -71.1409, "name": "Beaconsfield"}, {"id": "70229", "lat": 42.33947, "lon": -71.13514, "name": "Washington Square"}, {"id": "70230", "lat": 42.33952, "lon": -71.13459, "name": "Washington Square"}, {"id": "70148", "lat": 42.34916, "lon": -71.09982, "name": "Blandford Street"}, {"id": "70149", "lat": 42.34928, "lon": -71.10021, "name": "Blandford Street"}, {"id": "70055", "lat": 42.39722, "lon": -70.99265, "name": "Beachmont"}, {"id": "70056", "lat": 42.3972, "lon": -70.99255, "name": "Beachmont"}, {"id": "70225", "lat": 42.34005, "lon": -71.12887, "name": "Brandon Hall"}, {"id": "70226", "lat": 42.34004, "lon": -71.12866, "name": "Brandon Hall"}, {"id": "70038", "lat": 42.36136, "lon": -71.06204, "name": "Bowdoin"}, {"id": "70838", "lat": 42.36136, "lon": -71.06204, "name": "Bowdoin"}, {"id": "70158", "lat": 42.35253, "lon": -71.06468, "name": "Boylston"}, {"id": "70159", "lat": 42.35321, "lon": -71.06454, "name": "Boylston"}, {"id": "70081", "lat": 42.34262, "lon": -71.05697, "name": "Broadway"}, {"id": "70082", "lat": 42.34262, "lon": -71.05697, "name": "Broadway"}, {"id": "70134", "lat": 42.35189, "lon": -71.12507, "name": "Packard's Corner"}, {"id": "70135", "lat": 42.35165, "lon": -71.12551, "name": "Packard's Corner"}, {"id": "70178", "lat": 42.33129, "lon": -71.12641, "name": "Brookline Hills"}, {"id": "70179", "lat": 42.33141, "lon": -71.12703, "name": "Brookline Hills"}, {"id": "70249", "lat": 42.33433, "lon": -71.10449, "name": "Brigham Circle"}, {"id": "70250", "lat": 42.33485, "lon": -71.10302, "name": "Brigham Circle"}, {"id": "70105", "lat": 42.20742, "lon": -71.00164, "name": "Braintree"}, {"id": "MM-0109-S", "lat": 42.20996, "lon": -71.00109, "name": "Braintree"}, {"id": "70144", "lat": 42.35001, "lon": -71.1069, "name": "Boston University Central"}, {"id": "70145", "lat": 42.35015, "lon": -71.10746, "name": "Boston University Central"}, {"id": "70146", "lat": 42.34966, "lon": -71.10399, "name": "Boston University East"}, {"id": "70147", "lat": 42.34981, "lon": -71.10466, "name": "Boston University East"}, {"id": "70265", "lat": 42.27245, "lon": -71.06251, "name": "Butler"}, {"id": "70266", "lat": 42.27248, "lon": -71.06244, "name": "Butler"}, {"id": "70180", "lat": 42.33261, "lon": -71.11675, "name": "Brookline Village"}, {"id": "70181", "lat": 42.33257, "lon": -71.11704, "name": "Brookline Village"}, {"id": "70273", "lat": 42.26759, "lon": -71.08714, "name": "Capen Street"}, {"id": "70274", "lat": 42.26756, "lon": -71.08734, "name": "Capen Street"}, {"id": "70028", "lat": 42.37362, "lon": -71.06953, "name": "Community College"}, {"id": "70029", "lat": 42.37362, "lon": -71.06953, "name": "Community College"}, {"id": "70263", "lat": 42.27955, "lon": -71.06039, "name": "Cedar Grove"}, {"id": "70264", "lat": 42.27969, "lon": -71.06038, "name": "Cedar Grove"}, {"id": "70269", "lat": 42.27005, "lon": -71.07352, "name": "Central Avenue"}, {"id": "70270", "lat": 42.27, "lon": -71.07336, "name": "Central Avenue"}, {"id": "ER-0042-01", "lat": 42.39722, "lon": -71.04229, "name": "Chelsea"}, {"id": "ER-0042-02", "lat": 42.39734, "lon": -71.04241, "name": "Chelsea"}, {"id": "70172", "lat": 42.3268, "lon": -71.16415, "name": "Chestnut Hill"}, {"id": "70173", "lat": 42.32678, "lon": -71.16478, "name": "Chestnut Hill"}, {"id": "70112", "lat": 42.33873, "lon": -71.15253, "name": "Chestnut Hill Avenue"}, {"id": "70113", "lat": 42.33829, "lon": -71.15302, "name": "Chestnut Hill Avenue"}, {"id": "70073", "lat": 42.36119, "lon": -71.07151, "name": "Charles/MGH"}, {"id": "70074", "lat": 42.36126, "lon": -71.0716, "name": "Charles/MGH"}, {"id": "70018", "lat": 42.35255, "lon": -71.06275, "name": "Chinatown"}, {"id": "70019", "lat": 42.35255, "lon": -71.06275, "name": "Chinatown"}, {"id": "70114", "lat": 42.34081, "lon": -71.15063, "name": "Chiswick Road"}, {"id": "70115", "lat": 42.34054, "lon": -71.15114, "name": "Chiswick Road"}, {"id": "70237", "lat": 42.33622, "lon": -71.1492, "name": "Cleveland Circle"}, {"id": "70238", "lat": 42.33625, "lon": -71.14877, "name": "Cleveland Circle"}, {"id": "70069", "lat": 42.3653, "lon": -71.10362, "name": "Central"}, {"id": "70070", "lat": 42.36538, "lon": -71.10355, "name": "Central"}, {"id": "70154", "lat": 42.34987, "lon": -71.07805, "name": "Copley"}, {"id": "70155", "lat": 42.35013, "lon": -71.07738, "name": "Copley"}, {"id": "70219", "lat": 42.34227, "lon": -71.12091, "name": "Coolidge Corner"}, {"id": "70220", "lat": 42.34203, "lon": -71.12168, "name": "Coolidge Corner"}, {"id": "70063", "lat": 42.39674, "lon": -71.12181, "name": "Davis"}, {"id": "70064", "lat": 42.39674, "lon": -71.12181, "name": "Davis"}, {"id": "70233", "lat": 42.33781, "lon": -71.14175, "name": "Dean Road"}, {"id": "70234", "lat": 42.33763, "lon": -71.14231, "name": "Dean Road"}, {"id": "70020", "lat": 42.35552, "lon": -71.06023, "name": "Downtown Crossing"}, {"id": "70021", "lat": 42.35552, "lon": -71.06023, "name": "Downtown Crossing"}, {"id": "70077", "lat": 42.35552, "lon": -71.06023, "name": "Downtown Crossing"}, {"id": "70078", "lat": 42.35552, "lon": -71.06023, "name": "Downtown Crossing"}, {"id": "70166", "lat": 42.31887, "lon": -71.21642, "name": "Eliot"}, {"id": "70167", "lat": 42.31921, "lon": -71.21695, "name": "Eliot"}, {"id": "70235", "lat": 42.33696, "lon": -71.14587, "name": "Englewood Avenue"}, {"id": "70236", "lat": 42.33701, "lon": -71.14537, "name": "Englewood Avenue"}, {"id": "70513", "lat": 42.37988, "lon": -71.08703, "name": "East Somerville"}, {"id": "70514", "lat": 42.37962, "lon": -71.08683, "name": "East Somerville"}, {"id": "70227", "lat": 42.33969, "lon": -71.13123, "name": "Fairbanks Street"}, {"id": "70228", "lat": 42.33964, "lon": -71.13108, "name": "Fairbanks Street"}, {"id": "70251", "lat": 42.33374, "lon": -71.10572, "name": "Fenwood Road"}, {"id": "70252", "lat": 42.33371, "lon": -71.10558, "name": "Fenwood Road"}, {"id": "70186", "lat": 42.34533, "lon": -71.10427, "name": "Fenway"}, {"id": "70187", "lat": 42.34503, "lon": -71.10497, "name": "Fenway"}, {"id": "70089", "lat": 42.29999, "lon": -71.06202, "name": "Fields Corner"}, {"id": "70090", "lat": 42.29993, "lon": -71.06194, "name": "Fields Corner"}, {"id": "70001", "lat": 42.30093, "lon": -71.11413, "name": "Forest Hills"}, {"id": "NEC-2237-03", "lat": 42.30107, "lon": -71.11349, "name": "Forest Hills"}, {"id": "NEC-2237-05", "lat": 42.3011, "lon": -71.11362, "name": "Forest Hills"}, {"id": "70505", "lat": 42.38804, "lon": -71.09696, "name": "Gilman Square"}, {"id": "70506", "lat": 42.38783, "lon": -71.09663, "name": "Gilman Square"}, {"id": "70039", "lat": 42.3597, "lon": -71.05921, "name": "Government Center"}, {"id": "70040", "lat": 42.3597, "lon": -71.05921, "name": "Government Center"}, {"id": "70201", "lat": 42.3597, "lon": -71.05921, "name": "Government Center"}, {"id": "70202", "lat": 42.3597, "lon": -71.05921, "name": "Government Center"}, {"id": "70128", "lat": 42.34875, "lon": -71.1345, "name": "Griggs Street"}, {"id": "70129", "lat": 42.34892, "lon": -71.1343, "name": "Griggs Street"}, {"id": "70002", "lat": 42.30983, "lon": -71.10806, "name": "Green Street"}, {"id": "70003", "lat": 42.3098, "lon": -71.10799, "name": "Green Street"}, {"id": "70024", "lat": 42.36302, "lon": -71.05829, "name": "Haymarket"}, {"id": "70025", "lat": 42.36302, "lon": -71.05829, "name": "Haymarket"}, {"id": "70203", "lat": 42.36302, "lon": -71.05829, "name": "Haymarket"}, {"id": "70204", "lat": 42.36302, "lon": -71.05829, "name": "Haymarket"}, {"id": "70067", "lat": 42.37466, "lon": -71.11881, "name": "Harvard"}, {"id": "70068", "lat": 42.37466, "lon": -71.11881, "name": "Harvard"}, {"id": "70130", "lat": 42.35026, "lon": -71.1313, "name": "Harvard Avenue"}, {"id": "70131", "lat": 42.3506, "lon": -71.13073, "name": "Harvard Avenue"}, {"id": "70260", "lat": 42.32832, "lon": -71.11025, "name": "Heath Street"}, {"id": "70213", "lat": 42.34476, "lon": -71.11176, "name": "Hawes Street"}, {"id": "70214", "lat": 42.34487, "lon": -71.11116, "name": "Hawes Street"}, {"id": "70152", "lat": 42.34789, "lon": -71.0879, "name": "Hynes Convention Center"}, {"id": "70153", "lat": 42.34789, "lon": -71.0879, "name": "Hynes Convention Center"}, {"id": "70006", "lat": 42.32313, "lon": -71.09959, "name": "Jackson Square"}, {"id": "70007", "lat": 42.32313, "lon": -71.09959, "name": "Jackson Square"}, {"id": "70085", "lat": 42.32063, "lon": -71.05251, "name": "JFK/UMass"}, {"id": "70086", "lat": 42.32064, "lon": -71.05247, "name": "JFK/UMass"}, {"id": "70095", "lat": 42.32042, "lon": -71.05229, "name": "JFK/UMass"}, {"id": "70096", "lat": 42.32043, "lon": -71.05222, "name": "JFK/UMass"}, {"id": "MM-0023-S", "lat": 42.32068, "lon": -71.05239, "name": "JFK/UMass"}, {"id": "70150", "lat": 42.34895, "lon": -71.09517, "name": "Kenmore"}, {"id": "70151", "lat": 42.34895, "lon": -71.09517, "name": "Kenmore"}, {"id": "71150", "lat": 42.34895, "lon": -71.09517, "name": "Kenmore"}, {"id": "71151", "lat": 42.34895, "lon": -71.09517, "name": "Kenmore"}, {"id": "70071", "lat": 42.36236, "lon": -71.08561, "name": "Kendall/MIT"}, {"id": "70072", "lat": 42.36243, "lon": -71.08559, "name": "Kendall/MIT"}, {"id": "70215", "lat": 42.34412, "lon": -71.1141, "name": "Kent Street"}, {"id": "70216", "lat": 42.34393, "lon": -71.11457, "name": "Kent Street"}, {"id": "70106", "lat": 42.34015, "lon": -71.16703, "name": "Boston College"}, {"id": "70107", "lat": 42.34024, "lon": -71.16685, "name": "Boston College"}, {"id": "70501", "lat": 42.37157, "lon": -71.07646, "name": "Lechmere"}, {"id": "70502", "lat": 42.37099, "lon": -71.07586, "name": "Lechmere"}, {"id": "70247", "lat": 42.33608, "lon": -71.09988, "name": "Longwood Medical Area"}, {"id": "70248", "lat": 42.33622, "lon": -71.09933, "name": "Longwood Medical Area"}, {"id": "70182", "lat": 42.34181, "lon": -71.10978, "name": "Longwood"}, {"id": "70183", "lat": 42.34157, "lon": -71.11015, "name": "Longwood"}, {"id": "70012", "lat": 42.34093, "lon": -71.08419, "name": "Massachusetts Avenue"}, {"id": "70013", "lat": 42.34089, "lon": -71.08412, "name": "Massachusetts Avenue"}, {"id": "70275", "lat": 42.26763, "lon": -71.09239, "name": "Mattapan"}, {"id": "70276", "lat": 42.26756, "lon": -71.09223, "name": "Mattapan"}, {"id": "70511", "lat": 42.40831, "lon": -71.11728, "name": "Medford/Tufts"}, {"id": "70512", "lat": 42.40828, "lon": -71.11734, "name": "Medford/Tufts"}, {"id": "70245", "lat": 42.33787, "lon": -71.09524, "name": "Museum of Fine Arts"}, {"id": "70246", "lat": 42.33802, "lon": -71.09468, "name": "Museum of Fine Arts"}, {"id": "70507", "lat": 42.39436, "lon": -71.10682, "name": "Magoun Square"}, {"id": "70508", "lat": 42.39405, "lon": -71.10669, "name": "Magoun Square"}, {"id": "70267", "lat": 42.27039, "lon": -71.06725, "name": "Milton"}, {"id": "70268", "lat": 42.27031, "lon": -71.06729, "name": "Milton"}, {"id": "70253", "lat": 42.33328, "lon": -71.10928, "name": "Mission Park"}, {"id": "70254", "lat": 42.33309, "lon": -71.10968, "name": "Mission Park"}, {"id": "70034", "lat": 42.42668, "lon": -71.07438, "name": "Malden Center"}, {"id": "70035", "lat": 42.42666, "lon": -71.07431, "name": "Malden Center"}, {"id": "WR-0045-S", "lat": 42.42663, "lon": -71.07411, "name": "Malden Center"}, {"id": "70045", "lat": 42.36912, "lon": -71.03953, "name": "Maverick"}, {"id": "70046", "lat": 42.36912, "lon": -71.03953, "name": "Maverick"}, {"id": "70168", "lat": 42.32274, "lon": -71.20508, "name": "Newton Highlands"}, {"id": "70169", "lat": 42.32253, "lon": -71.20542, "name": "Newton Highlands"}, {"id": "70170", "lat": 42.32955, "lon": -71.19202, "name": "Newton Centre"}, {"id": "70171", "lat": 42.3294, "lon": -71.19262, "name": "Newton Centre"}, {"id": "70026", "lat": 42.36528, "lon": -71.0602, "name": "North Station"}, {"id": "70027", "lat": 42.36528, "lon": -71.0602, "name": "North Station"}, {"id": "70205", "lat": 42.36528, "lon": -71.0602, "name": "North Station"}, {"id": "70206", "lat": 42.36528, "lon": -71.0602, "name": "North Station"}, {"id": "BNT-0000", "lat": 42.36642, "lon": -71.06233, "name": "North Station"}, {"id": "70097", "lat": 42.27577, "lon": -71.03019, "name": "North Quincy"}, {"id": "70098", "lat": 42.2758, "lon": -71.03014, "name": "North Quincy"}, {"id": "70243", "lat": 42.3399, "lon": -71.09021, "name": "Northeastern University"}, {"id": "70244", "lat": 42.34022, "lon": -71.0892, "name": "Northeastern University"}, {"id": "70036", "lat": 42.43774, "lon": -71.07088, "name": "Oak Grove"}, {"id": "WR-0053-S", "lat": 42.43773, "lon": -71.07071, "name": "Oak Grove"}, {"id": "70051", "lat": 42.38691, "lon": -71.00481, "name": "Orient Heights"}, {"id": "70052", "lat": 42.38684, "lon": -71.00477, "name": "Orient Heights"}, {"id": "70075", "lat": 42.35639, "lon": -71.06242, "name": "Park Street"}, {"id": "70076", "lat": 42.35639, "lon": -71.06242, "name": "Park Street"}, {"id": "70196", "lat": 42.35639, "lon": -71.06242, "name": "Park Street"}, {"id": "70197", "lat": 42.35639, "lon": -71.06242, "name": "Park Street"}, {"id": "70198", "lat": 42.35639, "lon": -71.06242, "name": "Park Street"}, {"id": "70199", "lat": 42.35639, "lon": -71.06242, "name": "Park Street"}, {"id": "70200", "lat": 42.35639, "lon": -71.06242, "name": "Park Street"}, {"id": "70065", "lat": 42.3884, "lon": -71.11915, "name": "Porter"}, {"id": "70066", "lat": 42.3884, "lon": -71.11915, "name": "Porter"}, {"id": "FR-0034-01", "lat": 42.3884, "lon": -71.11915, "name": "Porter"}, {"id": "FR-0034-02", "lat": 42.3884, "lon": -71.11915, "name": "Porter"}, {"id": "70239", "lat": 42.34557, "lon": -71.0817, "name": "Prudential"}, {"id": "70240", "lat": 42.34557, "lon": -71.0817, "name": "Prudential"}, {"id": "70103", "lat": 42.23339, "lon": -71.00715, "name": "Quincy Adams"}, {"id": "70104", "lat": 42.23339, "lon": -71.00715, "name": "Quincy Adams"}, {"id": "70101", "lat": 42.25181, "lon": -71.00541, "name": "Quincy Center"}, {"id": "70102", "lat": 42.25181, "lon": -71.00541, "name": "Quincy Center"}, {"id": "MM-0079-S", "lat": 42.25181, "lon": -71.00541, "name": "Quincy Center"}, {"id": "70057", "lat": 42.40776, "lon": -70.99259, "name": "Revere Beach"}, {"id": "70058", "lat": 42.40787, "lon": -70.9925, "name": "Revere Beach"}, {"id": "70008", "lat": 42.33067, "lon": -71.09612, "name": "Roxbury Crossing"}, {"id": "70009", "lat": 42.33064, "lon": -71.09604, "name": "Roxbury Crossing"}, {"id": "70160", "lat": 42.33732, "lon": -71.25226, "name": "Riverside"}, {"id": "70161", "lat": 42.33735, "lon": -71.25224, "name": "Riverside"}, {"id": "70174", "lat": 42.33518, "lon": -71.14788, "name": "Reservoir"}, {"id": "70175", "lat": 42.33516, "lon": -71.1486, "name": "Reservoir"}, {"id": "70010", "lat": 42.33649, "lon": -71.08968, "name": "Ruggles"}, {"id": "70011", "lat": 42.33645, "lon": -71.08964, "name": "Ruggles"}, {"id": "NEC-2265", "lat": 42.33661, "lon": -71.08921, "name": "Ruggles"}, {"id": "NEC-2265-01", "lat": 42.33634, "lon": -71.08952, "name": "Ruggles"}, {"id": "NEC-2265-02", "lat": 42.33766, "lon": -71.08774, "name": "Ruggles"}, {"id": "NEC-2265-03", "lat": 42.33637, "lon": -71.08955, "name": "Ruggles"}, {"id": "70255", "lat": 42.33139, "lon": -71.11192, "name": "Riverway"}, {"id": "70256", "lat": 42.33187, "lon": -71.11196, "name": "Riverway"}, {"id": "70004", "lat": 42.31706, "lon": -71.10425, "name": "Stony Brook"}, {"id": "70005", "lat": 42.31706, "lon": -71.10425, "name": "Stony Brook"}, {"id": "70053", "lat": 42.39042, "lon": -70.99732, "name": "Suffolk Downs"}, {"id": "70054", "lat": 42.39061, "lon": -70.99703, "name": "Suffolk Downs"}, {"id": "70087", "lat": 42.3106, "lon": -71.05368, "name": "Savin Hill"}, {"id": "70088", "lat": 42.31059, "lon": -71.05361, "name": "Savin Hill"}, {"id": "70211", "lat": 42.34588, "lon": -71.1077, "name": "Saint Mary's Street"}, {"id": "70212", "lat": 42.34601, "lon": -71.10717, "name": "Saint Mary's Street"}, {"id": "70091", "lat": 42.29313, "lon": -71.06574, "name": "Shawmut"}, {"id": "70092", "lat": 42.29313, "lon": -71.06574, "name": "Shawmut"}, {"id": "70110", "lat": 42.33937, "lon": -71.15706, "name": "South Street"}, {"id": "70111", "lat": 42.33958, "lon": -71.1575, "name": "South Street"}, {"id": "70207", "lat": 42.36666, "lon": -71.06767, "name": "Science Park/West End"}, {"id": "70208", "lat": 42.36666, "lon": -71.06767, "name": "Science Park/West End"}, {"id": "70079", "lat": 42.35227, "lon": -71.05524, "name": "South Station"}, {"id": "70080", "lat": 42.35227, "lon": -71.05524, "name": "South Station"}, {"id": "NEC-2287", "lat": 42.35141, "lon": -71.05542, "name": "South Station"}, {"id": "70022", "lat": 42.35898, "lon": -71.0576, "name": "State"}, {"id": "70023", "lat": 42.35898, "lon": -71.0576, "name": "State"}, {"id": "70041", "lat": 42.35898, "lon": -71.0576, "name": "State"}, {"id": "70042", "lat": 42.35898, "lon": -71.0576, "name": "State"}, {"id": "70116", "lat": 42.34159, "lon": -71.14609, "name": "Sutherland Road"}, {"id": "70117", "lat": 42.34158, "lon": -71.14661, "name": "Sutherland Road"}, {"id": "70217", "lat": 42.34334, "lon": -71.11693, "name": "Saint Paul Street"}, {"id": "70218", "lat": 42.34312, "lon": -71.1175, "name": "Saint Paul Street"}, {"id": "70030", "lat": 42.38397, "lon": -71.07699, "name": "Sullivan Square"}, {"id": "70031", "lat": 42.38397, "lon": -71.07699, "name": "Sullivan Square"}, {"id": "70223", "lat": 42.34112, "lon": -71.12565, "name": "Summit Avenue"}, {"id": "70224", "lat": 42.34103, "lon": -71.12576, "name": "Summit Avenue"}, {"id": "70241", "lat": 42.34269, "lon": -71.08506, "name": "Symphony"}, {"id": "70242", "lat": 42.34269, "lon": -71.08506, "name": "Symphony"}, {"id": "70231", "lat": 42.3385, "lon": -71.13873, "name": "Tappan Street"}, {"id": "70232", "lat": 42.33857, "lon": -71.13819, "name": "Tappan Street"}, {"id": "70016", "lat": 42.34966, "lon": -71.06392, "name": "Tufts Medical Center"}, {"id": "70017", "lat": 42.34966, "lon": -71.06392, "name": "Tufts Medical Center"}, {"id": "70503", "lat": 42.37702, "lon": -71.09396, "name": "Union Square"}, {"id": "70504", "lat": 42.37699, "lon": -71.09399, "name": "Union Square"}, {"id": "70271", "lat": 42.26839, "lon": -71.0815, "name": "Valley Road"}, {"id": "70272", "lat": 42.26835, "lon": -71.08134, "name": "Valley Road"}, {"id": "70164", "lat": 42.3257, "lon": -71.23048, "name": "Waban"}, {"id": "70165", "lat": 42.32597, "lon": -71.23071, "name": "Waban"}, {"id": "70120", "lat": 42.34433, "lon": -71.14239, "name": "Washington Street"}, {"id": "70121", "lat": 42.34397, "lon": -71.14273, "name": "Washington Street"}, {"id": "70032", "lat": 42.40151, "lon": -71.07725, "name": "Wellington"}, {"id": "70033", "lat": 42.40151, "lon": -71.07715, "name": "Wellington"}, {"id": "70049", "lat": 42.37974, "lon": -71.02282, "name": "Wood Island"}, {"id": "70050", "lat": 42.37967, "lon": -71.02278, "name": "Wood Island"}, {"id": "70099", "lat": 42.26676, "lon": -71.02054, "name": "Wollaston"}, {"id": "70100", "lat": 42.26679, "lon": -71.02046, "name": "Wollaston"}, {"id": "70059", "lat": 42.41351, "lon": -70.99171, "name": "Wonderland"}, {"id": "70060", "lat": 42.41336, "lon": -70.99169, "name": "Wonderland"}, {"id": "70162", "lat": 42.3327, "lon": -71.24305, "name": "Woodland"}, {"id": "70163", "lat": 42.33309, "lon": -71.24366, "name": "Woodland"}, {"id": "70124", "lat": 42.34828, "lon": -71.14044, "name": "Warren Street"}, {"id": "70125", "lat": 42.34882, "lon": -71.14005, "name": "Warren Street"}], "edges": [{"from": "70001", "to": "70003", "weight": 60}, {"from": "70003", "to": "70005", "weight": 120}, {"from": "70005", "to": "70007", "weight": 120}, {"from": "70007", "to": "70009", "weight": 60}, {"from": "70009", "to": "70011", "weight": 120}, {"from": "70011", "to": "70013", "weight": 120}, {"from": "70013", "to": "70015", "weight": 120}, {"from": "70015", "to": "70017", "weight": 120}, {"from": "70017", "to": "70019", "weight": 60}, {"from": "70019", "to": "70021", "weight": 60}, {"from": "70021", "to": "70023", "weight": 120}, {"from": "70023", "to": "70025", "weight": 60}, {"from": "70025", "to": "70027", "weight": 120}, {"from": "70027", "to": "70029", "weight": 120}, {"from": "70029", "to": "70031", "weight": 120}, {"from": "70031", "to": "70279", "weight": 120}, {"from": "70279", "to": "70033", "weight": 120}, {"from": "70033", "to": "70035", "weight": 240}, {"from": "70035", "to": "70036", "weight": 180}, {"from": "70036", "to": "70034", "weight": 60}, {"from": "70034", "to": "70032", "weight": 240}, {"from": "70032", "to": "70278", "weight": 120}, {"from": "70278", "to": "70030", "weight": 120}, {"from": "70030", "to": "70028", "weight": 120}, {"from": "70028", "to": "70026", "weight": 120}, {"from": "70026", "to": "70024", "weight": 60}, {"from": "70024", "to": "70022", "weight": 120}, {"from": "70022", "to": "70020", "weight": 60}, {"from": "70020", "to": "70018", "weight": 60}, {"from": "70018", "to": "70016", "weight": 60}, {"from": "70016", "to": "70014", "weight": 120}, {"from": "70014", "to": "70012", "weight": 120}, {"from": "70012", "to": "70010", "weight": 120}, {"from": "70010", "to": "70008", "weight": 120}, {"from": "70008", "to": "70006", "weight": 120}, {"from": "70006", "to": "70004", "weight": 60}, {"from": "70004", "to": "70002", "weight": 120}, {"from": "70002", "to": "70001", "weight": 120}, {"from": "70066", "to": "70064", "weight": 120}, {"from": "70064", "to": "70061", "weight": 180}, {"from": "70091", "to": "70093", "weight": 120}, {"from": "70085", "to": "70087", "weight": 120}, {"from": "70087", "to": "70089", "weight": 180}, {"from": "70089", "to": "70091", "weight": 120}, {"from": "70082", "to": "70080", "weight": 180}, {"from": "70080", "to": "70078", "weight": 120}, {"from": "70078", "to": "70076", "weight": 120}, {"from": "70076", "to": "70074", "weight": 120}, {"from": "70074", "to": "70072", "weight": 120}, {"from": "70072", "to": "70070", "weight": 120}, {"from": "70070", "to": "70068", "weight": 240}, {"from": "70068", "to": "70066", "weight": 180}, {"from": "70094", "to": "70092", "weight": 60}, {"from": "70092", "to": "70090", "weight": 120}, {"from": "70090", "to": "70088", "weight": 180}, {"from": "70088", "to": "70086", "weight": 120}, {"from": "70086", "to": "70084", "weight": 180}, {"from": "70084", "to": "70082", "weight": 120}, {"from": "70075", "to": "70077", "weight": 120}, {"from": "70077", "to": "70079", "weight": 120}, {"from": "70079", "to": "70081", "weight": 180}, {"from": "70081", "to": "70083", "weight": 120}, {"from": "70083", "to": "70085", "weight": 180}, {"from": "70061", "to": "70063", "weight": 120}, {"from": "70063", "to": "70065", "weight": 120}, {"from": "70065", "to": "70067", "weight": 180}, {"from": "70067", "to": "70069", "weight": 240}, {"from": "70069", "to": "70071", "weight": 120}, {"from": "70071", "to": "70073", "weight": 120}, {"from": "70073", "to": "70075", "weight": 120}, {"from": "70105", "to": "70104", "weight": 180}, {"from": "70104", "to": "70102", "weight": 180}, {"from": "70102", "to": "70100", "weight": 180}, {"from": "70100", "to": "70098", "weight": 120}, {"from": "70098", "to": "70096", "weight": 420}, {"from": "70096", "to": "70084", "weight": 180}, {"from": "70083", "to": "70095", "weight": 120}, {"from": "70095", "to": "70097", "weight": 420}, {"from": "70097", "to": "70099", "weight": 120}, {"from": "70099", "to": "70101", "weight": 180}, {"from": "70101", "to": "70103", "weight": 180}, {"from": "70103", "to": "70105", "weight": 240}, {"from": "70504", "to": "70502", "weight": 300}, {"from": "70502", "to": "70208", "weight": 120}, {"from": "70208", "to": "70206", "weight": 240}, {"from": "70206", "to": "70204", "weight": 120}, {"from": "70204", "to": "70202", "weight": 120}, {"from": "70202", "to": "70198", "weight": 120}, {"from": "70198", "to": "70159", "weight": 180}, {"from": "70159", "to": "70157", "weight": 180}, {"from": "70157", "to": "70155", "weight": 120}, {"from": "70155", "to": "70153", "weight": 180}, {"from": "70153", "to": "70151", "weight": 180}, {"from": "70151", "to": "70187", "weight": 240}, {"from": "70187", "to": "70183", "weight": 120}, {"from": "70183", "to": "70181", "weight": 120}, {"from": "70181", "to": "70179", "weight": 120}, {"from": "70179", "to": "70177", "weight": 180}, {"from": "70177", "to": "70175", "weight": 180}, {"from": "70175", "to": "70173", "weight": 180}, {"from": "70173", "to": "70171", "weight": 240}, {"from": "70171", "to": "70169", "weight": 120}, {"from": "70169", "to": "70167", "weight": 120}, {"from": "70167", "to": "70165", "weight": 180}, {"from": "70165", "to": "70163", "weight": 120}, {"from": "70163", "to": "70161", "weight": 120}, {"from": "70170", "to": "70172", "weight": 240}, {"from": "70172", "to": "70174", "weight": 180}, {"from": "70174", "to": "70176", "weight": 180}, {"from": "70176", "to": "70178", "weight": 180}, {"from": "70178", "to": "70180", "weight": 120}, {"from": "70180", "to": "70182", "weight": 120}, {"from": "70182", "to": "70186", "weight": 120}, {"from": "70186", "to": "70150", "weight": 240}, {"from": "70150", "to": "70152", "weight": 180}, {"from": "70152", "to": "70154", "weight": 180}, {"from": "70154", "to": "70156", "weight": 120}, {"from": "70156", "to": "70158", "weight": 180}, {"from": "70158", "to": "70200", "weight": 120}, {"from": "70200", "to": "70201", "weight": 180}, {"from": "70201", "to": "70203", "weight": 120}, {"from": "70203", "to": "70205", "weight": 120}, {"from": "70205", "to": "70207", "weight": 240}, {"from": "70207", "to": "70501", "weight": 120}, {"from": "70501", "to": "70503", "weight": 360}, {"from": "70162", "to": "70164", "weight": 120}, {"from": "70164", "to": "70166", "weight": 120}, {"from": "70166", "to": "70168", "weight": 120}, {"from": "70168", "to": "70170", "weight": 180}, {"from": "70160", "to": "70162", "weight": 60}, {"from": "70202", "to": "70197", "weight": 60}, {"from": "70197", "to": "70159", "weight": 180}, {"from": "70238", "to": "70236", "weight": 60}, {"from": "70236", "to": "70234", "weight": 120}, {"from": "70234", "to": "70232", "weight": 60}, {"from": "70232", "to": "70230", "weight": 60}, {"from": "70230", "to": "70228", "weight": 60}, {"from": "70228", "to": "70226", "weight": 60}, {"from": "70226", "to": "70224", "weight": 120}, {"from": "70224", "to": "70220", "weight": 60}, {"from": "70220", "to": "70218", "weight": 180}, {"from": "70218", "to": "70216", "weight": 60}, {"from": "70216", "to": "70214", "weight": 120}, {"from": "70214", "to": "70212", "weight": 120}, {"from": "70212", "to": "70150", "weight": 240}, {"from": "70151", "to": "70211", "weight": 180}, {"from": "70211", "to": "70213", "weight": 120}, {"from": "70213", "to": "70215", "weight": 60}, {"from": "70215", "to": "70217", "weight": 120}, {"from": "70217", "to": "70219", "weight": 120}, {"from": "70219", "to": "70223", "weight": 120}, {"from": "70223", "to": "70225", "weight": 120}, {"from": "70225", "to": "70227", "weight": 60}, {"from": "70227", "to": "70229", "weight": 120}, {"from": "70229", "to": "70231", "weight": 60}, {"from": "70231", "to": "70233", "weight": 120}, {"from": "70233", "to": "70235", "weight": 60}, {"from": "70235", "to": "70237", "weight": 120}, {"from": "70106", "to": "70110", "weight": 180}, {"from": "70110", "to": "70112", "weight": 60}, {"from": "70112", "to": "70114", "weight": 120}, {"from": "70114", "to": "70116", "weight": 120}, {"from": "70116", "to": "70120", "weight": 60}, {"from": "70120", "to": "70124", "weight": 180}, {"from": "70124", "to": "70126", "weight": 60}, {"from": "70126", "to": "70128", "weight": 120}, {"from": "70128", "to": "70130", "weight": 60}, {"from": "70130", "to": "70134", "weight": 180}, {"from": "70134", "to": "170136", "weight": 180}, {"from": "170136", "to": "170140", "weight": 120}, {"from": "170140", "to": "70144", "weight": 300}, {"from": "70144", "to": "70146", "weight": 60}, {"from": "70146", "to": "70148", "weight": 120}, {"from": "70148", "to": "71150", "weight": 120}, {"from": "71150", "to": "70152", "weight": 180}, {"from": "70202", "to": "70196", "weight": 60}, {"from": "70196", "to": "70159", "weight": 180}, {"from": "70153", "to": "71151", "weight": 180}, {"from": "71151", "to": "70149", "weight": 120}, {"from": "70149", "to": "70147", "weight": 120}, {"from": "70147", "to": "70145", "weight": 60}, {"from": "70145", "to": "170141", "weight": 240}, {"from": "170141", "to": "170137", "weight": 180}, {"from": "170137", "to": "70135", "weight": 120}, {"from": "70135", "to": "70131", "weight": 180}, {"from": "70131", "to": "70129", "weight": 60}, {"from": "70129", "to": "70127", "weight": 120}, {"from": "70127", "to": "70125", "weight": 60}, {"from": "70125", "to": "70121", "weight": 180}, {"from": "70121", "to": "70117", "weight": 60}, {"from": "70117", "to": "70115", "weight": 120}, {"from": "70115", "to": "70113", "weight": 120}, {"from": "70113", "to": "70111", "weight": 120}, {"from": "70111", "to": "70107", "weight": 180}, {"from": "70245", "to": "70247", "weight": 180}, {"from": "70247", "to": "70249", "weight": 120}, {"from": "70249", "to": "70251", "weight": 60}, {"from": "70251", "to": "70253", "weight": 120}, {"from": "70253", "to": "70255", "weight": 120}, {"from": "70255", "to": "70257", "weight": 60}, {"from": "70257", "to": "70260", "weight": 120}, {"from": "70239", "to": "70241", "weight": 120}, {"from": "70241", "to": "70243", "weight": 120}, {"from": "70243", "to": "70245", "weight": 180}, {"from": "70199", "to": "70159", "weight": 180}, {"from": "70155", "to": "70239", "weight": 180}, {"from": "70202", "to": "70199", "weight": 120}, {"from": "70514", "to": "70502", "weight": 240}, {"from": "70512", "to": "70510", "weight": 120}, {"from": "70510", "to": "70508", "weight": 120}, {"from": "70508", "to": "70506", "weight": 120}, {"from": "70506", "to": "70514", "weight": 120}, {"from": "70513", "to": "70505", "weight": 120}, {"from": "70505", "to": "70507", "weight": 120}, {"from": "70507", "to": "70509", "weight": 120}, {"from": "70509", "to": "70511", "weight": 120}, {"from": "70501", "to": "70513", "weight": 240}, {"from": "70244", "to": "70242", "weight": 120}, {"from": "70242", "to": "70240", "weight": 120}, {"from": "70240", "to": "70154", "weight": 180}, {"from": "70260", "to": "70258", "weight": 60}, {"from": "70258", "to": "70256", "weight": 120}, {"from": "70256", "to": "70254", "weight": 60}, {"from": "70254", "to": "70252", "weight": 120}, {"from": "70252", "to": "70250", "weight": 60}, {"from": "70250", "to": "70248", "weight": 120}, {"from": "70248", "to": "70246", "weight": 180}, {"from": "70246", "to": "70244", "weight": 180}, {"from": "70276", "to": "70274", "weight": 60}, {"from": "70274", "to": "70272", "weight": 60}, {"from": "70272", "to": "70270", "weight": 120}, {"from": "70270", "to": "70268", "weight": 120}, {"from": "70268", "to": "70266", "weight": 60}, {"from": "70266", "to": "70264", "weight": 180}, {"from": "70264", "to": "70261", "weight": 60}, {"from": "70261", "to": "70263", "weight": 60}, {"from": "70263", "to": "70265", "weight": 180}, {"from": "70265", "to": "70267", "weight": 60}, {"from": "70267", "to": "70269", "weight": 60}, {"from": "70269", "to": "70271", "weight": 120}, {"from": "70271", "to": "70273", "weight": 60}, {"from": "70273", "to": "70275", "weight": 60}, {"from": "70042", "to": "70044", "weight": 60}, {"from": "70044", "to": "70046", "weight": 180}, {"from": "70046", "to": "70048", "weight": 120}, {"from": "70048", "to": "70050", "weight": 120}, {"from": "70050", "to": "70052", "weight": 120}, {"from": "70052", "to": "70054", "weight": 120}, {"from": "70054", "to": "70056", "weight": 120}, {"from": "70056", "to": "70058", "weight": 120}, {"from": "70058", "to": "70060", "weight": 120}, {"from": "70059", "to": "70057", "weight": 60}, {"from": "70057", "to": "70055", "weight": 120}, {"from": "70055", "to": "70053", "weight": 60}, {"from": "70053", "to": "70051", "weight": 120}, {"from": "70051", "to": "70049", "weight": 120}, {"from": "70049", "to": "70047", "weight": 120}, {"from": "70047", "to": "70045", "weight": 120}, {"from": "70045", "to": "70043", "weight": 120}, {"from": "70043", "to": "70041", "weight": 60}, {"from": "70041", "to": "70039", "weight": 120}, {"from": "70039", "to": "70838", "weight": 120}, {"from": "70038", "to": "70040", "weight": 60}, {"from": "70040", "to": "70042", "weight": 60}, {"from": "WR-0205-02", "to": "WR-0228-02", "weight": 300}, {"from": "WR-0228-02", "to": "WR-0264-02", "weight": 420}, {"from": "WR-0264-02", "to": "WR-0325-01", "weight": 540}, {"from": "WR-0325-01", "to": "WR-0329-01", "weight": 540}, {"from": "WR-0329-02", "to": "WR-0325-02", "weight": 120}, {"from": "WR-0325-02", "to": "WR-0264-02", "weight": 420}, {"from": "WR-0264-02", "to": "WR-0228-02", "weight": 420}, {"from": "WR-0228-02", "to": "WR-0205-02", "weight": 300}, {"from": "WR-0205-02", "to": "WR-0163-S", "weight": 480}, {"from": "WR-0163-S", "to": "WR-0120-S", "weight": 420}, {"from": "WR-0120-S", "to": "WR-0099-02", "weight": 360}, {"from": "WR-0099-02", "to": "WR-0085-02", "weight": 180}, {"from": "WR-0085-02", "to": "WR-0075-02", "weight": 120}, {"from": "WR-0075-02", "to": "WR-0067-02", "weight": 120}, {"from": "WR-0067-02", "to": "WR-0062-02", "weight": 120}, {"from": "WR-0062-02", "to": "WR-0053-S", "weight": 120}, {"from": "WR-0053-S", "to": "WR-0045-S", "weight": 180}, {"from": "WR-0045-S", "to": "BNT-0000", "weight": 960}, {"from": "BNT-0000", "to": "WR-0045-S", "weight": 660}, {"from": "WR-0045-S", "to": "WR-0053-S", "weight": 120}, {"from": "WR-0053-S", "to": "WR-0062-01", "weight": 120}, {"from": "WR-0062-01", "to": "WR-0067-01", "weight": 120}, {"from": "WR-0067-01", "to": "WR-0075-01", "weight": 180}, {"from": "WR-0075-01", "to": "WR-0085-01", "weight": 180}, {"from": "WR-0085-01", "to": "WR-0099-01", "weight": 240}, {"from": "WR-0099-01", "to": "WR-0120-S", "weight": 360}, {"from": "WR-0120-S", "to": "WR-0163-S", "weight": 360}, {"from": "WR-0163-S", "to": "WR-0205-02", "weight": 480}, {"from": "BNT-0000", "to": "NHRML-0055-01", "weight": 660}, {"from": "NHRML-0055-01", "to": "NHRML-0073-01", "weight": 180}, {"from": "NHRML-0073-01", "to": "NHRML-0078-01", "weight": 120}, {"from": "NHRML-0078-01", "to": "NHRML-0127-01", "weight": 420}, {"from": "NHRML-0127-01", "to": "NHRML-0152-01", "weight": 240}, {"from": "NHRML-0152-01", "to": "NHRML-0218-01", "weight": 600}, {"from": "NHRML-0218-01", "to": "NHRML-0254-04", "weight": 720}, {"from": "NHRML-0254-04", "to": "NHRML-0218-02", "weight": 480}, {"from": "NHRML-0218-02", "to": "NHRML-0152-02", "weight": 420}, {"from": "NHRML-0152-02", "to": "NHRML-0127-02", "weight": 240}, {"from": "NHRML-0127-02", "to": "NHRML-0078-02", "weight": 360}, {"from": "NHRML-0078-02", "to": "NHRML-0073-02", "weight": 120}, {"from": "NHRML-0073-02", "to": "NHRML-0055-02", "weight": 240}, {"from": "NHRML-0055-02", "to": "BNT-0000", "weight": 840}, {"from": "BNT-0000", "to": "FR-0034-01", "weight": 600}, {"from": "FR-0034-01", "to": "FR-0064-01", "weight": 300}, {"from": "FR-0064-01", "to": "FR-0074-01", "weight": 120}, {"from": "FR-0074-01", "to": "FR-0098-01", "weight": 300}, {"from": "FR-0098-01", "to": "FR-0115-01", "weight": 180}, {"from": "FR-0115-01", "to": "FR-0132-01", "weight": 240}, {"from": "FR-0132-01", "to": "FR-0167-01", "weight": 300}, {"from": "FR-0167-01", "to": "FR-0201-01", "weight": 300}, {"from": "FR-0201-01", "to": "FR-0219-01", "weight": 240}, {"from": "FR-0219-01", "to": "FR-0253-01", "weight": 300}, {"from": "FR-0253-01", "to": "FR-0301-01", "weight": 420}, {"from": "FR-0301-01", "to": "FR-0361-01", "weight": 480}, {"from": "FR-0361-01", "to": "FR-0394-01", "weight": 300}, {"from": "FR-0394-01", "to": "FR-0451-01", "weight": 540}, {"from": "FR-0451-01", "to": "FR-0494-CS", "weight": 480}, {"from": "FR-0494-CS", "to": "FR-3338-CS", "weight": 840}, {"from": "FR-3338-CS", "to": "FR-0494-CS", "weight": 480}, {"from": "FR-0494-CS", "to": "FR-0451-02", "weight": 420}, {"from": "FR-0451-02", "to": "FR-0394-02", "weight": 480}, {"from": "FR-0394-02", "to": "FR-0361-02", "weight": 300}, {"from": "FR-0361-02", "to": "FR-0301-02", "weight": 480}, {"from": "FR-0301-02", "to": "FR-0253-02", "weight": 360}, {"from": "FR-0253-02", "to": "FR-0219-02", "weight": 240}, {"from": "FR-0219-02", "to": "FR-0201-02", "weight": 240}, {"from": "FR-0201-02", "to": "FR-0167-02", "weight": 360}, {"from": "FR-0167-02", "to": "FR-0132-02", "weight": 360}, {"from": "FR-0132-02", "to": "FR-0115-02", "weight": 180}, {"from": "FR-0115-02", "to": "FR-0098-S", "weight": 240}, {"from": "FR-0098-S", "to": "FR-0074-02", "weight": 300}, {"from": "FR-0074-02", "to": "FR-0064-02", "weight": 120}, {"from": "FR-0064-02", "to": "FR-0034-02", "weight": 360}, {"from": "FR-0034-02", "to": "BNT-0000", "weight": 960}, {"from": "BNT-0000", "to": "WR-0205-02", "weight": 1920}, {"from": "WR-0329-02", "to": "WR-0325-01", "weight": 120}, {"from": "WR-0325-01", "to": "WR-0264-02", "weight": 420}, {"from": "FR-0034-01", "to": "FR-0253-01", "weight": 1500}, {"from": "FR-0132-01", "to": "FR-0147-01", "weight": 180}, {"from": "FR-0147-01", "to": "FR-0167-01", "weight": 180}, {"from": "FR-0253-01", "to": "FR-0301-02", "weight": 600}, {"from": "GB-0296-01", "to": "GB-0316-S", "weight": 300}, {"from": "GB-0316-S", "to": "GB-0353-S", "weight": 840}, {"from": "ER-0128-02", "to": "ER-0117-02", "weight": 180}, {"from": "ER-0117-02", "to": "ER-0099-02", "weight": 180}, {"from": "ER-0099-02", "to": "ER-0042-02", "weight": 480}, {"from": "ER-0042-02", "to": "BNT-0000", "weight": 960}, {"from": "BNT-0000", "to": "ER-0042-01", "weight": 660}, {"from": "ER-0042-01", "to": "ER-0099-01", "weight": 480}, {"from": "ER-0099-01", "to": "ER-0117-01", "weight": 240}, {"from": "ER-0117-01", "to": "ER-0128-01", "weight": 180}, {"from": "ER-0128-01", "to": "ER-0168-S", "weight": 420}, {"from": "ER-0168-S", "to": "ER-0183-01", "weight": 300}, {"from": "ER-0183-01", "to": "GB-0198-01", "weight": 240}, {"from": "GB-0198-01", "to": "GB-0229-01", "weight": 300}, {"from": "GB-0229-01", "to": "GB-0254-01", "weight": 360}, {"from": "GB-0254-01", "to": "GB-0296-01", "weight": 360}, {"from": "GB-0353-S", "to": "GB-0316-S", "weight": 480}, {"from": "GB-0316-S", "to": "GB-0296-02", "weight": 300}, {"from": "GB-0296-02", "to": "GB-0254-02", "weight": 360}, {"from": "GB-0254-02", "to": "GB-0229-02", "weight": 300}, {"from": "GB-0229-02", "to": "GB-0198-02", "weight": 360}, {"from": "GB-0198-02", "to": "ER-0183-02", "weight": 360}, {"from": "ER-0183-02", "to": "ER-0168-S", "weight": 240}, {"from": "ER-0168-S", "to": "ER-0128-02", "weight": 420}, {"from": "ER-0042-01", "to": "ER-0117-01", "weight": 660}, {"from": "ER-0183-01", "to": "ER-0208-01", "weight": 300}, {"from": "ER-0208-01", "to": "ER-0227-S", "weight": 240}, {"from": "ER-0227-S", "to": "ER-0276-S", "weight": 420}, {"from": "ER-0276-S", "to": "ER-0312-S", "weight": 300}, {"from": "ER-0312-S", "to": "ER-0362-01", "weight": 720}, {"from": "ER-0312-S", "to": "ER-0276-S", "weight": 360}, {"from": "ER-0276-S", "to": "ER-0227-S", "weight": 360}, {"from": "ER-0227-S", "to": "ER-0208-02", "weight": 240}, {"from": "ER-0208-02", "to": "ER-0183-02", "weight": 300}, {"from": "ER-0362-01", "to": "ER-0312-S", "weight": 420}, {"from": "ER-0117-02", "to": "ER-0042-02", "weight": 600}, {"from": "NB-0137-S", "to": "NB-0127-S", "weight": 240}, {"from": "NB-0127-S", "to": "NB-0120-S", "weight": 240}, {"from": "NB-0120-S", "to": "NB-0109-S", "weight": 180}, {"from": "NB-0109-S", "to": "NB-0080-S", "weight": 600}, {"from": "NB-0080-S", "to": "NB-0076-S", "weight": 120}, {"from": "NB-0076-S", "to": "NB-0072-S", "weight": 120}, {"from": "NB-0072-S", "to": "NB-0064-S", "weight": 180}, {"from": "NB-0064-S", "to": "NEC-2237-05", "weight": 180}, {"from": "NEC-2237-05", "to": "NEC-2265-03", "weight": 360}, {"from": "NEC-2265-03", "to": "NEC-2276-03", "weight": 240}, {"from": "NEC-2276-03", "to": "NEC-2287", "weight": 300}, {"from": "NEC-2287", "to": "NEC-2276-01", "weight": 300}, {"from": "NEC-2276-01", "to": "NEC-2265-01", "weight": 180}, {"from": "NEC-2265-01", "to": "NEC-2237-03", "weight": 300}, {"from": "NEC-2237-03", "to": "NB-0064-S", "weight": 180}, {"from": "NB-0064-S", "to": "NB-0072-S", "weight": 180}, {"from": "NB-0072-S", "to": "NB-0076-S", "weight": 120}, {"from": "NB-0076-S", "to": "NB-0080-S", "weight": 120}, {"from": "NB-0080-S", "to": "NB-0109-S", "weight": 300}, {"from": "NB-0109-S", "to": "NB-0120-S", "weight": 180}, {"from": "NB-0120-S", "to": "NB-0127-S", "weight": 240}, {"from": "NB-0127-S", "to": "NB-0137-S", "weight": 360}, {"from": "NEC-2192-03", "to": "NEC-2173-01", "weight": 240}, {"from": "NEC-2173-01", "to": "NEC-2139-01", "weight": 360}, {"from": "NEC-2139-01", "to": "NEC-2108-01", "weight": 360}, {"from": "NEC-2108-01", "to": "NEC-2040-01", "weight": 480}, {"from": "NEC-2040-01", "to": "NEC-1969-03", "weight": 600}, {"from": "NEC-1969-03", "to": "NEC-1891-01", "weight": 540}, {"from": "NEC-1891-01", "to": "NEC-1851-03", "weight": 900}, {"from": "NEC-1969-04", "to": "NEC-2040-02", "weight": 600}, {"from": "NEC-2040-02", "to": "NEC-2108-02", "weight": 540}, {"from": "NEC-2108-02", "to": "NEC-2139-02", "weight": 300}, {"from": "NEC-2139-02", "to": "NEC-2173-02", "weight": 360}, {"from": "NEC-2173-02", "to": "NEC-2192-02", "weight": 240}, {"from": "NEC-2192-02", "to": "NEC-2203-02", "weight": 180}, {"from": "NEC-2203-02", "to": "NEC-2265-02", "weight": 540}, {"from": "NEC-2265-02", "to": "NEC-2276-02", "weight": 240}, {"from": "NEC-2276-02", "to": "NEC-2287", "weight": 360}, {"from": "NEC-2265-01", "to": "NEC-2192-03", "weight": 660}, {"from": "NEC-1851-03", "to": "NEC-1891-02", "weight": 360}, {"from": "NEC-1891-02", "to": "NEC-1969-04", "weight": 780}, {"from": "KB-0351-S", "to": "PB-0281-S", "weight": 540}, {"from": "PB-0281-S", "to": "PB-0245-S", "weight": 300}, {"from": "PB-0245-S", "to": "PB-0212-S", "weight": 300}, {"from": "PB-0212-S", "to": "PB-0194-S", "weight": 180}, {"from": "PB-0194-S", "to": "PB-0158-S", "weight": 300}, {"from": "PB-0158-S", "to": "MM-0109-S", "weight": 480}, {"from": "MM-0109-S", "to": "MM-0079-S", "weight": 360}, {"from": "MM-0079-S", "to": "NEC-2287", "weight": 1200}, {"from": "NEC-2287", "to": "DB-2265-01", "weight": 480}, {"from": "DB-2265-01", "to": "DB-2258-01", "weight": 120}, {"from": "DB-2258-01", "to": "DB-2249-01", "weight": 180}, {"from": "DB-2249-01", "to": "DB-2240-01", "weight": 180}, {"from": "DB-2240-01", "to": "DB-2230-01", "weight": 180}, {"from": "DB-2230-01", "to": "DB-2222-01", "weight": 120}, {"from": "DB-2222-01", "to": "DB-2205-01", "weight": 180}, {"from": "DB-2205-01", "to": "FB-0095-04", "weight": 360}, {"from": "FB-0095-04", "to": "DB-2205-02", "weight": 180}, {"from": "DB-2205-02", "to": "DB-2222-02", "weight": 180}, {"from": "DB-2222-02", "to": "DB-2230-02", "weight": 120}, {"from": "DB-2230-02", "to": "DB-2240-02", "weight": 180}, {"from": "DB-2240-02", "to": "DB-2249-02", "weight": 180}, {"from": "DB-2249-02", "to": "DB-2258-02", "weight": 180}, {"from": "DB-2258-02", "to": "DB-2265-02", "weight": 120}, {"from": "FRS-0109-S", "to": "FRS-0054-S", "weight": 420}, {"from": "FRS-0054-S", "to": "NBM-0374-01", "weight": 780}, {"from": "NBM-0374-01", "to": "MBS-0350-S", "weight": 660}, {"from": "MBS-0350-S", "to": "MM-0277-S", "weight": 600}, {"from": "MM-0277-S", "to": "MM-0219-S", "weight": 480}, {"from": "MM-0219-S", "to": "MM-0200-CS", "weight": 240}, {"from": "MM-0200-CS", "to": "MM-0186-CS", "weight": 180}, {"from": "MM-0186-CS", "to": "MM-0150-S", "weight": 300}, {"from": "MM-0150-S", "to": "MM-0109-S", "weight": 480}, {"from": "NBM-0374-02", "to": "FRS-0054-S", "weight": 660}, {"from": "FRS-0054-S", "to": "FRS-0109-S", "weight": 840}, {"from": "NBM-0546-S", "to": "NBM-0523-S", "weight": 360}, {"from": "NBM-0523-S", "to": "NBM-0374-01", "weight": 1080}, {"from": "NEC-2287", "to": "MM-0079-S", "weight": 900}, {"from": "MM-0079-S", "to": "GRB-0118-S", "weight": 600}, {"from": "GRB-0118-S", "to": "GRB-0146-S", "weight": 300}, {"from": "GRB-0146-S", "to": "GRB-0162-S", "weight": 240}, {"from": "GRB-0162-S", "to": "GRB-0183-S", "weight": 300}, {"from": "GRB-0183-S", "to": "GRB-0199-S", "weight": 180}, {"from": "GRB-0199-S", "to": "GRB-0233-S", "weight": 420}, {"from": "GRB-0233-S", "to": "GRB-0276-S", "weight": 600}, {"from": "GRB-0276-S", "to": "GRB-0233-S", "weight": 420}, {"from": "GRB-0233-S", "to": "GRB-0199-S", "weight": 360}, {"from": "GRB-0199-S", "to": "GRB-0183-S", "weight": 180}, {"from": "GRB-0183-S", "to": "GRB-0162-S", "weight": 300}, {"from": "GRB-0162-S", "to": "GRB-0146-S", "weight": 240}, {"from": "GRB-0146-S", "to": "GRB-0118-S", "weight": 300}, {"from": "GRB-0118-S", "to": "MM-0079-S", "weight": 600}, {"from": "DB-2265-02", "to": "NEC-2287", "weight": 660}, {"from": "FB-0303-S", "to": "FB-0275-S", "weight": 420}, {"from": "FB-0275-S", "to": "FB-0230-S", "weight": 420}, {"from": "FB-0230-S", "to": "FB-0191-S", "weight": 420}, {"from": "FB-0191-S", "to": "FB-0166-S", "weight": 180}, {"from": "FB-0166-S", "to": "FB-0148-02", "weight": 240}, {"from": "FB-0148-02", "to": "FB-0143-02", "weight": 120}, {"from": "FB-0143-02", "to": "FB-0125-02", "weight": 240}, {"from": "FB-0125-02", "to": "FB-0118-02", "weight": 120}, {"from": "FB-0118-02", "to": "FB-0109-02", "weight": 180}, {"from": "FB-0109-02", "to": "FB-0095-04", "weight": 300}, {"from": "FB-0095-04", "to": "NEC-2287", "weight": 1680}, {"from": "NEC-2287", "to": "NEC-2203-03", "weight": 960}, {"from": "NEC-2203-03", "to": "FB-0095-05", "weight": 240}, {"from": "FB-0095-05", "to": "FB-0109-01", "weight": 240}, {"from": "FB-0109-01", "to": "FB-0118-01", "weight": 180}, {"from": "FB-0118-01", "to": "FB-0125-01", "weight": 180}, {"from": "FB-0125-01", "to": "FB-0143-01", "weight": 180}, {"from": "FB-0143-01", "to": "FB-0148-01", "weight": 240}, {"from": "FB-0148-01", "to": "FB-0166-S", "weight": 240}, {"from": "FB-0166-S", "to": "FB-0191-S", "weight": 240}, {"from": "FB-0191-S", "to": "FB-0230-S", "weight": 420}, {"from": "FB-0230-S", "to": "FB-0275-S", "weight": 420}, {"from": "FB-0275-S", "to": "FB-0303-S", "weight": 720}, {"from": "NEC-2287", "to": "WML-0012-07", "weight": 360}, {"from": "WML-0012-07", "to": "WML-0025-07", "weight": 300}, {"from": "WML-0025-07", "to": "WML-0035-01", "weight": 300}, {"from": "WML-0035-01", "to": "WML-0081-02", "weight": 300}, {"from": "WML-0081-02", "to": "WML-0091-02", "weight": 240}, {"from": "WML-0091-02", "to": "WML-0102-02", "weight": 180}, {"from": "WML-0102-02", "to": "WML-0125-01", "weight": 240}, {"from": "WML-0125-01", "to": "WML-0135-01", "weight": 120}, {"from": "WML-0135-01", "to": "WML-0147-01", "weight": 180}, {"from": "WML-0147-01", "to": "WML-0177-01", "weight": 240}, {"from": "WML-0177-01", "to": "WML-0199-01", "weight": 300}, {"from": "WML-0199-01", "to": "WML-0214-02", "weight": 300}, {"from": "WML-0214-01", "to": "WML-0199-02", "weight": 300}, {"from": "WML-0199-02", "to": "WML-0177-02", "weight": 300}, {"from": "WML-0177-02", "to": "WML-0147-02", "weight": 240}, {"from": "WML-0147-02", "to": "WML-0135-02", "weight": 180}, {"from": "WML-0135-02", "to": "WML-0125-02", "weight": 180}, {"from": "WML-0125-02", "to": "WML-0102-02", "weight": 300}, {"from": "WML-0102-02", "to": "WML-0091-02", "weight": 180}, {"from": "WML-0091-02", "to": "WML-0081-02", "weight": 180}, {"from": "WML-0081-02", "to": "WML-0035-02", "weight": 300}, {"from": "WML-0035-02", "to": "WML-0025-05", "weight": 300}, {"from": "WML-0025-05", "to": "WML-0012-05", "weight": 540}, {"from": "WML-0012-05", "to": "NEC-2287", "weight": 360}, {"from": "NEC-2287", "to": "MM-0023-S", "weight": 420}, {"from": "MM-0023-S", "to": "MM-0079-S", "weight": 540}, {"from": "MM-0079-S", "to": "MM-0109-S", "weight": 360}, {"from": "MM-0109-S", "to": "PB-0158-S", "weight": 420}, {"from": "PB-0158-S", "to": "PB-0194-S", "weight": 300}, {"from": "PB-0194-S", "to": "PB-0212-S", "weight": 180}, {"from": "PB-0212-S", "to": "PB-0245-S", "weight": 300}, {"from": "PB-0245-S", "to": "PB-0281-S", "weight": 300}, {"from": "PB-0281-S", "to": "KB-0351-S", "weight": 780}, {"from": "MM-0150-S", "to": "MM-0186-S", "weight": 360}, {"from": "MM-0186-S", "to": "MM-0200-S", "weight": 240}, {"from": "MM-0200-S", "to": "MM-0219-S", "weight": 240}, {"from": "MM-0219-S", "to": "MM-0277-S", "weight": 480}, {"from": "MM-0277-S", "to": "MBS-0350-S", "weight": 720}, {"from": "MBS-0350-S", "to": "NBM-0374-01", "weight": 720}, {"from": "NBM-0374-01", "to": "NBM-0523-S", "weight": 900}, {"from": "NBM-0523-S", "to": "NBM-0546-S", "weight": 660}, {"from": "MM-0109-S", "to": "MM-0150-S", "weight": 540}, {"from": "NBM-0374-01", "to": "FRS-0054-S", "weight": 660}, {"from": "NEC-2276-01", "to": "FB-0118-01", "weight": 900}, {"from": "FB-0118-01", "to": "FS-0049-S", "weight": 2400}, {"from": "WML-0274-01", "to": "WML-0340-01", "weight": 540}, {"from": "WML-0340-01", "to": "WML-0364-01", "weight": 360}, {"from": "WML-0364-01", "to": "WML-0442-CS", "weight": 1380}, {"from": "WML-0199-01", "to": "WML-0214-01", "weight": 300}, {"from": "WML-0214-01", "to": "WML-0252-01", "weight": 360}, {"from": "WML-0252-01", "to": "WML-0274-01", "weight": 300}, {"from": "WML-0442-CS", "to": "WML-0364-02", "weight": 720}, {"from": "WML-0364-02", "to": "WML-0340-02", "weight": 300}, {"from": "WML-0340-02", "to": "WML-0274-02", "weight": 540}, {"from": "WML-0274-02", "to": "WML-0252-02", "weight": 240}, {"from": "WML-0252-02", "to": "WML-0214-02", "weight": 600}, {"from": "WML-0214-02", "to": "WML-0199-02", "weight": 300}, {"from": "WML-0035-01", "to": "WML-0199-02", "weight": 1020}, {"from": "WML-0199-02", "to": "WML-0214-02", "weight": 300}, {"from": "WML-0214-02", "to": "WML-0252-01", "weight": 360}, {"from": "WML-0125-01", "to": "WML-0102-02", "weight": 300}, {"from": "WML-0214-02", "to": "WML-0035-02", "weight": 1020}, {"from": "WML-0035-01", "to": "WML-0199-01", "weight": 1020}, {"from": "WML-0214-02", "to": "WML-0199-01", "weight": 300}, {"from": "WML-0199-01", "to": "WML-0177-01", "weight": 300}, {"from": "WML-0177-01", "to": "WML-0147-01", "weight": 240}, {"from": "WML-0147-01", "to": "WML-0135-01", "weight": 180}, {"from": "WML-0135-01", "to": "WML-0125-01", "weight": 180}, {"from": "WML-0125-01", "to": "WML-0035-02", "weight": 600}, {"from": "WML-0102-02", "to": "WML-0125-02", "weight": 240}, {"from": "WML-0125-02", "to": "WML-0135-02", "weight": 180}, {"from": "WML-0135-02", "to": "WML-0147-02", "weight": 180}, {"from": "WML-0147-02", "to": "WML-0177-02", "weight": 240}, {"from": "WML-0177-02", "to": "WML-0199-02", "weight": 300}, {"from": "WML-0252-02", "to": "WML-0214-01", "weight": 600}, {"from": "WML-0214-01", "to": "WML-0199-01", "weight": 300}, {"from": "WML-0199-02", "to": "WML-0214-01", "weight": 540}, {"from": "MM-0109-S", "to": "NEC-2287", "weight": 1560}, {"from": "FRS-0054-S", "to": "NBM-0374-02", "weight": 840}, {"from": "NBM-0374-02", "to": "NBM-0523-S", "weight": 900}, {"from": "NBM-0523-S", "to": "NBM-0374-02", "weight": 1500}, {"from": "NEC-2237-03", "to": "NEC-2203-03", "weight": 300}, {"from": "FB-0166-S", "to": "FS-0049-S", "weight": 1260}, {"from": "FB-0095-04", "to": "FB-0109-01", "weight": 240}, {"from": "FS-0049-S", "to": "FB-0166-S", "weight": 780}, {"from": "NEC-2265-01", "to": "NEC-2203-03", "weight": 480}, {"from": "FS-0049-S", "to": "FB-0148-02", "weight": 900}, {"from": "DB-2205-02", "to": "NEC-2287", "weight": 1620}, {"from": "NEC-1969-03", "to": "NEC-1919-01", "weight": 660}, {"from": "NEC-1919-01", "to": "NEC-1891-01", "weight": 240}, {"from": "NEC-1851-03", "to": "NEC-1768-03", "weight": 840}, {"from": "NEC-1768-03", "to": "NEC-1659-03", "weight": 1200}, {"from": "NEC-2192-02", "to": "NEC-2265-02", "weight": 780}, {"from": "NEC-2265-01", "to": "NEC-2173-01", "weight": 660}, {"from": "NEC-2265-01", "to": "NEC-2108-01", "weight": 960}, {"from": "NEC-1659-03", "to": "NEC-1768-03", "weight": 840}, {"from": "NEC-1768-03", "to": "NEC-1851-03", "weight": 900}, {"from": "NEC-2173-02", "to": "NEC-2265-02", "weight": 900}, {"from": "SB-0189-S", "to": "SB-0156-S", "weight": 420}, {"from": "SB-0156-S", "to": "SB-0150-06", "weight": 180}, {"from": "SB-0150-06", "to": "NEC-2173-02", "weight": 300}, {"from": "NEC-2173-01", "to": "SB-0150-04", "weight": 360}, {"from": "SB-0150-04", "to": "SB-0156-S", "weight": 240}, {"from": "SB-0156-S", "to": "SB-0189-S", "weight": 660}, {"from": "NEC-2173-02", "to": "NEC-2203-02", "weight": 300}, {"from": "FB-0109-02", "to": "FB-0095-05", "weight": 240}, {"from": "FB-0095-05", "to": "NEC-2265-02", "weight": 780}, {"from": "NEC-2287", "to": "NEC-2276-03", "weight": 300}, {"from": "NEC-2276-03", "to": "NEC-2265-03", "weight": 240}, {"from": "NEC-2265-03", "to": "NEC-2203-03", "weight": 480}, {"from": "NEC-2203-03", "to": "NEC-2173-01", "weight": 300}, {"from": "FB-0095-05", "to": "NEC-2265-03", "weight": 660}, {"from": "NEC-2265-03", "to": "NEC-2237-03", "weight": 300}, {"from": "NEC-2203-03", "to": "NEC-2192-03", "weight": 180}]}