{"nodes": [{"id": "000008600718", "lat": 55.66683, "lon": 11.73871, "name": "Vipper\u00f8d St."}, {"id": "000008600719", "lat": 55.71575, "lon": 11.7086, "name": "Holb\u00e6k St."}, {"id": "000008600716", "lat": 55.59554, "lon": 11.85982, "name": "Hvals\u00f8 St."}, {"id": "000008600717", "lat": 55.61189, "lon": 11.7728, "name": "T\u00f8ll\u00f8se St."}, {"id": "000008600715", "lat": 55.6048, "lon": 11.9717, "name": "Lejre St."}, {"id": "000008600793", "lat": 55.24832, "lon": 11.78646, "name": "N\u00e6stved Nord St."}, {"id": "000008600792", "lat": 55.47975, "lon": 12.17576, "name": "\u00d8lby St."}, {"id": "000007400003", "lat": 55.60944, "lon": 13.00084, "name": "Malm\u00f6 C"}, {"id": "000008600646", "lat": 55.68345, "lon": 12.5718, "name": "N\u00f8rreport St."}, {"id": "000008601627", "lat": 56.07826, "lon": 12.51277, "name": "Skibstrup St."}, {"id": "000008601625", "lat": 56.07697, "lon": 12.48471, "name": "Saunte St."}, {"id": "000008601623", "lat": 56.04329, "lon": 12.60232, "name": "Marienlyst St."}, {"id": "000008601620", "lat": 56.08315, "lon": 12.46821, "name": "Karineb\u00e6k St."}, {"id": "000008601621", "lat": 56.09269, "lon": 12.4234, "name": "Kildekrog St."}, {"id": "000008603527", "lat": 55.75248, "lon": 11.45629, "name": "H\u00f8rve St."}, {"id": "000008603525", "lat": 55.91083, "lon": 11.60376, "name": "H\u00f8jby Sj St."}, {"id": "000008600508", "lat": 55.36619, "lon": 10.14133, "name": "Skalbjerg St."}, {"id": "000008600509", "lat": 55.34937, "lon": 10.18253, "name": "Tommerup St."}, {"id": "000008600506", "lat": 55.38294, "lon": 10.05122, "name": "Aarup St."}, {"id": "000008600507", "lat": 55.37311, "lon": 10.10561, "name": "Bred St."}, {"id": "000008600504", "lat": 55.4286, "lon": 9.92975, "name": "Ejby St."}, {"id": "000008600505", "lat": 55.39606, "lon": 9.97425, "name": "Gelsted St."}, {"id": "000008600502", "lat": 55.47594, "lon": 9.8111, "name": "Kauslunde St."}, {"id": "000008600503", "lat": 55.46025, "lon": 9.86987, "name": "N\u00f8rre Aaby St."}, {"id": "000008600501", "lat": 55.50198, "lon": 9.73404, "name": "Middelfart St."}, {"id": "000008601824", "lat": 57.58551, "lon": 9.97629, "name": "Lilleheden St."}, {"id": "000008600079", "lat": 55.56822, "lon": 9.74064, "name": "Fredericia St."}, {"id": "000008600076", "lat": 55.66651, "lon": 9.65928, "name": "Brejning St."}, {"id": "000008600077", "lat": 55.64202, "lon": 9.65194, "name": "B\u00f8rkop St."}, {"id": "000008600073", "lat": 55.70673, "lon": 9.53648, "name": "Vejle St."}, {"id": "000008600071", "lat": 55.76757, "lon": 9.69846, "name": "Hedensted St."}, {"id": "000008601053", "lat": 55.2834, "lon": 12.14288, "name": "Tokkerup St."}, {"id": "000008600436", "lat": 55.33972, "lon": 8.7761, "name": "Ribe N\u00f8rremark St."}, {"id": "000008600434", "lat": 54.93892, "lon": 8.86105, "name": "T\u00f8nder Nord St."}, {"id": "000008600432", "lat": 54.93327, "lon": 8.86096, "name": "T\u00f8nder St."}, {"id": "000008600430", "lat": 55.05697, "lon": 8.82357, "name": "Bredebro St."}, {"id": "000008600431", "lat": 55.0095, "lon": 8.80201, "name": "Visby St."}, {"id": "000008601417", "lat": 56.0595, "lon": 12.11713, "name": "Holl\u00f8se St."}, {"id": "000008601411", "lat": 56.02286, "lon": 12.20518, "name": "Helsinge St."}, {"id": "000008603317", "lat": 55.61939, "lon": 12.5753, "name": "Vestamager St. (Metro)"}, {"id": "000008603315", "lat": 55.62906, "lon": 12.57939, "name": "\u00d8restad St. (Metro)"}, {"id": "000008603312", "lat": 55.6452, "lon": 12.58573, "name": "Sundby St. (Metro)"}, {"id": "000008603313", "lat": 55.63805, "lon": 12.58293, "name": "Bella Center St. (Metro)"}, {"id": "000008603310", "lat": 55.66342, "lon": 12.58522, "name": "Islands Brygge St. (Metro)"}, {"id": "000008603311", "lat": 55.65581, "lon": 12.58899, "name": "DR Byen St. (Metro)"}, {"id": "000008601741", "lat": 55.9767, "lon": 11.91344, "name": "\u00d8sterbjerg St."}, {"id": "000008600228", "lat": 55.50952, "lon": 8.45735, "name": "Gjesing St."}, {"id": "000008600227", "lat": 55.49219, "lon": 8.46082, "name": "Spangsbjerg St."}, {"id": "000008600222", "lat": 55.4828, "lon": 9.01614, "name": "Br\u00f8rup St."}, {"id": "000008600223", "lat": 55.47594, "lon": 9.13618, "name": "Vejen St."}, {"id": "000008600220", "lat": 55.4697, "lon": 8.80072, "name": "G\u00f8rding St."}, {"id": "000008600221", "lat": 55.48493, "lon": 8.91445, "name": "Holsted St."}, {"id": "000008602623", "lat": 54.83325, "lon": 11.13819, "name": "Nakskov St."}, {"id": "000008600559", "lat": 55.35823, "lon": 10.39238, "name": "Hjallese St."}, {"id": "000008600555", "lat": 55.05571, "lon": 10.58187, "name": "Svendborg Vest St."}, {"id": "000008600551", "lat": 55.05931, "lon": 10.61179, "name": "Svendborg St."}, {"id": "000008604119", "lat": 57.59263, "lon": 10.40835, "name": "\u00c5lb\u00e6k St."}, {"id": "000008604117", "lat": 57.48988, "lon": 10.49041, "name": "Strandby St."}, {"id": "000008604115", "lat": 57.72391, "lon": 10.59209, "name": "Skagen St."}, {"id": "000008604113", "lat": 57.50502, "lon": 10.44498, "name": "Rimmen St."}, {"id": "000008604111", "lat": 57.55489, "lon": 10.40831, "name": "Napstjert St."}, {"id": "000008604818", "lat": 56.56563, "lon": 8.18811, "name": "Nejrup St."}, {"id": "000008604819", "lat": 56.4891, "lon": 8.21032, "name": "Ramme St."}, {"id": "000008604817", "lat": 56.54704, "lon": 8.29962, "name": "Lemvig St."}, {"id": "000008604814", "lat": 56.52945, "lon": 8.26573, "name": "Armose St."}, {"id": "000008604815", "lat": 56.56497, "lon": 8.22046, "name": "Klinkby St."}, {"id": "000008604813", "lat": 56.62118, "lon": 8.17983, "name": "Harbo\u00f8re St."}, {"id": "000008604811", "lat": 56.45402, "lon": 8.26166, "name": "F\u00e5re St."}, {"id": "000008600097", "lat": 54.93632, "lon": 9.25788, "name": "Tinglev St."}, {"id": "000008600015", "lat": 57.26968, "lon": 9.9432, "name": "Br\u00f8nderslev St."}, {"id": "000008600094", "lat": 55.0692, "lon": 9.33346, "name": "R\u00f8dekro St."}, {"id": "000008600013", "lat": 57.35458, "lon": 9.94266, "name": "Vr\u00e5 St."}, {"id": "000008600091", "lat": 55.24824, "lon": 9.30557, "name": "Vojens St."}, {"id": "000008604739", "lat": 55.65386, "lon": 8.29212, "name": "Vr\u00f8gum St."}, {"id": "000008604735", "lat": 55.6244, "lon": 8.47652, "name": "Varde Vest St."}, {"id": "000008600278", "lat": 56.03251, "lon": 8.85195, "name": "Kib\u00e6k St."}, {"id": "000008600279", "lat": 55.99087, "lon": 8.74507, "name": "Troldhede St."}, {"id": "000008600274", "lat": 56.13171, "lon": 9.06291, "name": "Hammerum St."}, {"id": "000008600275", "lat": 56.13333, "lon": 8.97786, "name": "Herning St."}, {"id": "000008600273", "lat": 56.14481, "lon": 9.15434, "name": "Ikast St."}, {"id": "000008600270", "lat": 56.16791, "lon": 9.35132, "name": "Engesvang St."}, {"id": "000008600271", "lat": 56.14688, "lon": 9.27822, "name": "Bording St."}, {"id": "000008600907", "lat": 55.35241, "lon": 12.27996, "name": "Varpelev St."}, {"id": "000008601617", "lat": 56.0472, "lon": 12.59409, "name": "H\u00f8jstrup St."}, {"id": "000008600904", "lat": 55.37234, "lon": 12.21579, "name": "Himling\u00f8je St."}, {"id": "000008601615", "lat": 56.08991, "lon": 12.43515, "name": "Horneby Sand St."}, {"id": "000008600902", "lat": 55.40032, "lon": 12.19196, "name": "Vall\u00f8 St."}, {"id": "000008600903", "lat": 55.37995, "lon": 12.20204, "name": "Grubberholm St."}, {"id": "000008601613", "lat": 56.08922, "lon": 12.45942, "name": "Hornb\u00e6k St."}, {"id": "000008600901", "lat": 55.42373, "lon": 12.19004, "name": "Eg\u00f8je St."}, {"id": "000008603517", "lat": 55.80283, "lon": 11.55118, "name": "Grevinge St."}, {"id": "000008603515", "lat": 55.72961, "lon": 11.54684, "name": "Gislinge St."}, {"id": "000008603513", "lat": 55.78798, "lon": 11.46955, "name": "F\u00e5revejle St."}, {"id": "000008601813", "lat": 57.5592, "lon": 9.97236, "name": "Horne St."}, {"id": "000008600066", "lat": 55.86276, "lon": 9.83654, "name": "Horsens St."}, {"id": "000008600061", "lat": 56.04337, "lon": 9.92536, "name": "Skanderborg St."}, {"id": "000008601045", "lat": 55.30929, "lon": 12.38581, "name": "St. Heddinge St."}, {"id": "000008600428", "lat": 55.11758, "lon": 8.80776, "name": "D\u00f8strup St. (S\u00f8nderjylland)"}, {"id": "000008600426", "lat": 55.19469, "lon": 8.74091, "name": "Br\u00f8ns St."}, {"id": "000008600427", "lat": 55.15882, "lon": 8.77119, "name": "Sk\u00e6rb\u00e6k St."}, {"id": "000008600424", "lat": 55.2746, "lon": 8.73021, "name": "Hviding St."}, {"id": "000008600425", "lat": 55.23042, "lon": 8.73196, "name": "Rejsby St."}, {"id": "000008600423", "lat": 55.32767, "lon": 8.77009, "name": "Ribe St."}, {"id": "000008600420", "lat": 55.43522, "lon": 8.73345, "name": "Sejstrup St."}, {"id": "000008600421", "lat": 55.39752, "lon": 8.74115, "name": "Gredstedbro St."}, {"id": "000008601409", "lat": 56.07289, "lon": 12.28659, "name": "Gr\u00e6sted St."}, {"id": "000008601407", "lat": 55.98742, "lon": 12.30178, "name": "Gribs\u00f8 St."}, {"id": "000008601405", "lat": 56.05988, "lon": 12.09769, "name": "Godhavn St."}, {"id": "000008601402", "lat": 56.11633, "lon": 12.29835, "name": "Fjellenstrup St."}, {"id": "000008601403", "lat": 56.12356, "lon": 12.30279, "name": "Gilleleje St."}, {"id": "000008601401", "lat": 56.00972, "lon": 12.26262, "name": "Duemose St."}, {"id": "000008603308", "lat": 55.67918, "lon": 12.58523, "name": "Kongens Nytorv St. (Metro)"}, {"id": "000008603309", "lat": 55.67205, "lon": 12.59139, "name": "Christianshavn St. (Metro)"}, {"id": "000008603306", "lat": 55.68182, "lon": 12.55243, "name": "Forum St. (Metro)"}, {"id": "000008603307", "lat": 55.68384, "lon": 12.57104, "name": "N\u00f8rreport St. (Metro)"}, {"id": "000008603304", "lat": 55.68167, "lon": 12.5231, "name": "Fasanvej St. (Metro)"}, {"id": "000008603305", "lat": 55.68122, "lon": 12.53172, "name": "Frederiksberg St. (Metro)"}, {"id": "000008603302", "lat": 55.68587, "lon": 12.49953, "name": "Flintholm St. (Metro)"}, {"id": "000008603303", "lat": 55.68348, "lon": 12.51287, "name": "Lindevang St. (Metro)"}, {"id": "000008603301", "lat": 55.6873, "lon": 12.49166, "name": "Vanl\u00f8se St. (Metro)"}, {"id": "000008600755", "lat": 55.64793, "lon": 12.13228, "name": "Trekroner St."}, {"id": "000008601739", "lat": 55.92308, "lon": 12.07302, "name": "\u00d8lsted St."}, {"id": "000008601737", "lat": 55.96025, "lon": 11.87314, "name": "Vibehus St."}, {"id": "000008601733", "lat": 55.90756, "lon": 12.14924, "name": "Sk\u00e6vinge St."}, {"id": "000008600218", "lat": 55.46639, "lon": 8.57937, "name": "Tj\u00e6reborg St."}, {"id": "000008600219", "lat": 55.46477, "lon": 8.7068, "name": "Bramming St."}, {"id": "000008600298", "lat": 56.19826, "lon": 8.76865, "name": "Vildbjerg St."}, {"id": "000008600214", "lat": 55.53604, "lon": 8.44017, "name": "Guldager St."}, {"id": "000008600215", "lat": 55.46792, "lon": 8.45819, "name": "Esbjerg St."}, {"id": "000008600212", "lat": 55.61618, "lon": 8.48424, "name": "Varde St."}, {"id": "000008600213", "lat": 55.63132, "lon": 8.50029, "name": "Varde Nord St."}, {"id": "000008600210", "lat": 55.7167, "lon": 8.59835, "name": "Tistrup St."}, {"id": "000008600291", "lat": 55.94457, "lon": 9.12961, "name": "Brande St."}, {"id": "000008600211", "lat": 55.66578, "lon": 8.57684, "name": "Sig St."}, {"id": "000008600290", "lat": 55.9087, "lon": 9.25248, "name": "Thyregod St."}, {"id": "000008602619", "lat": 54.77664, "lon": 11.50167, "name": "Maribo St."}, {"id": "000008603565", "lat": 55.85236, "lon": 11.58194, "name": "Vig St."}, {"id": "000008604109", "lat": 57.53244, "lon": 10.4173, "name": "Jerup St."}, {"id": "000008604105", "lat": 57.65957, "lon": 10.46305, "name": "Hulsig St."}, {"id": "000008604102", "lat": 57.62986, "lon": 10.43923, "name": "Bunken St."}, {"id": "000008604103", "lat": 57.72466, "lon": 10.56381, "name": "Frederikshavnsvej St."}, {"id": "000008604807", "lat": 56.41222, "lon": 8.30809, "name": "B\u00e6kmarksbro St."}, {"id": "000008604805", "lat": 56.52101, "lon": 8.22265, "name": "Bonnet St."}, {"id": "000008604803", "lat": 56.54758, "lon": 8.24092, "name": "Balleby St."}, {"id": "000008604801", "lat": 56.39128, "lon": 8.32938, "name": "Amstrup St."}, {"id": "000008600009", "lat": 57.45648, "lon": 9.98539, "name": "Hj\u00f8rring St."}, {"id": "000008600006", "lat": 57.48566, "lon": 10.31165, "name": "Tolne St."}, {"id": "000008600087", "lat": 55.42822, "lon": 9.2864, "name": "Vamdrup St."}, {"id": "000008600007", "lat": 57.47019, "lon": 10.20241, "name": "Sindal St."}, {"id": "000008600086", "lat": 55.47998, "lon": 9.30337, "name": "Lunderskov St."}, {"id": "000008600005", "lat": 57.472, "lon": 10.41257, "name": "Kvissel St."}, {"id": "000008600083", "lat": 55.49083, "lon": 9.4811, "name": "Kolding St."}, {"id": "000008600081", "lat": 55.54512, "lon": 9.61576, "name": "Taulov St."}, {"id": "000008600001", "lat": 57.44123, "lon": 10.54, "name": "Frederikshavn St."}, {"id": "000008604726", "lat": 55.62592, "lon": 8.28359, "name": "Oksb\u00f8l St."}, {"id": "000008604727", "lat": 55.71728, "lon": 8.34434, "name": "Outrup St."}, {"id": "000008604725", "lat": 55.77743, "lon": 8.29046, "name": "N\u00f8rre Nebel St."}, {"id": "000008604720", "lat": 55.72973, "lon": 8.3533, "name": "L\u00f8ftg\u00e5rd St."}, {"id": "000008600269", "lat": 56.12538, "lon": 9.02995, "name": "Birk Centerpark St."}, {"id": "000008600266", "lat": 56.16418, "lon": 9.54416, "name": "Silkeborg St."}, {"id": "000008600264", "lat": 56.1329, "lon": 9.63623, "name": "Svejb\u00e6k St."}, {"id": "000008600263", "lat": 56.12485, "lon": 9.7179, "name": "Laven St."}, {"id": "000008600260", "lat": 56.05256, "lon": 9.84512, "name": "Alken St."}, {"id": "000008600261", "lat": 56.09108, "lon": 9.75845, "name": "Ry St."}, {"id": "000008600626", "lat": 55.67306, "lon": 12.56556, "name": "K\u00f8benhavn H"}, {"id": "000008600624", "lat": 55.664, "lon": 12.51445, "name": "Valby St."}, {"id": "000008600622", "lat": 55.66315, "lon": 12.39783, "name": "Glostrup St."}, {"id": "000008601606", "lat": 56.04035, "lon": 12.61091, "name": "Gr\u00f8nnehave St. (Helsing\u00f8r)"}, {"id": "000008601607", "lat": 56.06666, "lon": 12.55398, "name": "Helleb\u00e6k St."}, {"id": "000008601604", "lat": 56.12268, "lon": 12.30902, "name": "Gilleleje \u00d8st St."}, {"id": "000008601603", "lat": 56.09824, "lon": 12.35589, "name": "Firh\u00f8j St. (Gilleleje)"}, {"id": "000008601601", "lat": 56.09778, "lon": 12.38696, "name": "Dronningm\u00f8lle St."}, {"id": "000008602523", "lat": 55.53247, "lon": 11.5472, "name": "Vedde St."}, {"id": "000008603505", "lat": 55.80869, "lon": 11.50021, "name": "Asn\u00e6s St."}, {"id": "000008600824", "lat": 54.76708, "lon": 11.87737, "name": "Nyk\u00f8bing F St."}, {"id": "000008600822", "lat": 54.85593, "lon": 11.88552, "name": "Eskilstrup St."}, {"id": "000008600821", "lat": 54.89659, "lon": 11.88558, "name": "N\u00f8rre Alslev St."}, {"id": "000008601802", "lat": 57.4733, "lon": 9.96581, "name": "Herreg\u00e5rdsparken St."}, {"id": "000008601803", "lat": 57.59178, "lon": 9.96222, "name": "Hirtshals St."}, {"id": "000008601801", "lat": 57.57198, "lon": 9.97747, "name": "Emmersb\u00e6k St."}, {"id": "000008600059", "lat": 56.08205, "lon": 10.03779, "name": "H\u00f8rning St."}, {"id": "000008600054", "lat": 56.12235, "lon": 10.16095, "name": "Viby Jylland St."}, {"id": "000008600053", "lat": 56.15044, "lon": 10.20476, "name": "Aarhus H"}, {"id": "000008601039", "lat": 55.25484, "lon": 12.37864, "name": "R\u00f8dvig St."}, {"id": "000008601729", "lat": 55.9916, "lon": 11.97142, "name": "Melby St."}, {"id": "000008601725", "lat": 55.9463, "lon": 12.03467, "name": "Lille Kregme St."}, {"id": "000008601723", "lat": 55.9345, "lon": 12.04755, "name": "Kregme St."}, {"id": "000008601721", "lat": 55.96357, "lon": 11.85255, "name": "Hundested St."}, {"id": "000008600208", "lat": 55.81099, "lon": 8.62251, "name": "\u00d8lgod St."}, {"id": "000008600289", "lat": 55.84312, "lon": 9.23603, "name": "Give St."}, {"id": "000008600209", "lat": 55.76535, "lon": 8.6114, "name": "G\u00e5rde St."}, {"id": "000008600206", "lat": 55.9099, "lon": 8.52021, "name": "Tarm St."}, {"id": "000008600285", "lat": 55.75423, "lon": 9.42009, "name": "Jelling St."}, {"id": "000008600205", "lat": 55.94758, "lon": 8.4923, "name": "Skjern St."}, {"id": "000008600203", "lat": 56.02494, "lon": 8.38574, "name": "Lem St."}, {"id": "000008600200", "lat": 56.09291, "lon": 8.24981, "name": "Ringk\u00f8bing St."}, {"id": "000008600281", "lat": 55.7148, "lon": 9.53701, "name": "Vejle Sygehus St."}, {"id": "000008600280", "lat": 55.95854, "lon": 8.64417, "name": "Borris St."}, {"id": "000008600674", "lat": 55.76162, "lon": 12.52156, "name": "J\u00e6gersborg St."}, {"id": "000008602604", "lat": 54.75991, "lon": 11.83636, "name": "\u00d8ster Toreby St."}, {"id": "000008602605", "lat": 54.77399, "lon": 11.76518, "name": "Gr\u00e6nge St."}, {"id": "000008602601", "lat": 54.82904, "lon": 11.21522, "name": "Avnede St."}, {"id": "000008600176", "lat": 56.4474, "lon": 9.39843, "name": "Viborg St."}, {"id": "000008600174", "lat": 56.35265, "lon": 9.49993, "name": "R\u00f8dk\u00e6rsbro St."}, {"id": "000008600172", "lat": 56.37423, "lon": 9.65795, "name": "Bjerringbro St."}, {"id": "000008600171", "lat": 56.39564, "lon": 9.7932, "name": "Ulstrup St."}, {"id": "000008603559", "lat": 55.7234, "lon": 11.46716, "name": "Svinninge St."}, {"id": "000008603557", "lat": 55.71548, "lon": 11.68778, "name": "Stenhus St."}, {"id": "000008603555", "lat": 55.8983, "lon": 11.60369, "name": "Sommerland Sj."}, {"id": "000008603550", "lat": 55.92202, "lon": 11.65532, "name": "Nyled St."}, {"id": "000008600533", "lat": 55.36969, "lon": 10.37769, "name": "Fruens B\u00f8ge St."}, {"id": "000008603013", "lat": 55.79958, "lon": 12.50896, "name": "\u00d8rholm St."}, {"id": "000008603011", "lat": 55.80208, "lon": 12.51993, "name": "Ravnholm St."}, {"id": "000008601443", "lat": 56.05572, "lon": 12.16255, "name": "\u00d8rby St."}, {"id": "000008600327", "lat": 54.91202, "lon": 9.77916, "name": "S\u00f8nderborg St."}, {"id": "000008600322", "lat": 54.91905, "lon": 9.59398, "name": "Gr\u00e5sten St."}, {"id": "000008604718", "lat": 55.66459, "lon": 8.30163, "name": "Jegum St."}, {"id": "000008604719", "lat": 55.75609, "lon": 8.36421, "name": "Lunde J St."}, {"id": "000008604717", "lat": 55.6229, "lon": 8.37381, "name": "Janderup St."}, {"id": "000008604715", "lat": 55.62636, "lon": 8.40104, "name": "Hyllerslev St."}, {"id": "000008604711", "lat": 55.71041, "lon": 8.30426, "name": "Henne St."}, {"id": "000008600619", "lat": 55.64899, "lon": 12.19731, "name": "Hedehusene St."}, {"id": "000008600617", "lat": 55.63909, "lon": 12.08855, "name": "Roskilde St."}, {"id": "000008600614", "lat": 55.49462, "lon": 11.97251, "name": "Borup St."}, {"id": "000008600615", "lat": 55.54961, "lon": 12.02449, "name": "Viby Sj\u00e6lland St."}, {"id": "000008600611", "lat": 55.43839, "lon": 11.78638, "name": "Ringsted St."}, {"id": "000008600199", "lat": 56.14381, "lon": 8.28643, "name": "Hee St."}, {"id": "000008600198", "lat": 56.19517, "lon": 8.30544, "name": "Tim St."}, {"id": "000008600116", "lat": 57.06674, "lon": 9.9045, "name": "Lindholm St."}, {"id": "000008600197", "lat": 56.27166, "lon": 8.32482, "name": "Ulfborg St."}, {"id": "000008600117", "lat": 57.05328, "lon": 9.90864, "name": "Aalborg Vestby St."}, {"id": "000008600196", "lat": 56.34373, "lon": 8.34494, "name": "Vemb St."}, {"id": "000008600195", "lat": 56.36765, "lon": 8.42597, "name": "Bur St."}, {"id": "000008600192", "lat": 56.36531, "lon": 8.6209, "name": "Holstebro St."}, {"id": "000008600191", "lat": 56.43874, "lon": 8.63986, "name": "Hjerm St."}, {"id": "000008602519", "lat": 55.54498, "lon": 11.71139, "name": "St. Merl\u00f8se St."}, {"id": "000008602517", "lat": 55.53905, "lon": 11.59121, "name": "Stenlille St."}, {"id": "000008602515", "lat": 55.53797, "lon": 11.44867, "name": "Skellebjerg St."}, {"id": "000008602513", "lat": 55.5399, "lon": 11.37486, "name": "Ruds Vedby St."}, {"id": "000008600816", "lat": 55.01258, "lon": 11.90015, "name": "Vordingborg St."}, {"id": "000008600814", "lat": 55.11059, "lon": 11.86926, "name": "Lundby St."}, {"id": "000008600810", "lat": 55.23124, "lon": 11.76705, "name": "N\u00e6stved St."}, {"id": "000008600048", "lat": 56.26308, "lon": 10.06007, "name": "Hinnerup St."}, {"id": "000008600047", "lat": 56.3275, "lon": 10.04724, "name": "Hadsten St."}, {"id": "000008600044", "lat": 56.38639, "lon": 9.89615, "name": "Lang\u00e5 St."}, {"id": "000008600040", "lat": 56.46186, "lon": 10.02201, "name": "Randers St."}, {"id": "000008601027", "lat": 55.34615, "lon": 12.32562, "name": "Klippinge St."}, {"id": "000008601025", "lat": 55.30692, "lon": 12.19573, "name": "Karise St."}, {"id": "000008600404", "lat": 56.95289, "lon": 8.68805, "name": "Thisted St."}, {"id": "000008600403", "lat": 56.95159, "lon": 8.5876, "name": "Sj\u00f8rring St."}, {"id": "000008600400", "lat": 56.85081, "lon": 8.49069, "name": "H\u00f8rdum St."}, {"id": "000008600401", "lat": 56.89234, "lon": 8.5268, "name": "Snedsted St."}, {"id": "000008601715", "lat": 55.97494, "lon": 12.00143, "name": "Hanehoved St."}, {"id": "000008601713", "lat": 55.88679, "lon": 12.20241, "name": "G\u00f8rl\u00f8se St."}, {"id": "000008601711", "lat": 55.91565, "lon": 12.10203, "name": "Grimstrup St."}, {"id": "000008600668", "lat": 56.00924, "lon": 12.58388, "name": "Snekkersten St."}, {"id": "000008600669", "lat": 56.03362, "lon": 12.61417, "name": "Helsing\u00f8r St."}, {"id": "000008600666", "lat": 55.96374, "lon": 12.53341, "name": "Humleb\u00e6k St."}, {"id": "000008600667", "lat": 55.9958, "lon": 12.54938, "name": "Esperg\u00e6rde St."}, {"id": "000008600664", "lat": 55.90349, "lon": 12.50206, "name": "Kokkedal St."}, {"id": "000008600665", "lat": 55.93334, "lon": 12.50658, "name": "Niv\u00e5 St."}, {"id": "000008600662", "lat": 55.8529, "lon": 12.56302, "name": "Vedb\u00e6k St."}, {"id": "000008600663", "lat": 55.88223, "lon": 12.53148, "name": "Rungsted Kyst St."}, {"id": "000008600661", "lat": 55.82353, "lon": 12.57129, "name": "Skodsborg St."}, {"id": "000008603547", "lat": 55.88303, "lon": 11.60649, "name": "Nr. Asmindrup St."}, {"id": "000008603545", "lat": 55.9215, "lon": 11.6725, "name": "Nyk\u00f8bing Sj St."}, {"id": "000008603543", "lat": 55.72879, "lon": 11.59383, "name": "Ny Hagested St."}, {"id": "000008600526", "lat": 55.3814, "lon": 10.36669, "name": "Odense Sygehus St."}, {"id": "000008601842", "lat": 57.48023, "lon": 9.9688, "name": "Vellingsh\u00f8j St."}, {"id": "000008601843", "lat": 57.50096, "lon": 9.94772, "name": "Vidstrup St."}, {"id": "000008603009", "lat": 55.81393, "lon": 12.52832, "name": "N\u00e6rum St."}, {"id": "000008603007", "lat": 55.7739, "lon": 12.50549, "name": "Lyngby Lokal St."}, {"id": "000008603003", "lat": 55.78445, "lon": 12.49709, "name": "Fuglevad St."}, {"id": "000008603001", "lat": 55.7938, "lon": 12.50074, "name": "Brede St."}, {"id": "000008601439", "lat": 56.06268, "lon": 12.13632, "name": "Vejby St."}, {"id": "000008601437", "lat": 56.05924, "lon": 12.07772, "name": "Tisvildeleje St."}, {"id": "000008601433", "lat": 55.94178, "lon": 12.31124, "name": "Slotspavillonen St."}, {"id": "000008601431", "lat": 56.05448, "lon": 12.32181, "name": "Saltrup St."}, {"id": "000008600318", "lat": 54.93522, "lon": 9.39848, "name": "Kliplev St."}, {"id": "000008600398", "lat": 56.80665, "lon": 8.40751, "name": "Bedsted Thy St."}, {"id": "000008600397", "lat": 56.75119, "lon": 8.41767, "name": "Hurup Thy St."}, {"id": "000008600396", "lat": 56.71449, "lon": 8.39856, "name": "Ydby St."}, {"id": "000008600395", "lat": 56.66451, "lon": 8.45059, "name": "Lyngs St."}, {"id": "000008600394", "lat": 56.65005, "lon": 8.52641, "name": "Hvidbjerg St."}, {"id": "000008600393", "lat": 56.61224, "lon": 8.54111, "name": "Uglev St."}, {"id": "000008600392", "lat": 56.58259, "lon": 8.54684, "name": "Oddesund Nord St."}, {"id": "000008600390", "lat": 56.54107, "lon": 8.55275, "name": "Humlum St."}, {"id": "000008604706", "lat": 55.62755, "lon": 8.48717, "name": "Frisvadvej St."}, {"id": "000008604704", "lat": 55.69979, "lon": 8.29817, "name": "Dyreby St."}, {"id": "000008604702", "lat": 55.6238, "lon": 8.46044, "name": "Boulevarden St."}, {"id": "000008604701", "lat": 55.61707, "lon": 8.33121, "name": "Billum St."}, {"id": "000008600249", "lat": 55.61199, "lon": 8.47234, "name": "Varde Kaserne St."}, {"id": "000008602645", "lat": 54.81096, "lon": 11.27016, "name": "S\u00f8llested St."}, {"id": "000008602641", "lat": 54.79673, "lon": 11.6354, "name": "Saksk\u00f8bing St."}, {"id": "000008600608", "lat": 55.41935, "lon": 11.56925, "name": "Sor\u00f8 St."}, {"id": "000008600686", "lat": 55.99036, "lon": 12.50297, "name": "Kvistg\u00e5rd St."}, {"id": "000008600685", "lat": 55.97725, "lon": 12.40689, "name": "Fredensborg St."}, {"id": "000008600605", "lat": 55.40731, "lon": 11.349, "name": "Slagelse St."}, {"id": "000008600683", "lat": 55.92692, "lon": 12.31093, "name": "Hiller\u00f8d St."}, {"id": "000008600601", "lat": 55.35688, "lon": 11.13533, "name": "Kors\u00f8r St."}, {"id": "000008600189", "lat": 56.49138, "lon": 8.60188, "name": "Struer St."}, {"id": "000008600187", "lat": 56.48267, "lon": 8.78181, "name": "Vinderup St."}, {"id": "000008600183", "lat": 56.56168, "lon": 9.02577, "name": "Skive St."}, {"id": "000008600182", "lat": 56.54932, "lon": 9.11034, "name": "H\u00f8jslev St."}, {"id": "000008600100", "lat": 54.82299, "lon": 9.35975, "name": "Padborg St."}, {"id": "000008600180", "lat": 56.48737, "lon": 9.15006, "name": "Stoholm St."}, {"id": "000008602509", "lat": 55.54233, "lon": 11.65225, "name": "Nyrup St."}, {"id": "000008602506", "lat": 55.5442, "lon": 11.68399, "name": "Bagmarken St."}, {"id": "000008602505", "lat": 55.57391, "lon": 11.76506, "name": "Kr. Eskilstrup St."}, {"id": "000008602503", "lat": 55.50676, "lon": 11.28588, "name": "H\u00f8ng St."}, {"id": "000008602501", "lat": 55.53389, "lon": 11.50024, "name": "Dianalund St."}, {"id": "000008600809", "lat": 55.26095, "lon": 11.84874, "name": "Holme-Olstrup St."}, {"id": "000008600806", "lat": 55.37323, "lon": 12.07607, "name": "Tureby St."}, {"id": "000008600807", "lat": 55.32937, "lon": 11.96104, "name": "Haslev St."}, {"id": "000008600805", "lat": 55.41771, "lon": 12.13725, "name": "Herf\u00f8lge St."}, {"id": "000008600802", "lat": 55.51138, "lon": 12.1403, "name": "Lille Skensved St."}, {"id": "000008600803", "lat": 55.45755, "lon": 12.18633, "name": "K\u00f8ge St."}, {"id": "000008600800", "lat": 55.57276, "lon": 12.09949, "name": "Gadstrup St."}, {"id": "000008600801", "lat": 55.54345, "lon": 12.11705, "name": "Havdrup St."}, {"id": "000008600032", "lat": 56.64354, "lon": 9.78279, "name": "Hobro St."}, {"id": "000008601014", "lat": 55.2421, "lon": 12.13695, "name": "Faxe Syd St."}, {"id": "000008601013", "lat": 55.21699, "lon": 12.16218, "name": "Faxe Ladeplads St."}, {"id": "000008600727", "lat": 55.67785, "lon": 11.08906, "name": "Kalundborg St."}, {"id": "000008600724", "lat": 55.6522, "lon": 11.29158, "name": "Sveb\u00f8lle St."}, {"id": "000008600722", "lat": 55.65449, "lon": 11.50185, "name": "M\u00f8rk\u00f8v St."}, {"id": "000008600723", "lat": 55.66026, "lon": 11.39803, "name": "Jyderup St."}, {"id": "000008600720", "lat": 55.67755, "lon": 11.61264, "name": "Regstrup St."}, {"id": "000008600721", "lat": 55.6649, "lon": 11.55367, "name": "Knabstrup St."}, {"id": "000008601709", "lat": 55.96814, "lon": 12.01961, "name": "Frederiksv\u00e6rk St."}, {"id": "000008601707", "lat": 55.98514, "lon": 11.94212, "name": "Dyssekilde St."}, {"id": "000008601705", "lat": 55.89335, "lon": 12.27933, "name": "Br\u00f8deskov St."}, {"id": "000008600659", "lat": 55.77745, "lon": 12.58773, "name": "Klampenborg St."}, {"id": "000008600655", "lat": 55.73102, "lon": 12.56766, "name": "Hellerup St."}, {"id": "000008600650", "lat": 55.6925, "lon": 12.58779, "name": "\u00d8sterport St."}, {"id": "000008601633", "lat": 56.07514, "lon": 12.53865, "name": "\u00c5lsg\u00e5rde St."}, {"id": "000008601630", "lat": 56.11231, "lon": 12.31877, "name": "St\u00e6remosen St."}, {"id": "000008601631", "lat": 56.10049, "lon": 12.33379, "name": "S\u00f8borg St. (Gilleleje)"}, {"id": "000008600518", "lat": 55.31389, "lon": 10.80258, "name": "Nyborg St."}, {"id": "000008600512", "lat": 55.40178, "lon": 10.38674, "name": "Odense St."}, {"id": "000008600511", "lat": 55.36206, "lon": 10.27215, "name": "Holmstrup St."}, {"id": "000008600858", "lat": 55.62944, "lon": 12.64917, "name": "CPH Lufthavn"}, {"id": "000008600856", "lat": 55.62843, "lon": 12.57878, "name": "\u00d8restad St."}, {"id": "000008600857", "lat": 55.62986, "lon": 12.60209, "name": "T\u00e5rnby St."}, {"id": "000008601839", "lat": 57.53385, "lon": 9.94939, "name": "Tornby St."}, {"id": "000008601836", "lat": 57.45961, "lon": 9.96355, "name": "Teglg\u00e5rdsvej St."}, {"id": "000008601428", "lat": 56.06317, "lon": 12.2955, "name": "Gr\u00e6sted Syd St."}, {"id": "000008601429", "lat": 56.10101, "lon": 12.3015, "name": "P\u00e5rup St."}, {"id": "000008601427", "lat": 56.03073, "lon": 12.31702, "name": "M\u00e5rum (Gr\u00e6sted-Gilleleje) St."}, {"id": "000008601425", "lat": 56.0392, "lon": 12.18299, "name": "Laug\u00f8 St."}, {"id": "000008601421", "lat": 55.99758, "lon": 12.28583, "name": "Kagerup St. (Hiller\u00f8d)"}, {"id": "000008603322", "lat": 55.6621, "lon": 12.61642, "name": "Lergravsparken St. (Metro)"}, {"id": "000008603321", "lat": 55.66333, "lon": 12.60293, "name": "Amagerbro St. (Metro)"}, {"id": "000008600300", "lat": 56.2652, "lon": 8.7886, "name": "Aulum St."}, {"id": "000008600778", "lat": 55.98123, "lon": 12.45116, "name": "Langer\u00f8d St."}, {"id": "000008600779", "lat": 56.00213, "lon": 12.53244, "name": "M\u00f8rdrup St."}, {"id": "000008600777", "lat": 55.95296, "lon": 12.3697, "name": "Gr\u00f8nholt St."}, {"id": "000008600773", "lat": 55.35353, "lon": 11.6953, "name": "Glums\u00f8 St."}, {"id": "000008602635", "lat": 54.78512, "lon": 11.37263, "name": "Ryde St."}, {"id": "000008600566", "lat": 55.13176, "lon": 10.50889, "name": "Stenstrup St."}, {"id": "000008600567", "lat": 55.12039, "lon": 10.51506, "name": "Stenstrup Syd St."}, {"id": "000008600564", "lat": 55.19868, "lon": 10.48697, "name": "Rudme St."}, {"id": "000008600565", "lat": 55.17771, "lon": 10.51929, "name": "Kv\u00e6rndrup St."}, {"id": "000008600562", "lat": 55.28338, "lon": 10.48607, "name": "Pederstrup St."}, {"id": "000008600563", "lat": 55.23914, "lon": 10.48158, "name": "Ringe St."}, {"id": "000008600560", "lat": 55.33019, "lon": 10.43429, "name": "H\u00f8jby Fyn St."}, {"id": "000008600561", "lat": 55.3013, "lon": 10.46611, "name": "\u00c5rslev St."}, {"id": "000008604828", "lat": 56.57731, "lon": 8.14324, "name": "Victoria Street Station"}, {"id": "000008604829", "lat": 56.60167, "lon": 8.14834, "name": "Vrist St."}, {"id": "000008604824", "lat": 56.69858, "lon": 8.20671, "name": "Thybor\u00f8n Kirke St."}, {"id": "000008604822", "lat": 56.43766, "lon": 8.2841, "name": "Sinkb\u00e6k St."}, {"id": "000008604823", "lat": 56.56897, "lon": 8.16081, "name": "Strande St."}, {"id": "000008604821", "lat": 56.65666, "lon": 8.19482, "name": "R\u00f8nland St."}, {"id": "000008600029", "lat": 56.76973, "lon": 9.85992, "name": "Arden St."}, {"id": "000008600026", "lat": 56.89097, "lon": 9.84393, "name": "St\u00f8vring St."}, {"id": "000008600027", "lat": 56.83572, "lon": 9.88737, "name": "Sk\u00f8rping St."}, {"id": "000008600022", "lat": 57.00837, "lon": 9.89837, "name": "Skalborg St."}, {"id": "000008600023", "lat": 56.97309, "lon": 9.8563, "name": "Svenstrup St. (Jylland)"}, {"id": "000008600020", "lat": 57.04303, "lon": 9.91704, "name": "Aalborg St."}, {"id": "000008600798", "lat": 55.64887, "lon": 12.26958, "name": "H\u00f8je Taastrup St."}, {"id": "000008600277", "lat": 56.09141, "lon": 8.91, "name": "Studsg\u00e5rd St."}, {"id": "000008604825", "lat": 56.70408, "lon": 8.21455, "name": "Thybor\u00f8n St."}, {"id": "000008600905", "lat": 55.35158, "lon": 12.22739, "name": "H\u00e5rlev St."}, {"id": "000008604736", "lat": 55.63582, "lon": 8.28301, "name": "Baunh\u00f8j St."}, {"id": "000008600783", "lat": 55.65263, "lon": 12.51685, "name": "Ny Ellebjerg St."}, {"id": "000008600276", "lat": 56.12373, "lon": 8.94476, "name": "Herning Messecenter St."}, {"id": "000008601722", "lat": 55.9658, "lon": 11.84628, "name": "Hundested Havn St."}, {"id": "000008601819", "lat": 57.45451, "lon": 9.97578, "name": "Kv\u00e6gtorvet St."}, {"id": "000008603323", "lat": 55.6617, "lon": 12.62845, "name": "\u00d8resund St. (Metro)"}, {"id": "000008603324", "lat": 55.65652, "lon": 12.63158, "name": "Amager Strand St. (Metro)"}, {"id": "000008603326", "lat": 55.64535, "lon": 12.63832, "name": "Fem\u00f8ren St. (Metro)"}, {"id": "000008603327", "lat": 55.63575, "lon": 12.64673, "name": "Kastrup St. (Metro)"}, {"id": "000008603328", "lat": 55.63014, "lon": 12.64939, "name": "Lufthavnen St. (Metro)"}, {"id": "000008600684", "lat": 55.96808, "lon": 12.39281, "name": "Kratbjerg St."}, {"id": "000008005784", "lat": 54.87097, "lon": 8.8893, "name": "S\u00fcderl\u00fcgum St."}, {"id": "000008025670", "lat": 54.78945, "lon": 8.83477, "name": "Nieb\u00fcll St."}, {"id": "000008088761", "lat": 54.83842, "lon": 8.86267, "name": "Uphusum St."}, {"id": "000007401585", "lat": 55.56273, "lon": 12.97584, "name": "Hyllie St. (Malm\u00f6 Arena)"}, {"id": "000007401586", "lat": 55.59448, "lon": 13.00043, "name": "Triangeln St."}, {"id": "000008600906", "lat": 55.33631, "lon": 12.21921, "name": "Li.Linde St."}, {"id": "000008603010", "lat": 55.77054, "lon": 12.51302, "name": "N\u00f8rgaardsvej St."}, {"id": "000008604831", "lat": 56.69275, "lon": 8.20948, "name": "Sprog\u00f8vej St."}, {"id": "000008020400", "lat": 53.5525, "lon": 10.00666, "name": "Hamburg Hbf"}, {"id": "000008024643", "lat": 54.07556, "lon": 9.97972, "name": "Neum\u00fcnster"}, {"id": "000008070006", "lat": 54.75821, "lon": 9.39801, "name": "Flensburg Weiche"}, {"id": "000008001279", "lat": 53.59586, "lon": 9.9067, "name": "Hamburg-Eidelstedt Bf"}, {"id": "000008001289", "lat": 53.57944, "lon": 9.93075, "name": "Hamburg-Langenfelde Bf"}, {"id": "000008025277", "lat": 53.75389, "lon": 9.65916, "name": "Elmshorn"}, {"id": "000008020402", "lat": 53.56056, "lon": 9.98945, "name": "Hamburg Dammtor"}, {"id": "000008024313", "lat": 54.77389, "lon": 9.43639, "name": "Flensburg"}, {"id": "000008024738", "lat": 54.30223, "lon": 9.6711, "name": "Rendsburg"}, {"id": "000008024790", "lat": 54.49945, "lon": 9.53806, "name": "Schleswig"}, {"id": "000008600101", "lat": 54.81662, "lon": 9.36197, "name": "Padborg Gr\u00e6nse St."}, {"id": "000007400002", "lat": 57.70918, "lon": 11.973, "name": "G\u00f6teborg C"}, {"id": "000007400004", "lat": 56.89861, "lon": 14.55611, "name": "Alvesta St."}, {"id": "000007400006", "lat": 56.1575, "lon": 13.76306, "name": "H\u00e4ssleholm C"}, {"id": "000007400020", "lat": 56.66143, "lon": 16.35965, "name": "Kalmar C"}, {"id": "000007400044", "lat": 56.04376, "lon": 12.69496, "name": "Helsingborg C"}, {"id": "000007400045", "lat": 56.55139, "lon": 14.13694, "name": "\u00c4lmhult St."}, {"id": "000007400058", "lat": 56.5022, "lon": 12.99899, "name": "Laholm St."}, {"id": "000007401603", "lat": 56.43166, "lon": 12.90694, "name": "B\u00e5stad St."}, {"id": "000007400064", "lat": 56.24577, "lon": 12.85385, "name": "\u00c4ngelholm St."}, {"id": "000007400069", "lat": 56.20663, "lon": 15.28334, "name": "Ronneby St."}, {"id": "000007400073", "lat": 56.17688, "lon": 14.86751, "name": "Karlshamn St."}, {"id": "000007400079", "lat": 56.04977, "lon": 14.58365, "name": "S\u00f6lvesborg St."}, {"id": "000007400080", "lat": 56.66919, "lon": 12.8646, "name": "Halmstad C"}, {"id": "000007400096", "lat": 56.62983, "lon": 15.53488, "name": "Emmaboda St."}, {"id": "000007400110", "lat": 57.10931, "lon": 12.24848, "name": "Varberg St."}, {"id": "000007400120", "lat": 55.70806, "lon": 13.18667, "name": "Lund C"}, {"id": "000007400141", "lat": 56.06722, "lon": 14.48076, "name": "Brom\u00f6lla St."}, {"id": "000007400161", "lat": 57.49021, "lon": 12.07992, "name": "Kungsbacka St."}, {"id": "000007400185", "lat": 55.93675, "lon": 13.54166, "name": "H\u00f6\u00f6r St."}, {"id": "000007400189", "lat": 56.74234, "lon": 15.90896, "name": "Nybro St."}, {"id": "000007400200", "lat": 56.03176, "lon": 14.15104, "name": "Kristiansstad C"}, {"id": "000007400230", "lat": 56.16631, "lon": 15.58525, "name": "Karlskrona C"}, {"id": "000007400235", "lat": 56.75029, "lon": 15.2586, "name": "Lessebo St."}, {"id": "000007400250", "lat": 56.87672, "lon": 14.80592, "name": "V\u00e4xj\u00f6 C"}, {"id": "000007400257", "lat": 56.91951, "lon": 12.50827, "name": "Falkenberg personstation"}, {"id": "000007400260", "lat": 55.83784, "lon": 13.30523, "name": "Esl\u00f6v St."}, {"id": "000007400295", "lat": 56.38002, "lon": 13.99458, "name": "Osby St."}, {"id": "000007400315", "lat": 57.65591, "lon": 12.01884, "name": "M\u00f6lndals Nedre St."}, {"id": "000007400366", "lat": 56.18688, "lon": 14.74351, "name": "M\u00f6rrum St."}, {"id": "000007400368", "lat": 56.23105, "lon": 15.11595, "name": "Br\u00e4kne-Hoby St."}, {"id": "000007400511", "lat": 56.78614, "lon": 15.13997, "name": "Hovmantorp St."}, {"id": "000007400945", "lat": 55.79433, "lon": 13.11136, "name": "K\u00e4vlinge St."}, {"id": "000007401537", "lat": 56.18234, "lon": 15.60083, "name": "Berg\u00e5sa St."}, {"id": "000007401554", "lat": 55.8674, "lon": 12.83125, "name": "Landskrona St."}, {"id": "000007401270", "lat": 56.02221, "lon": 12.72718, "name": "Raml\u00f6sa"}, {"id": "000007440120", "lat": 55.56579, "lon": 12.90803, "name": "Lernacken St."}, {"id": "000008600515", "lat": 55.36177, "lon": 10.58624, "name": "Langeskov St."}, {"id": "000007400102", "lat": 56.08306, "lon": 12.91231, "name": "Bjuv St."}, {"id": "000007400155", "lat": 56.13398, "lon": 12.94906, "name": "\u00c5storp St."}, {"id": "000007400520", "lat": 56.02925, "lon": 12.8171, "name": "P\u00e5arp St."}, {"id": "000007401255", "lat": 56.05575, "lon": 12.87323, "name": "M\u00f6rarp St."}, {"id": "000007499996", "lat": 56.02221, "lon": 12.7739, "name": "\u00c4ttekulla St."}, {"id": "000007400947", "lat": 55.7259, "lon": 13.07543, "name": "Fl\u00e4die St."}, {"id": "000007400011", "lat": 55.87057, "lon": 13.08599, "name": "Teckomatorp St."}, {"id": "000008600819", "lat": 54.93908, "lon": 11.86776, "name": "Orehoved St."}, {"id": "000007401604", "lat": 57.36306, "lon": 12.13555, "name": "\u00c5sa St."}, {"id": "000007400934", "lat": 55.9154, "lon": 12.98821, "name": "Billeberga st"}, {"id": "000007401556", "lat": 55.93754, "lon": 12.93631, "name": "T\u00e5garp st"}, {"id": "000007416940", "lat": 55.97206, "lon": 12.85105, "name": "Vall\u00e5kra st"}, {"id": "000007401480", "lat": 55.99756, "lon": 13.08326, "name": "K\u00e5ger\u00f6d st"}, {"id": "000007440011", "lat": 56.0565, "lon": 12.97671, "name": "Billesholm st"}, {"id": "000007401334", "lat": 56.03611, "lon": 13.68027, "name": "S\u00f6sdala"}, {"id": "000007401611", "lat": 56.00027, "lon": 13.62971, "name": "Tj\u00f6rnarp"}, {"id": "000860012901", "lat": 56.15693, "lon": 10.21306, "name": "Skolebakken"}, {"id": "000860430201", "lat": 56.15396, "lon": 10.21311, "name": "Dokk1"}, {"id": "000860430301", "lat": 56.16168, "lon": 10.21173, "name": "N\u00f8rreport Aarhus"}, {"id": "000860430401", "lat": 56.16706, "lon": 10.20771, "name": "Universitetsparken"}, {"id": "000860430501", "lat": 56.17214, "lon": 10.20433, "name": "Aarhus Universitet (Ringgaden)"}, {"id": "000860430601", "lat": 56.1739, "lon": 10.20322, "name": "Stjernepladsen"}, {"id": "000860430701", "lat": 56.17873, "lon": 10.20001, "name": "Stockholmsgade"}, {"id": "000860430801", "lat": 56.18294, "lon": 10.19706, "name": "Vandt\u00e5rnet (Ringvejen)"}, {"id": "000860430901", "lat": 56.18653, "lon": 10.19339, "name": "Nehrus All\u00e9"}, {"id": "000860431001", "lat": 56.18972, "lon": 10.18396, "name": "Olof Palmes All\u00e9"}, {"id": "000860431103", "lat": 56.19248, "lon": 10.17636, "name": "Aarhus Universitetshospital"}, {"id": "000860431002", "lat": 56.18968, "lon": 10.18393, "name": "Olof Palmes All\u00e9"}, {"id": "000860430902", "lat": 56.18648, "lon": 10.1934, "name": "Nehrus All\u00e9"}, {"id": "000860430802", "lat": 56.18205, "lon": 10.19758, "name": "Vandt\u00e5rnet (Ringvejen)"}, {"id": "000860430702", "lat": 56.17799, "lon": 10.20042, "name": "Stockholmsgade"}, {"id": "000860430602", "lat": 56.17389, "lon": 10.20309, "name": "Stjernepladsen"}, {"id": "000860430502", "lat": 56.17121, "lon": 10.20485, "name": "Aarhus Universitet (Ringgaden)"}, {"id": "000860430402", "lat": 56.16705, "lon": 10.2076, "name": "Universitetsparken"}, {"id": "000860430302", "lat": 56.16157, "lon": 10.2115, "name": "N\u00f8rreport Aarhus"}, {"id": "000860430202", "lat": 56.15395, "lon": 10.21302, "name": "Dokk1"}, {"id": "000860012902", "lat": 56.15696, "lon": 10.213, "name": "Skolebakken"}, {"id": "000007401555", "lat": 55.99028, "lon": 12.80555, "name": "Gantofta"}, {"id": "000860014801", "lat": 56.16304, "lon": 10.21662, "name": "\u00d8stbanetorvet"}, {"id": "000860014901", "lat": 56.19379, "lon": 10.23759, "name": "Vestre Strandalle"}, {"id": "000860015001", "lat": 56.18426, "lon": 10.23701, "name": "Risskov Strandpark"}, {"id": "000860015101", "lat": 56.20535, "lon": 10.22849, "name": "Tors\u00f8vej"}, {"id": "000860015301", "lat": 56.24442, "lon": 10.26805, "name": "Hjortsh\u00f8j"}, {"id": "000860015401", "lat": 56.26143, "lon": 10.30267, "name": "Sk\u00f8dstrup"}, {"id": "000860015501", "lat": 56.27522, "lon": 10.31681, "name": "L\u00f8gten"}, {"id": "000860015701", "lat": 56.33926, "lon": 10.37596, "name": "M\u00f8rke"}, {"id": "000860015801", "lat": 56.35613, "lon": 10.44828, "name": "Thorsager"}, {"id": "000860016001", "lat": 56.3629, "lon": 10.58753, "name": "Kolind"}, {"id": "000860016201", "lat": 56.35054, "lon": 10.77091, "name": "Trustrup"}, {"id": "000860016301", "lat": 56.39001, "lon": 10.87213, "name": "Hessel"}, {"id": "000860016401", "lat": 56.23424, "lon": 10.25551, "name": "Hovmarken"}, {"id": "000860150101", "lat": 56.00375, "lon": 10.18185, "name": "Assedrup"}, {"id": "000860150301", "lat": 56.05709, "lon": 10.19815, "name": "Beder"}, {"id": "000860150901", "lat": 56.11104, "lon": 10.12545, "name": "Gunnar Clausens Vej"}, {"id": "000860151001", "lat": 56.09181, "lon": 10.15212, "name": "N\u00f8rrev\u00e6nget"}, {"id": "000860151201", "lat": 56.13511, "lon": 10.17419, "name": "Kongsvang"}, {"id": "000860151301", "lat": 56.0377, "lon": 10.19121, "name": "Malling"}, {"id": "000860151401", "lat": 56.07239, "lon": 10.15453, "name": "M\u00f8lleparken"}, {"id": "000860151501", "lat": 56.06865, "lon": 10.16462, "name": "M\u00e5rslet"}, {"id": "000860152101", "lat": 56.1171, "lon": 10.14749, "name": "Rosenh\u00f8j"}, {"id": "000860152201", "lat": 55.98271, "lon": 10.15364, "name": "Rude Havvej"}, {"id": "000860152301", "lat": 56.09709, "lon": 10.13535, "name": "Tranbjerg"}, {"id": "000860152601", "lat": 56.06384, "lon": 10.17967, "name": "Vilhelmsborg"}, {"id": "000860152801", "lat": 56.11444, "lon": 10.133, "name": "\u00d8lleg\u00e5rdsvej"}, {"id": "000860431101", "lat": 56.19248, "lon": 10.17638, "name": "Aarhus Universitetshospital"}, {"id": "000860431201", "lat": 56.19754, "lon": 10.169, "name": "Gl. Skejby (Agro Food Park)"}, {"id": "000860431301", "lat": 56.20324, "lon": 10.16624, "name": "Humlehuse"}, {"id": "000860431401", "lat": 56.2121, "lon": 10.16388, "name": "Klokh\u00f8jen"}, {"id": "000860431501", "lat": 56.21651, "lon": 10.16479, "name": "Lisbjerg Bygade"}, {"id": "000860431601", "lat": 56.2181, "lon": 10.15702, "name": "Lisbjergskolen"}, {"id": "000860431701", "lat": 56.2195, "lon": 10.17441, "name": "Lisbjerg-Terp"}, {"id": "000860431801", "lat": 56.2273, "lon": 10.20096, "name": "Nye"}, {"id": "000860431102", "lat": 56.19246, "lon": 10.17626, "name": "Aarhus Universitetshospital"}, {"id": "000860150102", "lat": 56.00405, "lon": 10.1829, "name": "Assedrup"}, {"id": "000860150902", "lat": 56.11198, "lon": 10.1264, "name": "Gunnar Clausens Vej"}, {"id": "000860151002", "lat": 56.09244, "lon": 10.15018, "name": "N\u00f8rrev\u00e6nget"}, {"id": "000860151302", "lat": 56.03766, "lon": 10.19139, "name": "Malling"}, {"id": "000860151502", "lat": 56.06889, "lon": 10.16411, "name": "M\u00e5rslet"}, {"id": "000860151902", "lat": 55.97179, "lon": 10.15047, "name": "Odder"}, {"id": "000860151903", "lat": 55.9725, "lon": 10.1504, "name": "Odder"}, {"id": "000860152202", "lat": 55.98418, "lon": 10.15464, "name": "Rude Havvej"}, {"id": "000860152302", "lat": 56.09643, "lon": 10.13594, "name": "Tranbjerg"}, {"id": "000860152602", "lat": 56.06437, "lon": 10.17808, "name": "Vilhelmsborg"}, {"id": "000860152802", "lat": 56.11481, "lon": 10.13451, "name": "\u00d8lleg\u00e5rdsvej"}, {"id": "000860431202", "lat": 56.1976, "lon": 10.16836, "name": "Gl. Skejby (Agro Food Park)"}, {"id": "000860431302", "lat": 56.20363, "lon": 10.16626, "name": "Humlehuse"}, {"id": "000860431402", "lat": 56.21255, "lon": 10.16369, "name": "Klokh\u00f8jen"}, {"id": "000860431502", "lat": 56.21684, "lon": 10.16462, "name": "Lisbjerg Bygade"}, {"id": "000860152502", "lat": 56.12172, "lon": 10.15956, "name": "Viby Jylland"}, {"id": "000860014802", "lat": 56.16239, "lon": 10.21599, "name": "\u00d8stbanetorvet"}, {"id": "000860014902", "lat": 56.19542, "lon": 10.23637, "name": "Vestre Strandalle"}, {"id": "000860015102", "lat": 56.2061, "lon": 10.22807, "name": "Tors\u00f8vej"}, {"id": "000860015202", "lat": 56.23077, "lon": 10.23424, "name": "Lystrup"}, {"id": "000860015203", "lat": 56.23103, "lon": 10.23537, "name": "Lystrup"}, {"id": "000860015205", "lat": 56.23081, "lon": 10.23469, "name": "Lystrup"}, {"id": "000860015302", "lat": 56.24544, "lon": 10.27052, "name": "Hjortsh\u00f8j"}, {"id": "000860015402", "lat": 56.26217, "lon": 10.30352, "name": "Sk\u00f8dstrup"}, {"id": "000860015502", "lat": 56.27672, "lon": 10.31821, "name": "L\u00f8gten"}, {"id": "000860015602", "lat": 56.32041, "lon": 10.31353, "name": "Hornslet"}, {"id": "000860015603", "lat": 56.32111, "lon": 10.31407, "name": "Hornslet"}, {"id": "000860015902", "lat": 56.38013, "lon": 10.49972, "name": "Ryomg\u00e5rd"}, {"id": "000860015903", "lat": 56.37993, "lon": 10.50125, "name": "Ryomg\u00e5rd"}, {"id": "000860016502", "lat": 56.41226, "lon": 10.87865, "name": "Grenaa"}, {"id": "000860016503", "lat": 56.41282, "lon": 10.88083, "name": "Grenaa"}, {"id": "000860431702", "lat": 56.21942, "lon": 10.17364, "name": "Lisbjerg-Terp"}, {"id": "000860431802", "lat": 56.22715, "lon": 10.20018, "name": "Nye"}, {"id": "000860005301", "lat": 56.14993, "lon": 10.20328, "name": "Aarhus H"}, {"id": "000860005300", "lat": 56.14999, "lon": 10.2032, "name": "Aarhus H"}, {"id": "000860152501", "lat": 56.12225, "lon": 10.16049, "name": "Viby Jylland"}, {"id": "000008600728", "lat": 55.67659, "lon": 11.12086, "name": "Kalundborg \u00d8st St."}, {"id": "000008600295", "lat": 56.15867, "lon": 8.89331, "name": "G\u00f8dstrup St."}, {"id": "000008603330", "lat": 55.67194, "lon": 12.56412, "name": "K\u00f8benhavn H (Metro)"}, {"id": "000008603344", "lat": 55.66728, "lon": 12.54581, "name": "Enghave Plads St. (Metro)"}, {"id": "000008603343", "lat": 55.67373, "lon": 12.54035, "name": "Frederiksberg All\u00e9 St. (Metro)"}, {"id": "000008603342", "lat": 55.68638, "lon": 12.53319, "name": "Aksel M\u00f8llers Have St. (Metro)"}, {"id": "000008603341", "lat": 55.6888, "lon": 12.54289, "name": "Nuuks Plads St. (Metro)"}, {"id": "000008603340", "lat": 55.69394, "lon": 12.5489, "name": "N\u00f8rrebros Runddel St. (Metro)"}, {"id": "000008603339", "lat": 55.70055, "lon": 12.53808, "name": "N\u00f8rrebro St. (Metro)"}, {"id": "000008603338", "lat": 55.70328, "lon": 12.54823, "name": "Skjolds Plads St. (Metro)"}, {"id": "000008603337", "lat": 55.70628, "lon": 12.564, "name": "Vibenshus Runddel St. (Metro)"}, {"id": "000008603336", "lat": 55.70925, "lon": 12.57671, "name": "Poul Henningsens Plads St. (Metro)"}, {"id": "000008603335", "lat": 55.69914, "lon": 12.57607, "name": "Trianglen St. (Metro)"}, {"id": "000008603334", "lat": 55.69322, "lon": 12.58535, "name": "\u00d8sterport St. (Metro)"}, {"id": "000008603333", "lat": 55.68524, "lon": 12.58863, "name": "Marmorkirken St. (Metro)"}, {"id": "000008603332", "lat": 55.67775, "lon": 12.57957, "name": "Gammel Strand St. (Metro)"}, {"id": "000008603331", "lat": 55.67637, "lon": 12.5688, "name": "R\u00e5dhuspladsen St. (Metro)"}, {"id": "000008600797", "lat": 55.49919, "lon": 12.17399, "name": "K\u00f8ge Nord St."}, {"id": "000008603346", "lat": 55.7073, "lon": 12.59183, "name": "Nordhavn St. (Metro)"}, {"id": "000008603345", "lat": 55.71161, "lon": 12.59527, "name": "Orientkaj St. (Metro)"}, {"id": "000008600115", "lat": 57.08481, "lon": 9.87494, "name": "Aalborg Lufthavn St."}, {"id": "000008600217", "lat": 55.47454, "lon": 8.48583, "name": "Jerne St."}, {"id": "000008600008", "lat": 57.45483, "lon": 10.00596, "name": "Hj\u00f8rring \u00d8st St."}, {"id": "000008600301", "lat": 56.32115, "lon": 8.70891, "name": "Tvis St."}], "edges": [{"from": "000008604725", "to": "000008604719", "weight": 180}, {"from": "000008604719", "to": "000008604720", "weight": 120}, {"from": "000008604720", "to": "000008604727", "weight": 30}, {"from": "000008604727", "to": "000008604711", "weight": 120}, {"from": "000008604711", "to": "000008604704", "weight": 60}, {"from": "000008604704", "to": "000008604718", "weight": 180}, {"from": "000008604718", "to": "000008604739", "weight": 30}, {"from": "000008604739", "to": "000008604736", "weight": 60}, {"from": "000008604736", "to": "000008604726", "weight": 180}, {"from": "000008604726", "to": "000008604701", "weight": 180}, {"from": "000008604701", "to": "000008604717", "weight": 120}, {"from": "000008604717", "to": "000008604715", "weight": 30}, {"from": "000008604715", "to": "000008604702", "weight": 180}, {"from": "000008604702", "to": "000008604735", "weight": 30}, {"from": "000008604735", "to": "000008604706", "weight": 60}, {"from": "000008604706", "to": "000008600212", "weight": 240}, {"from": "000008600212", "to": "000008604706", "weight": 60}, {"from": "000008604706", "to": "000008604735", "weight": 120}, {"from": "000008604735", "to": "000008604702", "weight": 30}, {"from": "000008604702", "to": "000008604715", "weight": 180}, {"from": "000008604715", "to": "000008604717", "weight": 120}, {"from": "000008604717", "to": "000008604701", "weight": 120}, {"from": "000008604701", "to": "000008604726", "weight": 180}, {"from": "000008604726", "to": "000008604736", "weight": 30}, {"from": "000008604736", "to": "000008604739", "weight": 60}, {"from": "000008604739", "to": "000008604718", "weight": 60}, {"from": "000008604718", "to": "000008604704", "weight": 180}, {"from": "000008604704", "to": "000008604711", "weight": 60}, {"from": "000008604711", "to": "000008604727", "weight": 180}, {"from": "000008604727", "to": "000008604720", "weight": 30}, {"from": "000008604720", "to": "000008604719", "weight": 180}, {"from": "000008604719", "to": "000008604725", "weight": 420}, {"from": "000008600205", "to": "000008600206", "weight": 180}, {"from": "000008600206", "to": "000008600208", "weight": 540}, {"from": "000008600208", "to": "000008600209", "weight": 240}, {"from": "000008600209", "to": "000008600210", "weight": 300}, {"from": "000008600210", "to": "000008600211", "weight": 300}, {"from": "000008600211", "to": "000008600213", "weight": 300}, {"from": "000008600213", "to": "000008600212", "weight": 120}, {"from": "000008600212", "to": "000008600249", "weight": 60}, {"from": "000008600249", "to": "000008600214", "weight": 360}, {"from": "000008600214", "to": "000008600228", "weight": 180}, {"from": "000008600228", "to": "000008600227", "weight": 120}, {"from": "000008600227", "to": "000008600215", "weight": 240}, {"from": "000008600404", "to": "000008600403", "weight": 360}, {"from": "000008600403", "to": "000008600401", "weight": 480}, {"from": "000008600401", "to": "000008600400", "weight": 300}, {"from": "000008600400", "to": "000008600398", "weight": 360}, {"from": "000008600398", "to": "000008600397", "weight": 360}, {"from": "000008600397", "to": "000008600396", "weight": 240}, {"from": "000008600396", "to": "000008600395", "weight": 480}, {"from": "000008600395", "to": "000008600394", "weight": 300}, {"from": "000008600394", "to": "000008600393", "weight": 300}, {"from": "000008600393", "to": "000008600392", "weight": 300}, {"from": "000008600392", "to": "000008600390", "weight": 360}, {"from": "000008600390", "to": "000008600189", "weight": 420}, {"from": "000008600275", "to": "000008600269", "weight": 180}, {"from": "000008600269", "to": "000008600274", "weight": 180}, {"from": "000008600274", "to": "000008600273", "weight": 300}, {"from": "000008600273", "to": "000008600271", "weight": 360}, {"from": "000008600271", "to": "000008600270", "weight": 300}, {"from": "000008600270", "to": "000008600266", "weight": 720}, {"from": "000008600266", "to": "000008600264", "weight": 300}, {"from": "000008600264", "to": "000008600263", "weight": 240}, {"from": "000008600263", "to": "000008600261", "weight": 240}, {"from": "000008600261", "to": "000008600260", "weight": 300}, {"from": "000008600260", "to": "000008600061", "weight": 300}, {"from": "000008600061", "to": "000008600059", "weight": 360}, {"from": "000008600059", "to": "000008600054", "weight": 360}, {"from": "000008600054", "to": "000008600053", "weight": 300}, {"from": "000008600423", "to": "000008600436", "weight": 120}, {"from": "000008600436", "to": "000008600421", "weight": 300}, {"from": "000008600421", "to": "000008600420", "weight": 180}, {"from": "000008600420", "to": "000008600219", "weight": 240}, {"from": "000008600219", "to": "000008600218", "weight": 360}, {"from": "000008600218", "to": "000008600217", "weight": 300}, {"from": "000008600217", "to": "000008600215", "weight": 180}, {"from": "000008600189", "to": "000008600191", "weight": 360}, {"from": "000008600191", "to": "000008600192", "weight": 360}, {"from": "000008600192", "to": "000008600301", "weight": 420}, {"from": "000008600301", "to": "000008600300", "weight": 360}, {"from": "000008600300", "to": "000008600298", "weight": 360}, {"from": "000008600298", "to": "000008600295", "weight": 420}, {"from": "000008600295", "to": "000008600275", "weight": 360}, {"from": "000008600275", "to": "000008600291", "weight": 840}, {"from": "000008600291", "to": "000008600290", "weight": 360}, {"from": "000008600290", "to": "000008600289", "weight": 360}, {"from": "000008600289", "to": "000008600285", "weight": 660}, {"from": "000008600285", "to": "000008600281", "weight": 660}, {"from": "000008600281", "to": "000008600073", "weight": 120}, {"from": "000008600189", "to": "000008600187", "weight": 540}, {"from": "000008600187", "to": "000008600183", "weight": 900}, {"from": "000008600183", "to": "000008600182", "weight": 300}, {"from": "000008600182", "to": "000008600180", "weight": 360}, {"from": "000008600180", "to": "000008600176", "weight": 660}, {"from": "000008600176", "to": "000008600174", "weight": 480}, {"from": "000008600174", "to": "000008600172", "weight": 420}, {"from": "000008600172", "to": "000008600171", "weight": 420}, {"from": "000008600171", "to": "000008600044", "weight": 420}, {"from": "000008600044", "to": "000008600047", "weight": 420}, {"from": "000008600047", "to": "000008600048", "weight": 300}, {"from": "000008600048", "to": "000008600053", "weight": 900}, {"from": "000008600563", "to": "000008600562", "weight": 180}, {"from": "000008600562", "to": "000008600561", "weight": 120}, {"from": "000008600561", "to": "000008600560", "weight": 180}, {"from": "000008600560", "to": "000008600559", "weight": 180}, {"from": "000008600559", "to": "000008600533", "weight": 120}, {"from": "000008600533", "to": "000008600526", "weight": 120}, {"from": "000008600526", "to": "000008600512", "weight": 240}, {"from": "000008600551", "to": "000008600555", "weight": 180}, {"from": "000008600555", "to": "000008600567", "weight": 420}, {"from": "000008600567", "to": "000008600566", "weight": 120}, {"from": "000008600566", "to": "000008600565", "weight": 240}, {"from": "000008600565", "to": "000008600564", "weight": 180}, {"from": "000008600564", "to": "000008600563", "weight": 300}, {"from": "000008600432", "to": "000008600434", "weight": 60}, {"from": "000008600434", "to": "000008600431", "weight": 480}, {"from": "000008600431", "to": "000008600430", "weight": 240}, {"from": "000008600430", "to": "000008600428", "weight": 360}, {"from": "000008600428", "to": "000008600427", "weight": 300}, {"from": "000008600427", "to": "000008600426", "weight": 240}, {"from": "000008600426", "to": "000008600425", "weight": 240}, {"from": "000008600425", "to": "000008600424", "weight": 300}, {"from": "000008600424", "to": "000008600423", "weight": 360}, {"from": "000008600053", "to": "000008600048", "weight": 720}, {"from": "000008600048", "to": "000008600047", "weight": 300}, {"from": "000008600047", "to": "000008600044", "weight": 420}, {"from": "000008600044", "to": "000008600171", "weight": 360}, {"from": "000008600171", "to": "000008600172", "weight": 360}, {"from": "000008600172", "to": "000008600174", "weight": 420}, {"from": "000008600174", "to": "000008600176", "weight": 540}, {"from": "000008600176", "to": "000008600180", "weight": 600}, {"from": "000008600180", "to": "000008600182", "weight": 360}, {"from": "000008600182", "to": "000008600183", "weight": 300}, {"from": "000008600183", "to": "000008600187", "weight": 900}, {"from": "000008600187", "to": "000008600189", "weight": 600}, {"from": "000008600215", "to": "000008600217", "weight": 120}, {"from": "000008600217", "to": "000008600218", "weight": 240}, {"from": "000008600218", "to": "000008600219", "weight": 360}, {"from": "000008600219", "to": "000008600420", "weight": 180}, {"from": "000008600420", "to": "000008600421", "weight": 240}, {"from": "000008600421", "to": "000008600436", "weight": 300}, {"from": "000008600436", "to": "000008600423", "weight": 120}, {"from": "000008600053", "to": "000008600054", "weight": 240}, {"from": "000008600054", "to": "000008600059", "weight": 360}, {"from": "000008600059", "to": "000008600061", "weight": 420}, {"from": "000008600061", "to": "000008600260", "weight": 240}, {"from": "000008600260", "to": "000008600261", "weight": 300}, {"from": "000008600261", "to": "000008600263", "weight": 240}, {"from": "000008600263", "to": "000008600264", "weight": 240}, {"from": "000008600264", "to": "000008600266", "weight": 360}, {"from": "000008600266", "to": "000008600270", "weight": 660}, {"from": "000008600270", "to": "000008600271", "weight": 300}, {"from": "000008600271", "to": "000008600273", "weight": 300}, {"from": "000008600273", "to": "000008600274", "weight": 300}, {"from": "000008600274", "to": "000008600269", "weight": 180}, {"from": "000008600269", "to": "000008600275", "weight": 240}, {"from": "000008600215", "to": "000008600227", "weight": 180}, {"from": "000008600227", "to": "000008600228", "weight": 120}, {"from": "000008600228", "to": "000008600214", "weight": 180}, {"from": "000008600214", "to": "000008600249", "weight": 360}, {"from": "000008600249", "to": "000008600212", "weight": 120}, {"from": "000008600073", "to": "000008600281", "weight": 60}, {"from": "000008600281", "to": "000008600285", "weight": 660}, {"from": "000008600285", "to": "000008600289", "weight": 720}, {"from": "000008600289", "to": "000008600290", "weight": 360}, {"from": "000008600290", "to": "000008600291", "weight": 420}, {"from": "000008600291", "to": "000008600275", "weight": 900}, {"from": "000008600275", "to": "000008600295", "weight": 240}, {"from": "000008600295", "to": "000008600298", "weight": 420}, {"from": "000008600298", "to": "000008600300", "weight": 420}, {"from": "000008600300", "to": "000008600301", "weight": 420}, {"from": "000008600301", "to": "000008600192", "weight": 420}, {"from": "000008600192", "to": "000008600191", "weight": 360}, {"from": "000008600191", "to": "000008600189", "weight": 420}, {"from": "000008600212", "to": "000008600213", "weight": 120}, {"from": "000008600213", "to": "000008600211", "weight": 300}, {"from": "000008600211", "to": "000008600210", "weight": 300}, {"from": "000008600210", "to": "000008600209", "weight": 240}, {"from": "000008600209", "to": "000008600208", "weight": 240}, {"from": "000008600208", "to": "000008600206", "weight": 540}, {"from": "000008600206", "to": "000008600205", "weight": 240}, {"from": "000008600400", "to": "000008600401", "weight": 300}, {"from": "000008600401", "to": "000008600403", "weight": 480}, {"from": "000008600403", "to": "000008600404", "weight": 420}, {"from": "000008600189", "to": "000008600390", "weight": 360}, {"from": "000008600390", "to": "000008600392", "weight": 300}, {"from": "000008600392", "to": "000008600393", "weight": 240}, {"from": "000008600393", "to": "000008600394", "weight": 300}, {"from": "000008600394", "to": "000008600395", "weight": 300}, {"from": "000008600395", "to": "000008600396", "weight": 480}, {"from": "000008600396", "to": "000008600397", "weight": 300}, {"from": "000008600397", "to": "000008600398", "weight": 420}, {"from": "000008600398", "to": "000008600400", "weight": 420}, {"from": "000008600423", "to": "000008600424", "weight": 360}, {"from": "000008600424", "to": "000008600425", "weight": 240}, {"from": "000008600425", "to": "000008600426", "weight": 240}, {"from": "000008600426", "to": "000008600427", "weight": 240}, {"from": "000008600427", "to": "000008600428", "weight": 240}, {"from": "000008600428", "to": "000008600430", "weight": 360}, {"from": "000008600430", "to": "000008600431", "weight": 240}, {"from": "000008600431", "to": "000008600434", "weight": 480}, {"from": "000008600434", "to": "000008600432", "weight": 120}, {"from": "000008600512", "to": "000008600526", "weight": 180}, {"from": "000008600526", "to": "000008600533", "weight": 120}, {"from": "000008600533", "to": "000008600559", "weight": 120}, {"from": "000008600559", "to": "000008600560", "weight": 180}, {"from": "000008600560", "to": "000008600561", "weight": 180}, {"from": "000008600561", "to": "000008600562", "weight": 180}, {"from": "000008600562", "to": "000008600563", "weight": 240}, {"from": "000008600563", "to": "000008600564", "weight": 240}, {"from": "000008600564", "to": "000008600565", "weight": 180}, {"from": "000008600565", "to": "000008600566", "weight": 240}, {"from": "000008600566", "to": "000008600567", "weight": 60}, {"from": "000008600567", "to": "000008600555", "weight": 360}, {"from": "000008600555", "to": "000008600551", "weight": 180}, {"from": "000008025670", "to": "000008088761", "weight": 240}, {"from": "000008088761", "to": "000008005784", "weight": 180}, {"from": "000008005784", "to": "000008600432", "weight": 540}, {"from": "000008600205", "to": "000008600280", "weight": 480}, {"from": "000008600280", "to": "000008600279", "weight": 360}, {"from": "000008600279", "to": "000008600278", "weight": 420}, {"from": "000008600278", "to": "000008600277", "weight": 360}, {"from": "000008600277", "to": "000008600276", "weight": 180}, {"from": "000008600276", "to": "000008600275", "weight": 180}, {"from": "000008600275", "to": "000008600276", "weight": 120}, {"from": "000008600276", "to": "000008600277", "weight": 180}, {"from": "000008600277", "to": "000008600278", "weight": 360}, {"from": "000008600278", "to": "000008600279", "weight": 420}, {"from": "000008600279", "to": "000008600280", "weight": 360}, {"from": "000008600280", "to": "000008600205", "weight": 540}, {"from": "000008600432", "to": "000008005784", "weight": 360}, {"from": "000008005784", "to": "000008088761", "weight": 240}, {"from": "000008088761", "to": "000008025670", "weight": 420}, {"from": "000008603330", "to": "000008603344", "weight": 60}, {"from": "000008603344", "to": "000008603343", "weight": 60}, {"from": "000008603343", "to": "000008603305", "weight": 60}, {"from": "000008603305", "to": "000008603342", "weight": 60}, {"from": "000008603342", "to": "000008603341", "weight": 60}, {"from": "000008603341", "to": "000008603340", "weight": 60}, {"from": "000008603340", "to": "000008603339", "weight": 120}, {"from": "000008603339", "to": "000008603338", "weight": 120}, {"from": "000008603338", "to": "000008603337", "weight": 120}, {"from": "000008603337", "to": "000008603336", "weight": 60}, {"from": "000008603336", "to": "000008603335", "weight": 60}, {"from": "000008603335", "to": "000008603334", "weight": 60}, {"from": "000008603334", "to": "000008603333", "weight": 60}, {"from": "000008603333", "to": "000008603308", "weight": 60}, {"from": "000008603308", "to": "000008603332", "weight": 60}, {"from": "000008603332", "to": "000008603331", "weight": 60}, {"from": "000008603331", "to": "000008603330", "weight": 60}, {"from": "000008603330", "to": "000008603331", "weight": 60}, {"from": "000008603331", "to": "000008603332", "weight": 60}, {"from": "000008603332", "to": "000008603308", "weight": 60}, {"from": "000008603308", "to": "000008603333", "weight": 60}, {"from": "000008603333", "to": "000008603334", "weight": 60}, {"from": "000008603334", "to": "000008603335", "weight": 60}, {"from": "000008603335", "to": "000008603336", "weight": 60}, {"from": "000008603336", "to": "000008603337", "weight": 60}, {"from": "000008603337", "to": "000008603338", "weight": 60}, {"from": "000008603338", "to": "000008603339", "weight": 120}, {"from": "000008603339", "to": "000008603340", "weight": 120}, {"from": "000008603340", "to": "000008603341", "weight": 60}, {"from": "000008603341", "to": "000008603342", "weight": 60}, {"from": "000008603342", "to": "000008603305", "weight": 60}, {"from": "000008603305", "to": "000008603343", "weight": 60}, {"from": "000008603343", "to": "000008603344", "weight": 120}, {"from": "000008603344", "to": "000008603330", "weight": 120}, {"from": "000008603345", "to": "000008603346", "weight": 60}, {"from": "000008603346", "to": "000008603334", "weight": 180}, {"from": "000008603334", "to": "000008603346", "weight": 180}, {"from": "000008603346", "to": "000008603345", "weight": 60}, {"from": "000008603317", "to": "000008603315", "weight": 120}, {"from": "000008603315", "to": "000008603313", "weight": 60}, {"from": "000008603313", "to": "000008603312", "weight": 120}, {"from": "000008603312", "to": "000008603311", "weight": 120}, {"from": "000008603311", "to": "000008603310", "weight": 60}, {"from": "000008603310", "to": "000008603309", "weight": 60}, {"from": "000008603309", "to": "000008603308", "weight": 60}, {"from": "000008603308", "to": "000008603307", "weight": 120}, {"from": "000008603307", "to": "000008603306", "weight": 60}, {"from": "000008603306", "to": "000008603305", "weight": 60}, {"from": "000008603305", "to": "000008603304", "weight": 60}, {"from": "000008603304", "to": "000008603303", "weight": 60}, {"from": "000008603303", "to": "000008603302", "weight": 60}, {"from": "000008603302", "to": "000008603301", "weight": 60}, {"from": "000008603301", "to": "000008603302", "weight": 60}, {"from": "000008603302", "to": "000008603303", "weight": 60}, {"from": "000008603303", "to": "000008603304", "weight": 120}, {"from": "000008603304", "to": "000008603305", "weight": 60}, {"from": "000008603305", "to": "000008603306", "weight": 120}, {"from": "000008603306", "to": "000008603307", "weight": 60}, {"from": "000008603307", "to": "000008603308", "weight": 60}, {"from": "000008603308", "to": "000008603309", "weight": 60}, {"from": "000008603309", "to": "000008603310", "weight": 60}, {"from": "000008603310", "to": "000008603311", "weight": 60}, {"from": "000008603311", "to": "000008603312", "weight": 120}, {"from": "000008603312", "to": "000008603313", "weight": 60}, {"from": "000008603313", "to": "000008603315", "weight": 60}, {"from": "000008603315", "to": "000008603317", "weight": 60}, {"from": "000008603328", "to": "000008603327", "weight": 60}, {"from": "000008603327", "to": "000008603326", "weight": 60}, {"from": "000008603326", "to": "000008603324", "weight": 60}, {"from": "000008603324", "to": "000008603323", "weight": 60}, {"from": "000008603323", "to": "000008603322", "weight": 60}, {"from": "000008603322", "to": "000008603321", "weight": 60}, {"from": "000008603321", "to": "000008603309", "weight": 120}, {"from": "000008603309", "to": "000008603321", "weight": 60}, {"from": "000008603321", "to": "000008603322", "weight": 60}, {"from": "000008603322", "to": "000008603323", "weight": 120}, {"from": "000008603323", "to": "000008603324", "weight": 60}, {"from": "000008603324", "to": "000008603326", "weight": 120}, {"from": "000008603326", "to": "000008603327", "weight": 120}, {"from": "000008603327", "to": "000008603328", "weight": 120}, {"from": "000008600192", "to": "000008600300", "weight": 960}, {"from": "000008600300", "to": "000008600192", "weight": 840}, {"from": "000008601013", "to": "000008601014", "weight": 240}, {"from": "000008601014", "to": "000008601053", "weight": 240}, {"from": "000008601053", "to": "000008601025", "weight": 240}, {"from": "000008601025", "to": "000008600906", "weight": 180}, {"from": "000008600906", "to": "000008600905", "weight": 240}, {"from": "000008600905", "to": "000008600903", "weight": 180}, {"from": "000008600903", "to": "000008600902", "weight": 180}, {"from": "000008600902", "to": "000008600901", "weight": 180}, {"from": "000008600901", "to": "000008600803", "weight": 240}, {"from": "000008600803", "to": "000008600792", "weight": 180}, {"from": "000008600792", "to": "000008600802", "weight": 240}, {"from": "000008600802", "to": "000008600801", "weight": 180}, {"from": "000008600801", "to": "000008600800", "weight": 240}, {"from": "000008600800", "to": "000008600617", "weight": 540}, {"from": "000008600905", "to": "000008600904", "weight": 120}, {"from": "000008600904", "to": "000008600902", "weight": 300}, {"from": "000008600904", "to": "000008600903", "weight": 120}, {"from": "000008600617", "to": "000008600800", "weight": 360}, {"from": "000008600800", "to": "000008600801", "weight": 180}, {"from": "000008600801", "to": "000008600802", "weight": 240}, {"from": "000008600802", "to": "000008600792", "weight": 240}, {"from": "000008600792", "to": "000008600803", "weight": 180}, {"from": "000008600803", "to": "000008600901", "weight": 240}, {"from": "000008600901", "to": "000008600902", "weight": 180}, {"from": "000008600902", "to": "000008600904", "weight": 420}, {"from": "000008600904", "to": "000008600905", "weight": 120}, {"from": "000008600905", "to": "000008600906", "weight": 120}, {"from": "000008600906", "to": "000008601025", "weight": 360}, {"from": "000008601025", "to": "000008601053", "weight": 180}, {"from": "000008601053", "to": "000008601014", "weight": 360}, {"from": "000008601014", "to": "000008601013", "weight": 180}, {"from": "000008600902", "to": "000008600903", "weight": 300}, {"from": "000008600903", "to": "000008600905", "weight": 240}, {"from": "000008600903", "to": "000008600904", "weight": 120}, {"from": "000008601039", "to": "000008601045", "weight": 420}, {"from": "000008601045", "to": "000008601027", "weight": 300}, {"from": "000008601027", "to": "000008600907", "weight": 120}, {"from": "000008600907", "to": "000008600905", "weight": 300}, {"from": "000008600905", "to": "000008600907", "weight": 120}, {"from": "000008600907", "to": "000008601027", "weight": 300}, {"from": "000008601027", "to": "000008601045", "weight": 360}, {"from": "000008601045", "to": "000008601039", "weight": 420}, {"from": "000008600605", "to": "000008602503", "weight": 600}, {"from": "000008602503", "to": "000008602513", "weight": 360}, {"from": "000008602513", "to": "000008602515", "weight": 240}, {"from": "000008602515", "to": "000008602501", "weight": 240}, {"from": "000008602501", "to": "000008602523", "weight": 120}, {"from": "000008602523", "to": "000008602517", "weight": 240}, {"from": "000008602517", "to": "000008602509", "weight": 180}, {"from": "000008602509", "to": "000008602506", "weight": 120}, {"from": "000008602506", "to": "000008602519", "weight": 240}, {"from": "000008602519", "to": "000008602505", "weight": 240}, {"from": "000008602505", "to": "000008600717", "weight": 240}, {"from": "000008600717", "to": "000008602505", "weight": 240}, {"from": "000008602505", "to": "000008602519", "weight": 240}, {"from": "000008602519", "to": "000008602506", "weight": 120}, {"from": "000008602506", "to": "000008602509", "weight": 120}, {"from": "000008602509", "to": "000008602517", "weight": 240}, {"from": "000008602517", "to": "000008602523", "weight": 120}, {"from": "000008602523", "to": "000008602501", "weight": 240}, {"from": "000008602501", "to": "000008602515", "weight": 180}, {"from": "000008602515", "to": "000008602513", "weight": 300}, {"from": "000008602513", "to": "000008602503", "weight": 360}, {"from": "000008602503", "to": "000008600605", "weight": 660}, {"from": "000008600719", "to": "000008603557", "weight": 60}, {"from": "000008603557", "to": "000008603515", "weight": 420}, {"from": "000008603515", "to": "000008603559", "weight": 300}, {"from": "000008603559", "to": "000008603527", "weight": 240}, {"from": "000008603527", "to": "000008603513", "weight": 240}, {"from": "000008603513", "to": "000008603505", "weight": 240}, {"from": "000008603505", "to": "000008603517", "weight": 180}, {"from": "000008603517", "to": "000008603565", "weight": 360}, {"from": "000008603565", "to": "000008603547", "weight": 240}, {"from": "000008603547", "to": "000008603525", "weight": 240}, {"from": "000008603525", "to": "000008603550", "weight": 180}, {"from": "000008603550", "to": "000008603545", "weight": 180}, {"from": "000008603557", "to": "000008603543", "weight": 240}, {"from": "000008603543", "to": "000008603515", "weight": 300}, {"from": "000008603505", "to": "000008603565", "weight": 480}, {"from": "000008603547", "to": "000008603555", "weight": 120}, {"from": "000008603555", "to": "000008603525", "weight": 120}, {"from": "000008603545", "to": "000008603550", "weight": 120}, {"from": "000008603550", "to": "000008603525", "weight": 240}, {"from": "000008603525", "to": "000008603547", "weight": 300}, {"from": "000008603547", "to": "000008603565", "weight": 240}, {"from": "000008603565", "to": "000008603517", "weight": 360}, {"from": "000008603517", "to": "000008603505", "weight": 240}, {"from": "000008603505", "to": "000008603513", "weight": 240}, {"from": "000008603513", "to": "000008603527", "weight": 240}, {"from": "000008603527", "to": "000008603559", "weight": 240}, {"from": "000008603559", "to": "000008603515", "weight": 240}, {"from": "000008603515", "to": "000008603557", "weight": 300}, {"from": "000008603557", "to": "000008600719", "weight": 300}, {"from": "000008603515", "to": "000008603543", "weight": 120}, {"from": "000008603543", "to": "000008603557", "weight": 300}, {"from": "000008603565", "to": "000008603505", "weight": 480}, {"from": "000008603525", "to": "000008603555", "weight": 60}, {"from": "000008603555", "to": "000008603547", "weight": 240}, {"from": "000008602605", "to": "000008602641", "weight": 420}, {"from": "000008602641", "to": "000008602619", "weight": 360}, {"from": "000008602619", "to": "000008602635", "weight": 420}, {"from": "000008602635", "to": "000008602645", "weight": 360}, {"from": "000008602645", "to": "000008602601", "weight": 180}, {"from": "000008602601", "to": "000008602623", "weight": 240}, {"from": "000008600824", "to": "000008602604", "weight": 180}, {"from": "000008602604", "to": "000008602605", "weight": 360}, {"from": "000008602623", "to": "000008602601", "weight": 180}, {"from": "000008602601", "to": "000008602645", "weight": 240}, {"from": "000008602645", "to": "000008602635", "weight": 360}, {"from": "000008602635", "to": "000008602619", "weight": 420}, {"from": "000008602619", "to": "000008602641", "weight": 360}, {"from": "000008602641", "to": "000008602605", "weight": 420}, {"from": "000008602605", "to": "000008602604", "weight": 240}, {"from": "000008602604", "to": "000008600824", "weight": 300}, {"from": "000008600674", "to": "000008603007", "weight": 120}, {"from": "000008603007", "to": "000008603003", "weight": 120}, {"from": "000008603003", "to": "000008603001", "weight": 120}, {"from": "000008603001", "to": "000008603013", "weight": 120}, {"from": "000008603013", "to": "000008603011", "weight": 60}, {"from": "000008603011", "to": "000008603009", "weight": 120}, {"from": "000008600674", "to": "000008603010", "weight": 60}, {"from": "000008603010", "to": "000008603007", "weight": 60}, {"from": "000008603009", "to": "000008603011", "weight": 120}, {"from": "000008603011", "to": "000008603013", "weight": 60}, {"from": "000008603013", "to": "000008603001", "weight": 120}, {"from": "000008603001", "to": "000008603003", "weight": 120}, {"from": "000008603003", "to": "000008603007", "weight": 120}, {"from": "000008603007", "to": "000008600674", "weight": 180}, {"from": "000008603007", "to": "000008603010", "weight": 60}, {"from": "000008603010", "to": "000008600674", "weight": 120}, {"from": "000008600683", "to": "000008601733", "weight": 660}, {"from": "000008601733", "to": "000008601739", "weight": 300}, {"from": "000008601739", "to": "000008601725", "weight": 180}, {"from": "000008601725", "to": "000008601709", "weight": 180}, {"from": "000008601709", "to": "000008601737", "weight": 540}, {"from": "000008601737", "to": "000008601721", "weight": 180}, {"from": "000008601721", "to": "000008601737", "weight": 120}, {"from": "000008601737", "to": "000008601709", "weight": 600}, {"from": "000008601709", "to": "000008601725", "weight": 120}, {"from": "000008601725", "to": "000008601739", "weight": 300}, {"from": "000008601739", "to": "000008601733", "weight": 240}, {"from": "000008601733", "to": "000008600683", "weight": 660}, {"from": "000008600683", "to": "000008601705", "weight": 180}, {"from": "000008601705", "to": "000008601713", "weight": 240}, {"from": "000008601713", "to": "000008601733", "weight": 240}, {"from": "000008601733", "to": "000008601711", "weight": 120}, {"from": "000008601711", "to": "000008601739", "weight": 180}, {"from": "000008601739", "to": "000008601723", "weight": 180}, {"from": "000008601723", "to": "000008601725", "weight": 120}, {"from": "000008601709", "to": "000008601715", "weight": 60}, {"from": "000008601715", "to": "000008601729", "weight": 180}, {"from": "000008601729", "to": "000008601707", "weight": 120}, {"from": "000008601707", "to": "000008601741", "weight": 120}, {"from": "000008601741", "to": "000008601737", "weight": 120}, {"from": "000008601721", "to": "000008601722", "weight": 180}, {"from": "000008601722", "to": "000008601721", "weight": 180}, {"from": "000008601737", "to": "000008601741", "weight": 240}, {"from": "000008601741", "to": "000008601707", "weight": 120}, {"from": "000008601707", "to": "000008601729", "weight": 180}, {"from": "000008601729", "to": "000008601715", "weight": 120}, {"from": "000008601715", "to": "000008601709", "weight": 180}, {"from": "000008601725", "to": "000008601723", "weight": 180}, {"from": "000008601723", "to": "000008601739", "weight": 180}, {"from": "000008601739", "to": "000008601711", "weight": 120}, {"from": "000008601711", "to": "000008601733", "weight": 180}, {"from": "000008601733", "to": "000008601713", "weight": 240}, {"from": "000008601713", "to": "000008601705", "weight": 240}, {"from": "000008601705", "to": "000008600683", "weight": 240}, {"from": "000008600669", "to": "000008600668", "weight": 180}, {"from": "000008600668", "to": "000008600779", "weight": 180}, {"from": "000008600779", "to": "000008600686", "weight": 180}, {"from": "000008600686", "to": "000008600778", "weight": 120}, {"from": "000008600778", "to": "000008600685", "weight": 300}, {"from": "000008600685", "to": "000008600684", "weight": 60}, {"from": "000008600684", "to": "000008600777", "weight": 120}, {"from": "000008600777", "to": "000008600683", "weight": 300}, {"from": "000008600684", "to": "000008600683", "weight": 480}, {"from": "000008600685", "to": "000008600777", "weight": 120}, {"from": "000008600683", "to": "000008600777", "weight": 240}, {"from": "000008600777", "to": "000008600684", "weight": 120}, {"from": "000008600684", "to": "000008600685", "weight": 120}, {"from": "000008600685", "to": "000008600778", "weight": 120}, {"from": "000008600778", "to": "000008600686", "weight": 180}, {"from": "000008600686", "to": "000008600779", "weight": 120}, {"from": "000008600779", "to": "000008600668", "weight": 180}, {"from": "000008600668", "to": "000008600669", "weight": 180}, {"from": "000008600683", "to": "000008600684", "weight": 360}, {"from": "000008600777", "to": "000008600685", "weight": 240}, {"from": "000008600669", "to": "000008601606", "weight": 240}, {"from": "000008601606", "to": "000008601623", "weight": 120}, {"from": "000008601623", "to": "000008601617", "weight": 120}, {"from": "000008601617", "to": "000008601607", "weight": 180}, {"from": "000008601607", "to": "000008601633", "weight": 120}, {"from": "000008601633", "to": "000008601627", "weight": 120}, {"from": "000008601627", "to": "000008601625", "weight": 180}, {"from": "000008601625", "to": "000008601620", "weight": 60}, {"from": "000008601620", "to": "000008601613", "weight": 180}, {"from": "000008601613", "to": "000008601615", "weight": 120}, {"from": "000008601615", "to": "000008601621", "weight": 60}, {"from": "000008601621", "to": "000008601601", "weight": 180}, {"from": "000008601601", "to": "000008601603", "weight": 120}, {"from": "000008601603", "to": "000008601631", "weight": 60}, {"from": "000008601631", "to": "000008601630", "weight": 120}, {"from": "000008601630", "to": "000008601604", "weight": 120}, {"from": "000008601604", "to": "000008601403", "weight": 120}, {"from": "000008601603", "to": "000008601630", "weight": 180}, {"from": "000008601630", "to": "000008601403", "weight": 300}, {"from": "000008601403", "to": "000008601604", "weight": 60}, {"from": "000008601604", "to": "000008601630", "weight": 60}, {"from": "000008601630", "to": "000008601631", "weight": 120}, {"from": "000008601631", "to": "000008601603", "weight": 180}, {"from": "000008601603", "to": "000008601601", "weight": 180}, {"from": "000008601601", "to": "000008601621", "weight": 120}, {"from": "000008601621", "to": "000008601615", "weight": 60}, {"from": "000008601615", "to": "000008601613", "weight": 240}, {"from": "000008601613", "to": "000008601620", "weight": 60}, {"from": "000008601620", "to": "000008601625", "weight": 180}, {"from": "000008601625", "to": "000008601627", "weight": 120}, {"from": "000008601627", "to": "000008601633", "weight": 120}, {"from": "000008601633", "to": "000008601607", "weight": 120}, {"from": "000008601607", "to": "000008601617", "weight": 240}, {"from": "000008601617", "to": "000008601623", "weight": 60}, {"from": "000008601623", "to": "000008601606", "weight": 120}, {"from": "000008601606", "to": "000008600669", "weight": 300}, {"from": "000008601403", "to": "000008601630", "weight": 120}, {"from": "000008601630", "to": "000008601603", "weight": 240}, {"from": "000008601403", "to": "000008601402", "weight": 60}, {"from": "000008601402", "to": "000008601409", "weight": 360}, {"from": "000008601409", "to": "000008601428", "weight": 120}, {"from": "000008601428", "to": "000008601431", "weight": 120}, {"from": "000008601431", "to": "000008601427", "weight": 180}, {"from": "000008601427", "to": "000008601421", "weight": 420}, {"from": "000008601421", "to": "000008600683", "weight": 480}, {"from": "000008601402", "to": "000008601429", "weight": 120}, {"from": "000008601429", "to": "000008601409", "weight": 240}, {"from": "000008601421", "to": "000008601433", "weight": 360}, {"from": "000008601433", "to": "000008600683", "weight": 240}, {"from": "000008600683", "to": "000008601433", "weight": 120}, {"from": "000008601433", "to": "000008601421", "weight": 360}, {"from": "000008601421", "to": "000008601427", "weight": 240}, {"from": "000008601427", "to": "000008601431", "weight": 180}, {"from": "000008601431", "to": "000008601428", "weight": 120}, {"from": "000008601428", "to": "000008601409", "weight": 120}, {"from": "000008601409", "to": "000008601429", "weight": 180}, {"from": "000008601429", "to": "000008601402", "weight": 120}, {"from": "000008601402", "to": "000008601403", "weight": 180}, {"from": "000008600683", "to": "000008601421", "weight": 480}, {"from": "000008601409", "to": "000008601402", "weight": 300}, {"from": "000008601437", "to": "000008601405", "weight": 120}, {"from": "000008601405", "to": "000008601417", "weight": 60}, {"from": "000008601417", "to": "000008601439", "weight": 120}, {"from": "000008601439", "to": "000008601443", "weight": 120}, {"from": "000008601443", "to": "000008601425", "weight": 120}, {"from": "000008601425", "to": "000008601411", "weight": 180}, {"from": "000008601411", "to": "000008601401", "weight": 180}, {"from": "000008601401", "to": "000008601421", "weight": 180}, {"from": "000008601421", "to": "000008601407", "weight": 60}, {"from": "000008601407", "to": "000008601433", "weight": 360}, {"from": "000008601439", "to": "000008601425", "weight": 240}, {"from": "000008601443", "to": "000008601411", "weight": 300}, {"from": "000008601433", "to": "000008601407", "weight": 240}, {"from": "000008601407", "to": "000008601421", "weight": 120}, {"from": "000008601421", "to": "000008601401", "weight": 120}, {"from": "000008601401", "to": "000008601411", "weight": 300}, {"from": "000008601411", "to": "000008601425", "weight": 120}, {"from": "000008601425", "to": "000008601443", "weight": 120}, {"from": "000008601443", "to": "000008601439", "weight": 180}, {"from": "000008601439", "to": "000008601417", "weight": 60}, {"from": "000008601417", "to": "000008601405", "weight": 120}, {"from": "000008601405", "to": "000008601437", "weight": 180}, {"from": "000008601425", "to": "000008601439", "weight": 300}, {"from": "000008601411", "to": "000008601443", "weight": 240}, {"from": "000008600192", "to": "000008600195", "weight": 540}, {"from": "000008600195", "to": "000008600196", "weight": 300}, {"from": "000008600196", "to": "000008600197", "weight": 420}, {"from": "000008600197", "to": "000008600198", "weight": 420}, {"from": "000008600198", "to": "000008600199", "weight": 300}, {"from": "000008600199", "to": "000008600200", "weight": 300}, {"from": "000008600200", "to": "000008600203", "weight": 540}, {"from": "000008600203", "to": "000008600205", "weight": 540}, {"from": "000008600199", "to": "000008600198", "weight": 360}, {"from": "000008600198", "to": "000008600197", "weight": 420}, {"from": "000008600197", "to": "000008600196", "weight": 360}, {"from": "000008600196", "to": "000008600195", "weight": 300}, {"from": "000008600195", "to": "000008600192", "weight": 600}, {"from": "000008600205", "to": "000008600203", "weight": 540}, {"from": "000008600203", "to": "000008600200", "weight": 540}, {"from": "000008600200", "to": "000008600199", "weight": 300}, {"from": "000008604825", "to": "000008604824", "weight": 120}, {"from": "000008604824", "to": "000008604831", "weight": 60}, {"from": "000008604831", "to": "000008604821", "weight": 240}, {"from": "000008604821", "to": "000008604813", "weight": 180}, {"from": "000008604813", "to": "000008604829", "weight": 180}, {"from": "000008604829", "to": "000008604828", "weight": 180}, {"from": "000008604828", "to": "000008604823", "weight": 120}, {"from": "000008604823", "to": "000008604818", "weight": 120}, {"from": "000008604818", "to": "000008604815", "weight": 120}, {"from": "000008604815", "to": "000008604803", "weight": 120}, {"from": "000008604803", "to": "000008604817", "weight": 360}, {"from": "000008604817", "to": "000008604814", "weight": 180}, {"from": "000008604814", "to": "000008604805", "weight": 120}, {"from": "000008604805", "to": "000008604819", "weight": 240}, {"from": "000008604819", "to": "000008604811", "weight": 240}, {"from": "000008604811", "to": "000008604822", "weight": 120}, {"from": "000008604822", "to": "000008604807", "weight": 300}, {"from": "000008604807", "to": "000008604801", "weight": 120}, {"from": "000008604801", "to": "000008600196", "weight": 480}, {"from": "000008604822", "to": "000008604811", "weight": 240}, {"from": "000008604811", "to": "000008604819", "weight": 300}, {"from": "000008604819", "to": "000008604805", "weight": 240}, {"from": "000008604805", "to": "000008604814", "weight": 120}, {"from": "000008604814", "to": "000008604817", "weight": 420}, {"from": "000008604817", "to": "000008604803", "weight": 180}, {"from": "000008604803", "to": "000008604815", "weight": 120}, {"from": "000008604815", "to": "000008604818", "weight": 120}, {"from": "000008604818", "to": "000008604823", "weight": 120}, {"from": "000008604823", "to": "000008604828", "weight": 60}, {"from": "000008604828", "to": "000008604829", "weight": 180}, {"from": "000008604829", "to": "000008604813", "weight": 240}, {"from": "000008604813", "to": "000008604821", "weight": 120}, {"from": "000008604821", "to": "000008604831", "weight": 180}, {"from": "000008604831", "to": "000008604824", "weight": 60}, {"from": "000008604824", "to": "000008604825", "weight": 420}, {"from": "000008600196", "to": "000008604801", "weight": 240}, {"from": "000008604801", "to": "000008604807", "weight": 120}, {"from": "000008604807", "to": "000008604822", "weight": 120}, {"from": "000860015603", "to": "000860015402", "weight": 420}, {"from": "000860015402", "to": "000860015301", "weight": 180}, {"from": "000860015301", "to": "000860016401", "weight": 60}, {"from": "000860016401", "to": "000860015203", "weight": 120}, {"from": "000860015203", "to": "000860015101", "weight": 300}, {"from": "000860015101", "to": "000860014901", "weight": 120}, {"from": "000860014901", "to": "000860015001", "weight": 60}, {"from": "000860015001", "to": "000860014802", "weight": 180}, {"from": "000860014802", "to": "000860012902", "weight": 120}, {"from": "000860012902", "to": "000860430202", "weight": 120}, {"from": "000860430202", "to": "000860005300", "weight": 120}, {"from": "000860016502", "to": "000860016301", "weight": 60}, {"from": "000860016301", "to": "000860016201", "weight": 420}, {"from": "000860016201", "to": "000860016001", "weight": 600}, {"from": "000860016001", "to": "000860015903", "weight": 300}, {"from": "000860015903", "to": "000860015801", "weight": 180}, {"from": "000860015801", "to": "000860015701", "weight": 240}, {"from": "000860015701", "to": "000860015602", "weight": 300}, {"from": "000860015602", "to": "000860015501", "weight": 300}, {"from": "000860015501", "to": "000860015401", "weight": 120}, {"from": "000860015401", "to": "000860015301", "weight": 180}, {"from": "000860430201", "to": "000860012901", "weight": 120}, {"from": "000860012901", "to": "000860014801", "weight": 120}, {"from": "000860014801", "to": "000860015001", "weight": 180}, {"from": "000860015001", "to": "000860014902", "weight": 60}, {"from": "000860014902", "to": "000860015102", "weight": 120}, {"from": "000860015102", "to": "000860015205", "weight": 300}, {"from": "000860015205", "to": "000860016401", "weight": 120}, {"from": "000860016401", "to": "000860015302", "weight": 120}, {"from": "000860015302", "to": "000860015402", "weight": 180}, {"from": "000860015402", "to": "000860015603", "weight": 360}, {"from": "000860005301", "to": "000860430201", "weight": 120}, {"from": "000860015302", "to": "000860015401", "weight": 180}, {"from": "000860015401", "to": "000860015502", "weight": 120}, {"from": "000860015502", "to": "000860015603", "weight": 300}, {"from": "000860015603", "to": "000860015701", "weight": 240}, {"from": "000860015701", "to": "000860015801", "weight": 240}, {"from": "000860015801", "to": "000860015903", "weight": 240}, {"from": "000860015801", "to": "000860015902", "weight": 240}, {"from": "000860015902", "to": "000860016001", "weight": 240}, {"from": "000860016001", "to": "000860016201", "weight": 540}, {"from": "000860016201", "to": "000860016301", "weight": 420}, {"from": "000860016301", "to": "000860016502", "weight": 180}, {"from": "000860015202", "to": "000860431802", "weight": 120}, {"from": "000860431802", "to": "000860431702", "weight": 180}, {"from": "000860431702", "to": "000860431502", "weight": 120}, {"from": "000860431502", "to": "000860431402", "weight": 120}, {"from": "000860431402", "to": "000860431302", "weight": 60}, {"from": "000860431302", "to": "000860431202", "weight": 60}, {"from": "000860431202", "to": "000860431102", "weight": 120}, {"from": "000860431102", "to": "000860431002", "weight": 60}, {"from": "000860431002", "to": "000860430902", "weight": 120}, {"from": "000860430902", "to": "000860430802", "weight": 120}, {"from": "000860430802", "to": "000860430702", "weight": 60}, {"from": "000860430702", "to": "000860430602", "weight": 120}, {"from": "000860430602", "to": "000860430502", "weight": 60}, {"from": "000860430502", "to": "000860430402", "weight": 60}, {"from": "000860430402", "to": "000860430302", "weight": 180}, {"from": "000860430302", "to": "000860012902", "weight": 120}, {"from": "000860431601", "to": "000860431502", "weight": 60}, {"from": "000860430202", "to": "000860005301", "weight": 120}, {"from": "000860431103", "to": "000860431002", "weight": 60}, {"from": "000860005300", "to": "000860152502", "weight": 420}, {"from": "000860152502", "to": "000860152101", "weight": 60}, {"from": "000860152101", "to": "000860150901", "weight": 180}, {"from": "000860150901", "to": "000860152301", "weight": 180}, {"from": "000860152301", "to": "000860151001", "weight": 120}, {"from": "000860151001", "to": "000860151502", "weight": 300}, {"from": "000860005300", "to": "000860151201", "weight": 180}, {"from": "000860151201", "to": "000860152502", "weight": 240}, {"from": "000860152101", "to": "000860152801", "weight": 120}, {"from": "000860152801", "to": "000860150901", "weight": 60}, {"from": "000860151001", "to": "000860151401", "weight": 180}, {"from": "000860151401", "to": "000860151501", "weight": 120}, {"from": "000860151501", "to": "000860152601", "weight": 60}, {"from": "000860152601", "to": "000860150301", "weight": 120}, {"from": "000860150301", "to": "000860151302", "weight": 180}, {"from": "000860151302", "to": "000860150101", "weight": 300}, {"from": "000860150101", "to": "000860152201", "weight": 120}, {"from": "000860152201", "to": "000860151902", "weight": 180}, {"from": "000860152201", "to": "000860151903", "weight": 180}, {"from": "000860151902", "to": "000860152202", "weight": 60}, {"from": "000860152202", "to": "000860150101", "weight": 240}, {"from": "000860150101", "to": "000860151301", "weight": 300}, {"from": "000860151301", "to": "000860150301", "weight": 180}, {"from": "000860150301", "to": "000860152602", "weight": 120}, {"from": "000860152602", "to": "000860151501", "weight": 120}, {"from": "000860151501", "to": "000860151401", "weight": 60}, {"from": "000860151401", "to": "000860151002", "weight": 180}, {"from": "000860151002", "to": "000860152302", "weight": 180}, {"from": "000860152302", "to": "000860150902", "weight": 120}, {"from": "000860150902", "to": "000860152802", "weight": 60}, {"from": "000860152802", "to": "000860152101", "weight": 60}, {"from": "000860152101", "to": "000860152501", "weight": 120}, {"from": "000860152501", "to": "000860151201", "weight": 60}, {"from": "000860151201", "to": "000860005301", "weight": 360}, {"from": "000860012901", "to": "000860430301", "weight": 120}, {"from": "000860430301", "to": "000860430401", "weight": 120}, {"from": "000860430401", "to": "000860430501", "weight": 60}, {"from": "000860430501", "to": "000860430601", "weight": 60}, {"from": "000860430601", "to": "000860430701", "weight": 60}, {"from": "000860430701", "to": "000860430801", "weight": 120}, {"from": "000860430801", "to": "000860430901", "weight": 60}, {"from": "000860430901", "to": "000860431001", "weight": 180}, {"from": "000860431001", "to": "000860431101", "weight": 120}, {"from": "000860431101", "to": "000860431201", "weight": 60}, {"from": "000860431201", "to": "000860431301", "weight": 60}, {"from": "000860431301", "to": "000860431401", "weight": 120}, {"from": "000860431401", "to": "000860431501", "weight": 120}, {"from": "000860431501", "to": "000860431601", "weight": 120}, {"from": "000860152101", "to": "000860152502", "weight": 120}, {"from": "000860152502", "to": "000860151201", "weight": 60}, {"from": "000860431501", "to": "000860431701", "weight": 120}, {"from": "000860431701", "to": "000860431801", "weight": 120}, {"from": "000860431801", "to": "000860015202", "weight": 240}, {"from": "000860151502", "to": "000860151002", "weight": 240}, {"from": "000860150902", "to": "000860152101", "weight": 120}, {"from": "000860152501", "to": "000860005301", "weight": 420}, {"from": "000860431001", "to": "000860431103", "weight": 120}, {"from": "000860152502", "to": "000860005301", "weight": 420}, {"from": "000007400230", "to": "000007401537", "weight": 180}, {"from": "000007401537", "to": "000007400069", "weight": 1020}, {"from": "000007400069", "to": "000007400368", "weight": 660}, {"from": "000007400368", "to": "000007400073", "weight": 1020}, {"from": "000007400073", "to": "000007400366", "weight": 420}, {"from": "000007400366", "to": "000007400079", "weight": 900}, {"from": "000007400004", "to": "000007400045", "weight": 1200}, {"from": "000007400045", "to": "000007400295", "weight": 600}, {"from": "000007400295", "to": "000007400006", "weight": 780}, {"from": "000007400006", "to": "000007400295", "weight": 780}, {"from": "000007400295", "to": "000007400045", "weight": 660}, {"from": "000007400045", "to": "000007400004", "weight": 1140}, {"from": "000007400079", "to": "000007400141", "weight": 360}, {"from": "000007400141", "to": "000007400200", "weight": 960}, {"from": "000007400200", "to": "000007400006", "weight": 1080}, {"from": "000007400006", "to": "000007400200", "weight": 1200}, {"from": "000007400200", "to": "000007400141", "weight": 780}, {"from": "000007400141", "to": "000007400079", "weight": 420}, {"from": "000007400079", "to": "000007400366", "weight": 780}, {"from": "000007400366", "to": "000007400073", "weight": 480}, {"from": "000007400073", "to": "000007400368", "weight": 900}, {"from": "000007400368", "to": "000007400069", "weight": 720}, {"from": "000007400069", "to": "000007401537", "weight": 1260}, {"from": "000007401537", "to": "000007400230", "weight": 300}, {"from": "000007400002", "to": "000007400315", "weight": 480}, {"from": "000007400315", "to": "000007400161", "weight": 660}, {"from": "000007400161", "to": "000007401604", "weight": 540}, {"from": "000007401604", "to": "000007400110", "weight": 960}, {"from": "000007400110", "to": "000007400257", "weight": 960}, {"from": "000007400257", "to": "000007400080", "weight": 1140}, {"from": "000007400080", "to": "000007400257", "weight": 1020}, {"from": "000007400257", "to": "000007400110", "weight": 960}, {"from": "000007400110", "to": "000007401604", "weight": 1080}, {"from": "000007401604", "to": "000007400161", "weight": 480}, {"from": "000007400161", "to": "000007400315", "weight": 660}, {"from": "000007400315", "to": "000007400002", "weight": 600}, {"from": "000007400020", "to": "000007400189", "weight": 900}, {"from": "000007400189", "to": "000007400096", "weight": 840}, {"from": "000007400096", "to": "000007400235", "weight": 840}, {"from": "000007400235", "to": "000007400511", "weight": 360}, {"from": "000007400511", "to": "000007400250", "weight": 840}, {"from": "000007400250", "to": "000007400004", "weight": 660}, {"from": "000007400080", "to": "000007400058", "weight": 720}, {"from": "000007400058", "to": "000007401603", "weight": 360}, {"from": "000007401603", "to": "000007400064", "weight": 720}, {"from": "000007400064", "to": "000007400155", "weight": 720}, {"from": "000007400155", "to": "000007440011", "weight": 420}, {"from": "000007440011", "to": "000007401480", "weight": 300},