{"nodes": [{"id": "1", "lat": 38.94902, "lon": -77.08037, "name": "WISCONSIN AVE NW & RIVER RD NW"}, {"id": "3", "lat": 39.00822, "lon": -76.78036, "name": "9TH ST & RAILROAD AVE"}, {"id": "9", "lat": 38.99026, "lon": -76.98435, "name": "14TH AVE & LANGLEY WAY"}, {"id": "10", "lat": 38.99048, "lon": -76.98452, "name": "14TH AVE & LANGLEY WAY"}, {"id": "11", "lat": 38.98832, "lon": -76.98358, "name": "KANAWHA ST & 14TH AVE"}, {"id": "12", "lat": 38.98477, "lon": -76.98102, "name": "UNIVERSITY BLVD & 15TH AVE"}, {"id": "13", "lat": 38.98557, "lon": -76.98137, "name": "15TH AVE & UNIVERSITY BLVD"}, {"id": "17", "lat": 38.96973, "lon": -76.9727, "name": "23RD AVE & SHERIDAN ST"}, {"id": "18", "lat": 38.96976, "lon": -76.97282, "name": "23RD AVE & SHERIDAN ST"}, {"id": "19", "lat": 38.97225, "lon": -76.97176, "name": "23RD AVE & WOODBERRY ST"}, {"id": "21", "lat": 38.9753, "lon": -76.97163, "name": "23RD AVE & BANNING PL"}, {"id": "22", "lat": 38.9755, "lon": -76.97179, "name": "23RD AVE & BANNING PL"}, {"id": "23", "lat": 38.97719, "lon": -76.97183, "name": "23RD AVE & DREXEL ST"}, {"id": "24", "lat": 38.9768, "lon": -76.97168, "name": "23RD AVE & DREXEL ST"}, {"id": "26", "lat": 38.97956, "lon": -76.97078, "name": "23RD AVE & FORDHAM ST"}, {"id": "28", "lat": 38.8311, "lon": -76.95763, "name": "23RD PKY & KENTON PL"}, {"id": "29", "lat": 38.83223, "lon": -76.95916, "name": "23RD PKWY & JAMESON ST"}, {"id": "30", "lat": 38.8324, "lon": -76.95887, "name": "23RD PKWY & JAMESON ST"}, {"id": "31", "lat": 38.83315, "lon": -76.95942, "name": "IVERSON ST & 23RD PKWY"}, {"id": "32", "lat": 38.83359, "lon": -76.96078, "name": "23RD PKWY & COLEBROOKE DR"}, {"id": "33", "lat": 38.83593, "lon": -76.96104, "name": "23RD PKWY & CALLAWAY ST"}, {"id": "35", "lat": 38.83767, "lon": -76.9603, "name": "23RD PKWY & FOSTER PL"}, {"id": "37", "lat": 38.84049, "lon": -76.96229, "name": "23RD PKY & CATSKILL ST"}, {"id": "39", "lat": 38.8424, "lon": -76.96463, "name": "BERKLEY ST & 23RD PKWY"}, {"id": "40", "lat": 38.94572, "lon": -76.97024, "name": "25TH AVE & ARUNDEL RD"}, {"id": "42", "lat": 38.88383, "lon": -76.92874, "name": "51ST ST SE & D ST SE"}, {"id": "46", "lat": 38.89396, "lon": -76.92838, "name": "51ST ST NE & BANKS PL NE"}, {"id": "72", "lat": 38.83796, "lon": -76.95412, "name": "COLEBROOKE DR & 26TH AVE"}, {"id": "73", "lat": 38.8306, "lon": -76.93228, "name": "OLD BRANCH AVE & OURISMAN DR"}, {"id": "79", "lat": 38.74926, "lon": -76.97623, "name": "OLD FORT RD & GRIFF DR"}, {"id": "81", "lat": 38.8315, "lon": -76.94358, "name": "28TH AVE & RIVIERA ST"}, {"id": "82", "lat": 38.74923, "lon": -76.97633, "name": "OLD FORT RD & THORNE DR"}, {"id": "83", "lat": 38.74678, "lon": -76.97293, "name": "OLD FORT RD & OLD FORT PL"}, {"id": "84", "lat": 38.74701, "lon": -76.97307, "name": "OLD FORT RD & OLD FORT PL"}, {"id": "86", "lat": 38.83039, "lon": -76.94168, "name": "ST BARNABAS RD & 28TH AVE"}, {"id": "89", "lat": 38.74415, "lon": -76.97284, "name": "OLD FORT RD & FRONTIER CT"}, {"id": "90", "lat": 38.84565, "lon": -76.96043, "name": "27TH AVE & 28TH PKWY"}, {"id": "91", "lat": 38.9431, "lon": -76.96864, "name": "UPSHUR ST & 28TH ST"}, {"id": "92", "lat": 38.94322, "lon": -76.96858, "name": "UPSHUR ST & 28TH ST"}, {"id": "93", "lat": 38.74017, "lon": -76.9736, "name": "OLD FORT RD & POWDER HORN DR"}, {"id": "94", "lat": 38.94448, "lon": -76.97111, "name": "28TH PL & RUSSELL AVE"}, {"id": "95", "lat": 38.74, "lon": -76.97383, "name": "OLD FORT RD & THORNTON DR"}, {"id": "96", "lat": 38.94775, "lon": -77.0794, "name": "WISCONSIN AVE NW & ALBEMARLE ST NW"}, {"id": "97", "lat": 38.93666, "lon": -76.95204, "name": "38TH AVE & PARKWOOD ST"}, {"id": "98", "lat": 38.93642, "lon": -76.95206, "name": "38TH AVE & PARKWOOD ST"}, {"id": "99", "lat": 38.73686, "lon": -76.97544, "name": "OLD FORT RD & THOMAS RD"}, {"id": "100", "lat": 38.73554, "lon": -76.97568, "name": "OLD FORT RD & VALLEY VIEW DR"}, {"id": "101", "lat": 38.93774, "lon": -76.95418, "name": "38TH AVE & PERRY ST"}, {"id": "102", "lat": 38.9377, "lon": -76.95447, "name": "38TH AVE & PERRY ST"}, {"id": "103", "lat": 38.73487, "lon": -76.97593, "name": "OLD FORT RD & FOLK DR"}, {"id": "104", "lat": 38.73363, "lon": -76.97585, "name": "OLD FORT RD & TRAFALGAR DR"}, {"id": "105", "lat": 38.93941, "lon": -76.9553, "name": "RHODE ISLAND AVE & 38TH ST"}, {"id": "106", "lat": 38.93941, "lon": -76.95607, "name": "38TH AVE & BUNKER HILL RD"}, {"id": "107", "lat": 38.94035, "lon": -76.95632, "name": "38TH AVE & SHEPHERD ST"}, {"id": "108", "lat": 38.94036, "lon": -76.95617, "name": "38TH AVE & SHEPHERD ST"}, {"id": "109", "lat": 38.94282, "lon": -76.95655, "name": "38TH AVE & UTAH AVE"}, {"id": "111", "lat": 38.9445, "lon": -76.95653, "name": "38TH ST & VOLTA AVE"}, {"id": "113", "lat": 38.94691, "lon": -76.95673, "name": "38TH AVE & WINDOM RD"}, {"id": "114", "lat": 38.94727, "lon": -76.95678, "name": "38TH AVE & WINDOM RD"}, {"id": "115", "lat": 38.94804, "lon": -76.95664, "name": "38TH AVE & ALLISON ST"}, {"id": "116", "lat": 38.94849, "lon": -76.95641, "name": "38TH AVE & ALLISON ST"}, {"id": "121", "lat": 38.95292, "lon": -76.95484, "name": "38TH AVE & HAMILTON ST"}, {"id": "122", "lat": 38.95285, "lon": -76.955, "name": "38TH AVE & HAMILTON ST"}, {"id": "123", "lat": 38.73125, "lon": -76.97601, "name": "OLD FORT RD & GALLAHAN RD"}, {"id": "124", "lat": 38.95451, "lon": -76.95312, "name": "JEFFERSON ST & 38TH AVE"}, {"id": "125", "lat": 38.95334, "lon": -76.95063, "name": "40TH AVE & HAMILTON ST"}, {"id": "126", "lat": 38.95339, "lon": -76.95053, "name": "40TH AVE & 39TH AVE"}, {"id": "127", "lat": 38.95464, "lon": -76.94984, "name": "40TH AVE & JEFFERSON ST"}, {"id": "128", "lat": 38.95468, "lon": -76.95005, "name": "JEFFERSON ST & 40TH AVE"}, {"id": "129", "lat": 38.95658, "lon": -76.95, "name": "40TH AVE & LONGFELLOW ST"}, {"id": "130", "lat": 38.95676, "lon": -76.95012, "name": "40TH AVE & LONGFELLOW ST"}, {"id": "131", "lat": 38.95814, "lon": -76.95011, "name": "40TH AVE & MADISON ST"}, {"id": "132", "lat": 38.9584, "lon": -76.95023, "name": "40TH AVE & MADISON ST"}, {"id": "133", "lat": 38.96002, "lon": -76.94956, "name": "40TH AVE & OGLETHORPE ST"}, {"id": "134", "lat": 38.84421, "lon": -76.9908, "name": "ALABAMA AVE & 12TH ST"}, {"id": "135", "lat": 38.95962, "lon": -76.94644, "name": "42ND AVE & OGLETHORPE ST"}, {"id": "136", "lat": 38.96111, "lon": -76.94633, "name": "42ND AVE & OLIVER ST"}, {"id": "137", "lat": 38.96161, "lon": -76.94644, "name": "42ND AVE & OLIVER ST"}, {"id": "138", "lat": 38.96346, "lon": -76.94616, "name": "42ND AVE & QUEENSBURY RD"}, {"id": "140", "lat": 38.9396, "lon": -76.91773, "name": "ANNAPOLIS RD & 57TH AVE"}, {"id": "141", "lat": 38.94027, "lon": -76.91765, "name": "57TH AVE & ANNAPOLIS RD"}, {"id": "142", "lat": 38.94255, "lon": -76.91726, "name": "57TH AVE & 58TH AVE"}, {"id": "144", "lat": 38.94745, "lon": -76.91518, "name": "EMERSON ST & 57TH AVE"}, {"id": "145", "lat": 38.72875, "lon": -76.97848, "name": "OLD FORT RD & FLAGSHIP AVE"}, {"id": "150", "lat": 38.72362, "lon": -76.9822, "name": "OLD FORT RD & JOMAR DR"}, {"id": "154", "lat": 38.72074, "lon": -76.98334, "name": "OLD FORT RD & #12309"}, {"id": "156", "lat": 38.71981, "lon": -76.98364, "name": "OLD FORT RD & OLD PISCATAWAY RD"}, {"id": "157", "lat": 38.95961, "lon": -76.86976, "name": "85TH AVE & LONGFELLOW ST"}, {"id": "158", "lat": 38.9614, "lon": -76.86991, "name": "WESTBROOK DR & 85TH AVE"}, {"id": "159", "lat": 38.96674, "lon": -76.87212, "name": "85TH PL & POWHATAN ST"}, {"id": "160", "lat": 38.96698, "lon": -76.87211, "name": "85TH PL & POWHATAN ST"}, {"id": "161", "lat": 38.96962, "lon": -76.87206, "name": "85TH PL & FREMONT ST"}, {"id": "162", "lat": 38.97002, "lon": -76.87212, "name": "85TH PL & FREMONT ST"}, {"id": "164", "lat": 38.97256, "lon": -76.87251, "name": "85TH PL & RAVENSWOOD RD"}, {"id": "170", "lat": 38.83322, "lon": -76.9899, "name": "BARNABY ST & WHEELER RD"}, {"id": "171", "lat": 39.00701, "lon": -76.90604, "name": "CHERRYWOOD LN & SPRINGHILL DR"}, {"id": "172", "lat": 39.15065, "lon": -77.05734, "name": "PRINCE PHILIP DR & OLNEY SANDY SPRING RD"}, {"id": "173", "lat": 39.15076, "lon": -77.05747, "name": "PRINCE PHILIP DR & OLNEY SANDY SPRING RD"}, {"id": "193", "lat": 38.71845, "lon": -76.98411, "name": "OLD FORT RD & LIVINGSTON RD"}, {"id": "195", "lat": 38.91109, "lon": -76.92928, "name": "ADDISON RD & ANTELOPE LN"}, {"id": "196", "lat": 38.91123, "lon": -76.92941, "name": "ADDISON RD & ANTELOPE LN"}, {"id": "197", "lat": 38.91101, "lon": -76.92631, "name": "ADDISON RD & DOEWOOD LA"}, {"id": "198", "lat": 38.91121, "lon": -76.92643, "name": "ADDISON RD & DOEWOOD LN"}, {"id": "199", "lat": 38.91048, "lon": -76.92401, "name": "ADDISON RD & ELKWOOD LA"}, {"id": "200", "lat": 38.91065, "lon": -76.92412, "name": "ADDISON RD & ELKWOOD LN"}, {"id": "201", "lat": 38.90955, "lon": -76.92129, "name": "ADDISON RD & N ENGLEWOOD DR"}, {"id": "202", "lat": 38.91005, "lon": -76.92246, "name": "ADDISON RD & N ENGLEWOOD DR"}, {"id": "203", "lat": 38.90771, "lon": -76.91942, "name": "ADDISON RD & CHAPELWOOD LA"}, {"id": "204", "lat": 38.90791, "lon": -76.91983, "name": "ADDISON RD & CHAPELWOOD LA"}, {"id": "205", "lat": 38.90678, "lon": -76.91834, "name": "ADDISON RD & DUNBAR OAKS DR"}, {"id": "206", "lat": 38.9069, "lon": -76.91875, "name": "ADDISON RD & DUNBAR OAKS DR"}, {"id": "207", "lat": 38.90591, "lon": -76.91736, "name": "ADDISON RD & DUEL PL"}, {"id": "208", "lat": 38.90598, "lon": -76.91766, "name": "ADDISON RD & DUEL PL"}, {"id": "209", "lat": 38.90471, "lon": -76.91559, "name": "ADDISON RD & SHERIFF RD"}, {"id": "210", "lat": 38.90461, "lon": -76.91572, "name": "ADDISON RD & SHERIFF RD"}, {"id": "211", "lat": 38.9034, "lon": -76.91443, "name": "ADDISON RD & L ST"}, {"id": "213", "lat": 38.90086, "lon": -76.91291, "name": "ADDISON RD & 60TH AVE"}, {"id": "214", "lat": 38.90082, "lon": -76.91308, "name": "ADDISON RD & 60TH AVE"}, {"id": "217", "lat": 38.89829, "lon": -76.90991, "name": "ADDISON RD & GREIG ST"}, {"id": "218", "lat": 38.89789, "lon": -76.90978, "name": "ADDISON RD & 62ND PL"}, {"id": "219", "lat": 38.89674, "lon": -76.90859, "name": "ADDISON RD & G ST"}, {"id": "220", "lat": 38.89677, "lon": -76.90884, "name": "ADDISON RD & FIELD ST"}, {"id": "222", "lat": 38.89579, "lon": -76.90616, "name": "ADDISON RD & JAMES FARMER WAY"}, {"id": "223", "lat": 38.8937, "lon": -76.90338, "name": "ADDISON RD & EADS ST"}, {"id": "224", "lat": 38.89406, "lon": -76.90354, "name": "ADDISON RD & EADS ST"}, {"id": "226", "lat": 38.71372, "lon": -76.98629, "name": "OLD FORT RD & OLD FORT RD"}, {"id": "227", "lat": 38.89199, "lon": -76.90183, "name": "ADDISON RD & CROWN ST"}, {"id": "228", "lat": 38.89193, "lon": -76.90199, "name": "ADDISON RD & CROWN ST"}, {"id": "231", "lat": 38.88925, "lon": -76.89896, "name": "ADDISON RD & ADEL ST"}, {"id": "232", "lat": 38.88916, "lon": -76.89918, "name": "ADDISON RD & ADEL ST"}, {"id": "233", "lat": 38.88758, "lon": -76.89824, "name": "ADDISON RD & ADAK ST"}, {"id": "235", "lat": 38.98465, "lon": -76.95527, "name": "ADELPHI RD & TULANE DR"}, {"id": "236", "lat": 38.98462, "lon": -76.95556, "name": "ADELPHI RD & TULANE DR"}, {"id": "237", "lat": 39.0812, "lon": -76.9459, "name": "CASTLE BLVD & BRIGGS CHANEY RD"}, {"id": "239", "lat": 38.98335, "lon": -76.9553, "name": "ADELPHI RD & RUTGERS ST"}, {"id": "240", "lat": 38.98356, "lon": -76.95504, "name": "ADELPHI RD & RUTGERS ST"}, {"id": "243", "lat": 38.98169, "lon": -76.95499, "name": "ADELPHI RD & PENNSYLVANIA ST"}, {"id": "244", "lat": 38.98206, "lon": -76.95475, "name": "ADELPHI RD & PURDUE ST"}, {"id": "245", "lat": 38.8302, "lon": -76.99378, "name": "BARNABY ST & BRANDYWINE ST"}, {"id": "247", "lat": 38.97921, "lon": -76.95425, "name": "ADELPHI RD & WELLS PKWY"}, {"id": "248", "lat": 38.97945, "lon": -76.95463, "name": "ADELPHI RD & WELLS PKWY"}, {"id": "251", "lat": 38.9753, "lon": -76.9517, "name": "ADELPHI RD & VAN BUREN ST"}, {"id": "252", "lat": 38.97544, "lon": -76.95213, "name": "ADELPHI RD & VAN BUREN ST"}, {"id": "255", "lat": 38.97351, "lon": -76.95189, "name": "BELCREST RD & ADELPHI RD"}, {"id": "256", "lat": 38.97365, "lon": -76.95221, "name": "BELCREST RD & ADELPHI RD"}, {"id": "261", "lat": 38.95875, "lon": -76.96796, "name": "AGER RD & LANCER DR"}, {"id": "262", "lat": 38.95825, "lon": -76.96739, "name": "AGER RD & LANCER DR"}, {"id": "263", "lat": 38.96014, "lon": -76.96838, "name": "AGER RD & 29TH AVE"}, {"id": "265", "lat": 38.96179, "lon": -76.96963, "name": "AGER RD & NICHOLSON ST"}, {"id": "266", "lat": 38.9639, "lon": -76.97177, "name": "AGER RD & OGLETHORPE ST"}, {"id": "267", "lat": 38.96453, "lon": -76.97205, "name": "AGER RD & OGLETHORPE ST"}, {"id": "270", "lat": 38.96683, "lon": -76.97498, "name": "AGER RD & ROANOKE ST"}, {"id": "271", "lat": 38.96701, "lon": -76.97478, "name": "AGER RD & ROANOKE ST"}, {"id": "293", "lat": 38.7935, "lon": -76.92752, "name": "ALLENTOWN RD & TEMPLE HILL RD"}, {"id": "294", "lat": 38.79295, "lon": -76.92005, "name": "ALLENTOWN RD & KAREN ANNE DR"}, {"id": "295", "lat": 38.79314, "lon": -76.92005, "name": "ALLENTOWN RD & KAREN ANNE DR"}, {"id": "296", "lat": 38.79377, "lon": -76.91751, "name": "ALLENTOWN RD & DODGE LA"}, {"id": "297", "lat": 38.79362, "lon": -76.91742, "name": "ALLENTOWN RD & KINGSTON DR"}, {"id": "298", "lat": 38.7964, "lon": -76.91509, "name": "ALLENTOWN RD & WESTCHESTER CT"}, {"id": "299", "lat": 38.79694, "lon": -76.91431, "name": "ALLENTOWN RD & WESTCHESTER CT"}, {"id": "300", "lat": 38.79834, "lon": -76.913, "name": "ALLENTOWN RD & COOLRIDGE RD"}, {"id": "301", "lat": 38.79866, "lon": -76.91296, "name": "ALLENTOWN RD & COOLRIDGE RD"}, {"id": "302", "lat": 38.80086, "lon": -76.90991, "name": "ALLENTOWN RD & BRINKLEY RD"}, {"id": "303", "lat": 38.80092, "lon": -76.91014, "name": "ALLENTOWN RD & BRINKLEY RD"}, {"id": "304", "lat": 38.80171, "lon": -76.90898, "name": "ALLENTOWN RD & ALLENTOWN WAY"}, {"id": "306", "lat": 38.81615, "lon": -76.89314, "name": "ALLENTOWN RD & COMMAND DR"}, {"id": "307", "lat": 38.81615, "lon": -76.89358, "name": "ALLENTOWN RD & COMMAND DR"}, {"id": "313", "lat": 38.93931, "lon": -76.9401, "name": "ANNAPOLIS RD & 46TH ST"}, {"id": "314", "lat": 38.93905, "lon": -76.93991, "name": "ANNAPOLIS RD & 46TH ST"}, {"id": "321", "lat": 38.93926, "lon": -76.9357, "name": "ANNAPOLIS RD & 48TH ST"}, {"id": "322", "lat": 38.9394, "lon": -76.93676, "name": "ANNAPOLIS RD & 48TH ST"}, {"id": "325", "lat": 38.93936, "lon": -76.93325, "name": "ANNAPOLIS RD & EDMONSTON RD"}, {"id": "326", "lat": 38.93955, "lon": -76.93403, "name": "ANNAPOLIS RD & EDMONSTON RD"}, {"id": "333", "lat": 38.93951, "lon": -76.92949, "name": "ANNAPOLIS RD & 53RD ST"}, {"id": "334", "lat": 38.93968, "lon": -76.92902, "name": "ANNAPOLIS RD & 53RD AVE"}, {"id": "337", "lat": 38.93916, "lon": -76.92679, "name": "ANNAPOLIS RD & 54TH ST"}, {"id": "338", "lat": 38.93901, "lon": -76.92703, "name": "ANNAPOLIS RD & 54TH ST"}, {"id": "341", "lat": 38.93827, "lon": -76.92402, "name": "LANDOVER RD & 55TH AVE"}, {"id": "342", "lat": 38.93866, "lon": -76.92418, "name": "ANNAPOLIS RD & LANDOVER RD"}, {"id": "343", "lat": 38.93896, "lon": -76.92155, "name": "ANNAPOLIS RD & 56TH AVE"}, {"id": "344", "lat": 38.9392, "lon": -76.9217, "name": "ANNAPOLIS RD & 56TH AVE"}, {"id": "345", "lat": 38.94052, "lon": -76.91774, "name": "57TH AVE & PARKWAY SHOPPING CTR"}, {"id": "346", "lat": 38.93862, "lon": -76.91065, "name": "ANNAPOLIS RD & 62ND AVE"}, {"id": "347", "lat": 38.93894, "lon": -76.91053, "name": "ANNAPOLIS RD & 62ND AVE"}, {"id": "350", "lat": 38.94102, "lon": -76.9022, "name": "COOPER LN & WARNER AVE"}, {"id": "351", "lat": 38.94249, "lon": -76.90424, "name": "COOPER LN & ANNAPOLIS RD"}, {"id": "352", "lat": 38.9432, "lon": -76.90232, "name": "ANNAPOLIS RD & 68TH AVE"}, {"id": "353", "lat": 38.94347, "lon": -76.90157, "name": "ANNAPOLIS RD & 68TH AVE"}, {"id": "357", "lat": 38.94508, "lon": -76.89852, "name": "ANNAPOLIS RD & 69TH AVE"}, {"id": "358", "lat": 38.94623, "lon": -76.89426, "name": "ANNAPOLIS RD & 71ST AVE"}, {"id": "359", "lat": 38.94642, "lon": -76.89461, "name": "ANNAPOLIS RD & 71ST AVE"}, {"id": "360", "lat": 38.94681, "lon": -76.89214, "name": "ANNAPOLIS RD & 72ND AVE"}, {"id": "361", "lat": 38.94723, "lon": -76.89171, "name": "ANNAPOLIS RD & GREENVALE PKWY"}, {"id": "362", "lat": 38.94837, "lon": -76.88759, "name": "ANNAPOLIS RD & ARDWICK-ARDMORE RD"}, {"id": "363", "lat": 38.94881, "lon": -76.88761, "name": "ANNAPOLIS RD & ARDWICK ARDMORE RD"}, {"id": "364", "lat": 38.95049, "lon": -76.88602, "name": "ANNAPOLIS RD & GALLATIN ST"}, {"id": "365", "lat": 38.9508, "lon": -76.88625, "name": "ANNAPOLIS RD & GALLATIN ST"}, {"id": "366", "lat": 38.95198, "lon": -76.88457, "name": "ANNAPOLIS RD & 76TH AVE"}, {"id": "367", "lat": 38.9524, "lon": -76.88448, "name": "ANNAPOLIS RD & 76TH AVE"}, {"id": "368", "lat": 38.95224, "lon": -76.88155, "name": "ANNAPOLIS RD & 77TH AVE"}, {"id": "370", "lat": 38.95246, "lon": -76.87756, "name": "HARKINS RD & ANNAPOLIS RD"}, {"id": "371", "lat": 38.95381, "lon": -76.87677, "name": "ANNAPOLIS RD & CROSS ST"}, {"id": "379", "lat": 38.95549, "lon": -76.87369, "name": "ANNAPOLIS RD & RIVERDALE RD"}, {"id": "380", "lat": 38.9557, "lon": -76.87273, "name": "ANNAPOLIS RD & RIVERDALE RD"}, {"id": "383", "lat": 38.95701, "lon": -76.87096, "name": "ANNAPOLIS RD & 85TH AVE"}, {"id": "384", "lat": 38.95721, "lon": -76.86998, "name": "ANNAPOLIS RD & 85TH AVE"}, {"id": "387", "lat": 38.96149, "lon": -76.86252, "name": "ANNAPOLIS RD & PRINCESS GARDEN PARKWAY"}, {"id": "392", "lat": 38.83884, "lon": -77.11668, "name": "FILLMORE AVE & BISDORF DR"}, {"id": "399", "lat": 38.96464, "lon": -76.83991, "name": "ANNAPOLIS RD & SEABROOK RD"}, {"id": "400", "lat": 38.96494, "lon": -76.84006, "name": "ANNAPOLIS RD & SEABROOK RD"}, {"id": "403", "lat": 38.96265, "lon": -76.83284, "name": "ANNAPOLIS RD & FORBES BLVD"}, {"id": "404", "lat": 38.96222, "lon": -76.83247, "name": "ANNAPOLIS RD & FORBES BLVD"}, {"id": "405", "lat": 38.96099, "lon": -76.82956, "name": "ANNAPOLIS RD & GALVESTON RD"}, {"id": "406", "lat": 38.96046, "lon": -76.82941, "name": "ANNAPOLIS RD & GALVESTON RD"}, {"id": "407", "lat": 38.95925, "lon": -76.82705, "name": "ANNAPOLIS RD & BALTIMORE LA"}, {"id": "408", "lat": 38.95847, "lon": -76.82631, "name": "ANNAPOLIS RD & BALTIMORE LA"}, {"id": "409", "lat": 38.95773, "lon": -76.82502, "name": "ANNAPOLIS RD & LOTTSFORD VISTA RD"}, {"id": "415", "lat": 38.95708, "lon": -76.81279, "name": "ANNAPOLIS RD & GLENN DALE RD"}, {"id": "416", "lat": 38.95783, "lon": -76.80536, "name": "ANNAPOLIS RD & SILVERGATE LN"}, {"id": "417", "lat": 38.95757, "lon": -76.80517, "name": "ANNAPOLIS RD & SILVERGATE LA"}, {"id": "418", "lat": 38.96087, "lon": -76.79788, "name": "ANNAPOLIS RD & MD-193"}, {"id": "419", "lat": 38.96166, "lon": -76.79711, "name": "ANNAPOLIS RD & MD-193"}, {"id": "420", "lat": 38.96856, "lon": -76.7892, "name": "ANNAPOLIS RD & SIR LANCELOT DR"}, {"id": "421", "lat": 38.96857, "lon": -76.78865, "name": "ANNAPOLIS RD & SIR LANCELOT DR"}, {"id": "442", "lat": 38.94289, "lon": -76.87018, "name": "ARDWICK ARDMORE RD & ARDWICK PL"}, {"id": "443", "lat": 38.94283, "lon": -76.87072, "name": "ARDWICK ARDMORE RD & ARDWICK PL"}, {"id": "464", "lat": 38.86151, "lon": -76.89169, "name": "ATWOOD ST & ALPINE ST"}, {"id": "465", "lat": 38.82938, "lon": -76.99483, "name": "BARNABY ST & CHESAPEAKE ST"}, {"id": "467", "lat": 38.86163, "lon": -76.88872, "name": "ATWOOD ST & ADDISON RD S"}, {"id": "469", "lat": 38.96603, "lon": -76.89603, "name": "AUBURN AVE & 1ST ST"}, {"id": "470", "lat": 38.96736, "lon": -76.89546, "name": "AUBURN AVE & 2ND ST"}, {"id": "471", "lat": 38.96882, "lon": -76.89482, "name": "AUBURN AVE & 3RD ST"}, {"id": "472", "lat": 38.96428, "lon": -76.89717, "name": "RIVERDALE RD & AUBURN AVE"}, {"id": "473", "lat": 38.96635, "lon": -76.89607, "name": "AUBURN AVE & 1ST ST"}, {"id": "474", "lat": 38.9678, "lon": -76.89544, "name": "AUBURN AVE & 2ND ST"}, {"id": "475", "lat": 38.96915, "lon": -76.89485, "name": "AUBURN AVE & 3RD ST"}, {"id": "477", "lat": 38.81845, "lon": -77.00055, "name": "AUDREY LN & INDIAN HEAD HWY"}, {"id": "479", "lat": 38.82054, "lon": -76.99575, "name": "AUDREY LN & DEAL DR"}, {"id": "482", "lat": 38.82077, "lon": -76.99592, "name": "AUDREY LA & DEAL DR"}, {"id": "483", "lat": 38.82185, "lon": -76.99627, "name": "AUDREY LA & IRVINGTON ST"}, {"id": "491", "lat": 38.9524, "lon": -76.94067, "name": "BALTIMORE AVE & GALLATIN ST"}, {"id": "492", "lat": 38.95425, "lon": -76.94026, "name": "BALTIMORE AVE & HAMILTON ST"}, {"id": "493", "lat": 38.95672, "lon": -76.94001, "name": "BALTIMORE AVE & LONGFELLOW ST"}, {"id": "496", "lat": 38.96236, "lon": -76.9393, "name": "BALTIMORE AVE & RIVERDALE RD"}, {"id": "497", "lat": 38.9631, "lon": -76.94023, "name": "QUEENSBURY RD & BALTIMORE AVE"}, {"id": "498", "lat": 38.96569, "lon": -76.9388, "name": "BALTIMORE AVE & SHERIDAN ST"}, {"id": "499", "lat": 38.96828, "lon": -76.93844, "name": "BALTIMORE AVE & UNDERWOOD ST"}, {"id": "501", "lat": 38.9729, "lon": -76.93779, "name": "BALTIMORE AVE & AMHERST RD"}, {"id": "503", "lat": 38.97184, "lon": -76.90625, "name": "GOOD LUCK RD & SILK TREE DR"}, {"id": "506", "lat": 38.95308, "lon": -76.94041, "name": "BALTIMORE AVE & GALLATIN ST"}, {"id": "507", "lat": 38.95509, "lon": -76.94039, "name": "BALTIMORE AVE & JEFFERSON ST"}, {"id": "508", "lat": 38.95706, "lon": -76.94018, "name": "BALTIMORE AVE & LONGFELLOW ST"}, {"id": "510", "lat": 38.96135, "lon": -76.93945, "name": "BALTIMORE AVE & OLIVER ST"}, {"id": "512", "lat": 38.9668, "lon": -76.93888, "name": "BALTIMORE AVE & TUCKERMAN ST"}, {"id": "513", "lat": 38.96857, "lon": -76.93862, "name": "BALTIMORE AVE & UNDERWOOD ST"}, {"id": "515", "lat": 38.97259, "lon": -76.93805, "name": "BALTIMORE AVE & QUEENS CHAPEL RD"}, {"id": "517", "lat": 38.97739, "lon": -76.93778, "name": "BALTIMORE AVE & GUILFORD RD"}, {"id": "518", "lat": 38.97946, "lon": -76.93779, "name": "BALTIMORE AVE & HARTWICK RD"}, {"id": "519", "lat": 38.98119, "lon": -76.93779, "name": "BALTIMORE AVE & KNOX RD"}, {"id": "520", "lat": 38.98529, "lon": -76.93707, "name": "BALTIMORE AVE & ROSSBOROUGH LN"}, {"id": "521", "lat": 38.98749, "lon": -76.93606, "name": "BALTIMORE AVE & CAMPUS DR"}, {"id": "522", "lat": 38.99016, "lon": -76.93408, "name": "BALTIMORE AVE & LAKELAND RD"}, {"id": "523", "lat": 38.99239, "lon": -76.93337, "name": "BALTIMORE AVE & NAVAHOE RD"}, {"id": "524", "lat": 38.99612, "lon": -76.9317, "name": "BALTIMORE AVE & BERWYN RD"}, {"id": "526", "lat": 39.00377, "lon": -76.93041, "name": "BALTIMORE AVE & CHEROKEE ST"}, {"id": "527", "lat": 39.00681, "lon": -76.92966, "name": "BALTIMORE AVE & ERIE ST"}, {"id": "528", "lat": 39.00857, "lon": -76.92917, "name": "BALTIMORE AVE & INDIAN LN"}, {"id": "529", "lat": 39.01133, "lon": -76.92838, "name": "BALTIMORE AVE & HOLLYWOOD RD"}, {"id": "530", "lat": 39.01369, "lon": -76.92805, "name": "BALTIMORE AVE & CHERRY HILL RD"}, {"id": "532", "lat": 38.97807, "lon": -76.93804, "name": "BALTIMORE AVE & GUILFORD RD"}, {"id": "533", "lat": 38.97974, "lon": -76.93806, "name": "BALTIMORE AVE & HARTWICK RD"}, {"id": "537", "lat": 38.99057, "lon": -76.93419, "name": "BALTIMORE AVE & LAKELAND RD"}, {"id": "539", "lat": 38.99641, "lon": -76.93188, "name": "BALTIMORE AVE & BERWYN RD"}, {"id": "540", "lat": 38.99817, "lon": -76.93166, "name": "BALTIMORE AVE & METZEROTT RD"}, {"id": "541", "lat": 39.00382, "lon": -76.93064, "name": "BALTIMORE AVE & CHEROKEE ST"}, {"id": "542", "lat": 39.00679, "lon": -76.9299, "name": "BALTIMORE AVE & ERIE ST"}, {"id": "543", "lat": 39.00865, "lon": -76.92938, "name": "BALTIMORE AVE & INDIAN LA"}, {"id": "544", "lat": 39.01165, "lon": -76.92853, "name": "BALTIMORE AVE & HOLLYWOOD ST"}, {"id": "545", "lat": 39.01476, "lon": -76.9275, "name": "BALTIMORE AVE & CHERRY HILL RD"}, {"id": "548", "lat": 39.02649, "lon": -76.91937, "name": "BALTIMORE AVE & SUNNYSIDE AVE"}, {"id": "551", "lat": 39.02651, "lon": -76.91972, "name": "BALTIMORE AVE & SUNNYSIDE AVE"}, {"id": "554", "lat": 38.91845, "lon": -76.86879, "name": "BARLOWE RD & RAY LEONARD RD"}, {"id": "555", "lat": 38.91892, "lon": -76.86687, "name": "BARLOWE RD & ALLENDALE DR"}, {"id": "556", "lat": 38.92022, "lon": -76.86499, "name": "BARLOWE RD & LANDOVER RD"}, {"id": "557", "lat": 38.91849, "lon": -76.8706, "name": "BARLOWE RD & PALMER PARK RD"}, {"id": "558", "lat": 38.9186, "lon": -76.86891, "name": "BARLOWE RD & RAY LEONARD RD"}, {"id": "559", "lat": 38.91906, "lon": -76.86702, "name": "BARLOWE RD & ALLENDALE DR"}, {"id": "568", "lat": 38.98999, "lon": -76.87796, "name": "HANOVER PKWY & HANOVER DR"}, {"id": "569", "lat": 38.98373, "lon": -76.87192, "name": "HANOVER PKY & VILLAGE PARK DR"}, {"id": "570", "lat": 38.98139, "lon": -76.86742, "name": "HANOVER PKWY & GOOD LUCK RD"}, {"id": "593", "lat": 38.96904, "lon": -76.74424, "name": "BELAIR DR & STARLIGHT LN"}, {"id": "594", "lat": 38.97158, "lon": -76.74486, "name": "BELAIR DR & TRINITY DR"}, {"id": "599", "lat": 38.96893, "lon": -76.74438, "name": "BELAIR DR & STARLIGHT LN"}, {"id": "600", "lat": 38.97174, "lon": -76.7447, "name": "BELAIR DR & TRINITY DR"}, {"id": "606", "lat": 38.96419, "lon": -76.95291, "name": "BELCREST RD & QUEENS CHAPEL RD"}, {"id": "609", "lat": 38.82916, "lon": -76.99519, "name": "CHESAPEAKE ST & BARNABY ST"}, {"id": "610", "lat": 38.96435, "lon": -76.95265, "name": "BELCREST RD & QUEENS CHAPEL RD"}, {"id": "613", "lat": 38.82906, "lon": -76.99843, "name": "6TH ST & CHESAPEAKE ST"}, {"id": "615", "lat": 38.91325, "lon": -76.88142, "name": "BELLE HAVEN DR & SHERIFF RD"}, {"id": "617", "lat": 38.90767, "lon": -76.87922, "name": "BELLE HAVEN DR & NALLEY RD"}, {"id": "620", "lat": 38.91351, "lon": -76.88179, "name": "BELLE HAVEN DR & SHERIFF RD"}, {"id": "631", "lat": 39.09211, "lon": -77.08001, "name": "GEORGIA AVE & BEL PRE RD"}, {"id": "641", "lat": 39.09387, "lon": -77.07918, "name": "GEORGIA AVE & BEL PRE RD"}, {"id": "642", "lat": 39.09276, "lon": -77.07623, "name": "GRAND PRE RD & BEL PRE RD"}, {"id": "652", "lat": 38.8299, "lon": -77.00051, "name": "4TH ST & BRANDYWINE ST"}, {"id": "653", "lat": 38.83142, "lon": -77.00035, "name": "CONDON TERR & 4TH ST"}, {"id": "656", "lat": 38.84439, "lon": -76.96142, "name": "BERKLEY ST & 26TH AVE"}, {"id": "657", "lat": 38.84342, "lon": -76.9631, "name": "BERKLEY ST & 25TH AVE"}, {"id": "658", "lat": 38.84461, "lon": -76.96135, "name": "BERKLEY ST & 26TH AVE"}, {"id": "659", "lat": 38.84365, "lon": -76.96254, "name": "BERKLEY ST & 25TH AVE"}, {"id": "661", "lat": 38.80896, "lon": -76.99033, "name": "BIRCHWOOD DR & LIVINGSTON RD"}, {"id": "662", "lat": 38.80858, "lon": -76.98712, "name": "BIRCHWOOD DR & FOUNTAIN RD"}, {"id": "663", "lat": 38.80825, "lon": -76.98452, "name": "BIRCHWOOD DR & GALLOWAY DR"}, {"id": "664", "lat": 38.80791, "lon": -76.98301, "name": "BIRCHWOOD DR & BIRCHWOOD CT"}, {"id": "665", "lat": 38.80836, "lon": -76.97964, "name": "BIRCHWOOD DR & FENWOOD AVE"}, {"id": "668", "lat": 38.8087, "lon": -76.98713, "name": "BIRCHWOOD DR & FOUNTAIN RD"}, {"id": "669", "lat": 38.80842, "lon": -76.98477, "name": "BIRCHWOOD DR & GALLOWAY DR"}, {"id": "671", "lat": 38.93561, "lon": -76.94911, "name": "BLADENSBURG RD & 40TH AVE"}, {"id": "672", "lat": 38.93667, "lon": -76.94729, "name": "BLADENSBURG RD & 41ST AVE"}, {"id": "673", "lat": 38.93722, "lon": -76.94601, "name": "BLADENSBURG RD & 43RD AVE"}, {"id": "674", "lat": 38.93523, "lon": -76.95048, "name": "BLADENSBURG RD & 38TH AVE"}, {"id": "675", "lat": 38.93615, "lon": -76.94786, "name": "BLADENSBURG RD & 40TH PL"}, {"id": "676", "lat": 38.93631, "lon": -76.94728, "name": "41ST AVE & BLADENSBURG RD"}, {"id": "677", "lat": 38.93755, "lon": -76.94482, "name": "BLADENSBURG RD & 43RD AVE"}, {"id": "701", "lat": 38.986, "lon": -76.74429, "name": "MILLSTREAM DR & MEDIA LN"}, {"id": "702", "lat": 38.98588, "lon": -76.74436, "name": "MILLSTREAM DR & MEDIA LN"}, {"id": "703", "lat": 38.98552, "lon": -76.7411, "name": "MILLSTREAM DR & MEMORY LN"}, {"id": "704", "lat": 38.98518, "lon": -76.74087, "name": "MILLSTREAM DR & MEMORY LN"}, {"id": "705", "lat": 38.98284, "lon": -76.7402, "name": "MILLSTREAM DR & MADELEY LA"}, {"id": "706", "lat": 38.98473, "lon": -76.75091, "name": "MILLSTREAM DR & MACKELL LN"}, {"id": "707", "lat": 38.98578, "lon": -76.74908, "name": "MILLSTREAM DR & MARGIN WAY"}, {"id": "709", "lat": 38.9793, "lon": -76.73807, "name": "MILLSTREAM DR & MARQUETTE LN"}, {"id": "711", "lat": 38.95741, "lon": -76.74416, "name": "KENHILL DR & KEMMERTON LN"}, {"id": "713", "lat": 38.96838, "lon": -76.75335, "name": "TULIP GROVE DR & FOLSOM LA"}, {"id": "714", "lat": 38.96855, "lon": -76.75361, "name": "TULIP GROVE DR & TWISTING LA"}, {"id": "715", "lat": 38.96748, "lon": -76.74392, "name": "BELAIR DR & SKYLARK LN"}, {"id": "716", "lat": 38.97361, "lon": -76.74315, "name": "BELAIR DR & STAFFORD LA"}, {"id": "717", "lat": 38.97676, "lon": -76.7411, "name": "BELAIR DR & SUSSEX LA"}, {"id": "718", "lat": 38.9736, "lon": -76.74338, "name": "BELAIR DR & TEAL LA"}, {"id": "720", "lat": 38.97644, "lon": -76.73686, "name": "STONYBROOK DR & SHAWMONT LN"}, {"id": "726", "lat": 38.95678, "lon": -76.81235, "name": "ANNAPOLIS RD & GLENN DALE RD"}, {"id": "727", "lat": 38.96476, "lon": -76.84842, "name": "ANNAPOLIS RD & FONTANA DR"}, {"id": "728", "lat": 38.96505, "lon": -76.8485, "name": "ANNAPOLIS RD & FONTANA DR"}, {"id": "729", "lat": 38.96444, "lon": -76.85104, "name": "ANNAPOLIS RD & WASHINGTON BLVD"}, {"id": "730", "lat": 38.96414, "lon": -76.85089, "name": "ANNAPOLIS RD & WASHINGTON BLVD"}, {"id": "731", "lat": 38.96383, "lon": -76.85344, "name": "ANNAPOLIS RD & MORLEY RD"}, {"id": "732", "lat": 38.96415, "lon": -76.85304, "name": "ANNAPOLIS RD & MORLEY RD"}, {"id": "734", "lat": 38.96232, "lon": -76.85754, "name": "WHITFIELD CHAPEL RD & #5608"}, {"id": "736", "lat": 38.96034, "lon": -76.85743, "name": "WHITFIELD CHAPEL RD & OLD BROWNS LN"}, {"id": "737", "lat": 38.95879, "lon": -76.85808, "name": "WHITFIELD CHAPEL RD & HOWSER LN"}, {"id": "738", "lat": 38.95983, "lon": -76.85768, "name": "WHITFIELD CHAPEL RD & STEVENS LN"}, {"id": "739", "lat": 38.96266, "lon": -76.85733, "name": "WHITFIELD CHAPEL RD & #5649"}, {"id": "740", "lat": 38.96197, "lon": -76.86261, "name": "ANNAPOLIS RD & PRINCESS GARDEN PKWY"}, {"id": "741", "lat": 38.95254, "lon": -76.87815, "name": "HARKINS RD & ANNAPOLIS RD"}, {"id": "744", "lat": 38.89138, "lon": -76.83537, "name": "PRINCE PL & COMMERCE PL"}, {"id": "746", "lat": 38.8978, "lon": -76.79024, "name": "MD-193 & CHESTERTON DR"}, {"id": "747", "lat": 38.89019, "lon": -76.78425, "name": "KEVERTON DR & WATKINS PARK DR"}, {"id": "748", "lat": 38.89623, "lon": -76.78736, "name": "CAMBLETON DR & WEYMOUTH ST"}, {"id": "749", "lat": 38.89489, "lon": -76.78475, "name": "CAMBLETON DR & STATON DR"}, {"id": "750", "lat": 38.8944, "lon": -76.78151, "name": "CAMBLETON DR & ESSENTON DR"}, {"id": "751", "lat": 38.85448, "lon": -76.95772, "name": "BRANCH AVE & SOUTHERN AVE"}, {"id": "753", "lat": 38.84665, "lon": -76.95233, "name": "BRANCH AVE & CURTIS DR"}, {"id": "755", "lat": 38.84243, "lon": -76.94855, "name": "BRANCH AVE & COLEBROOKE DR"}, {"id": "756", "lat": 38.84014, "lon": -76.94733, "name": "BRANCH AVE & IVERSON ST"}, {"id": "761", "lat": 38.84715, "lon": -76.95214, "name": "BRANCH AVE & CURTIS DR"}, {"id": "762", "lat": 38.84079, "lon": -76.94728, "name": "BRANCH AVE & IVERSON ST"}, {"id": "765", "lat": 39.00113, "lon": -76.9076, "name": "BREEZEWOOD DR & CHERRYWOOD TERR"}, {"id": "766", "lat": 39.00128, "lon": -76.90957, "name": "BREEZEWOOD DR & CHERRYWOOD LA"}, {"id": "767", "lat": 39.00122, "lon": -76.90774, "name": "BREEZEWOOD DR & CHERRYWOOD TERR"}, {"id": "769", "lat": 38.85776, "lon": -76.88936, "name": "GATEWAY BLVD & BRETON DR"}, {"id": "770", "lat": 38.85892, "lon": -76.88982, "name": "BRETON DR & FOSTER ST"}, {"id": "771", "lat": 38.85893, "lon": -76.88996, "name": "BRETON DR & FOSTER ST"}, {"id": "772", "lat": 38.86003, "lon": -76.88989, "name": "BRETON DR & DISTRICT HGTS PKWY"}, {"id": "774", "lat": 38.92057, "lon": -76.85981, "name": "BRIGHTSEAT RD & MAPLE RIDGE APTS"}, {"id": "775", "lat": 38.92237, "lon": -76.85873, "name": "BRIGHTSEAT RD & EVARTS ST"}, {"id": "777", "lat": 38.92559, "lon": -76.85857, "name": "BRIGHTSEAT RD & GIRARD ST"}, {"id": "778", "lat": 38.9265, "lon": -76.85872, "name": "BRIGHTSEAT RD & HAMLIN ST"}, {"id": "780", "lat": 38.92936, "lon": -76.85939, "name": "BRIGHTSEAT RD & MCLAIN AVE"}, {"id": "781", "lat": 38.90144, "lon": -77.03436, "name": "I ST & 15TH ST NW"}, {"id": "784", "lat": 38.92276, "lon": -76.85885, "name": "BRIGHTSEAT RD & EVARTS ST"}, {"id": "786", "lat": 38.92682, "lon": -76.85898, "name": "BRIGHTSEAT RD & HAMLIN ST"}, {"id": "787", "lat": 38.92862, "lon": -76.85934, "name": "BRIGHTSEAT RD & REICHER ST"}, {"id": "788", "lat": 38.80606, "lon": -76.96347, "name": "GLEN ROCK AVE & BRINKLEY RD"}, {"id": "792", "lat": 38.80318, "lon": -76.95017, "name": "BRINKLEY RD & HUNTLEY SQ DR"}, {"id": "793", "lat": 38.80061, "lon": -76.94174, "name": "BRINKLEY RD & CHERRYFIELD RD"}, {"id": "795", "lat": 38.8002, "lon": -76.93805, "name": "BRINKLEY RD & MIDDLEFIELD RD"}, {"id": "796", "lat": 38.80044, "lon": -76.93545, "name": "BRINKLEY RD & TRUDE ST"}, {"id": "797", "lat": 38.80018, "lon": -76.93221, "name": "BRINKLEY RD & FARMER DR"}, {"id": "798", "lat": 38.80068, "lon": -76.92974, "name": "BRINKLEY RD & TEMPLE HILL RD"}, {"id": "799", "lat": 38.80592, "lon": -76.96357, "name": "GLEN ROCK AVE & BRINKLEY RD"}, {"id": "803", "lat": 38.80318, "lon": -76.94942, "name": "BRINKLEY RD & ARBOR VIEW APTS"}, {"id": "804", "lat": 38.80106, "lon": -76.94235, "name": "BRINKLEY RD & ROBERTS DR"}, {"id": "806", "lat": 38.80038, "lon": -76.93776, "name": "BRINKLEY RD & MORTON PL"}, {"id": "807", "lat": 38.80055, "lon": -76.93514, "name": "BRINKLEY RD & TRUDE ST"}, {"id": "808", "lat": 38.80031, "lon": -76.93191, "name": "BRINKLEY RD & FARMER DR"}, {"id": "809", "lat": 38.80067, "lon": -76.93039, "name": "BRINKLEY RD & TEMPLE HILL RD"}, {"id": "812", "lat": 38.81764, "lon": -77.27388, "name": "TWINBROOK RD & BRADDOCK RD"}, {"id": "813", "lat": 38.80913, "lon": -77.27823, "name": "GUINEA RD & BRONTE DR"}, {"id": "814", "lat": 38.96896, "lon": -76.73157, "name": "BUCKINGHAM DR & BRIERDALE LN"}, {"id": "815", "lat": 38.96778, "lon": -76.72966, "name": "BUCKINGHAM DR & BARRISTER LN"}, {"id": "816", "lat": 38.96548, "lon": -76.72824, "name": "BUCKINGHAM DR & BARBERRY LN"}, {"id": "817", "lat": 38.96408, "lon": -76.72841, "name": "BUCKINGHAM DR & BABBITT LN"}, {"id": "818", "lat": 38.96168, "lon": -76.72649, "name": "BUCKINGHAM DR & BELAIR DR"}, {"id": "819", "lat": 38.9691, "lon": -76.73153, "name": "BUCKINGHAM DR & BRADFORD LN"}, {"id": "820", "lat": 38.96775, "lon": -76.72984, "name": "BUCKINGHAM DR & BARRISTER LN"}, {"id": "821", "lat": 38.96561, "lon": -76.72806, "name": "BUCKINGHAM DR & BEAVERDALE LN"}, {"id": "822", "lat": 38.96194, "lon": -76.72641, "name": "BUCKINGHAM DR & BELAIR DR"}, {"id": "825", "lat": 39.05705, "lon": -76.9511, "name": "CALVERTON BLVD & GRACEFIELD RD"}, {"id": "826", "lat": 39.05684, "lon": -76.94834, "name": "CALVERTON BLVD & SHANANDALE DR"}, {"id": "827", "lat": 39.05654, "lon": -76.94638, "name": "CALVERTON BLVD & CRAIGLAWN RD"}, {"id": "828", "lat": 39.05623, "lon": -76.94408, "name": "CALVERTON BLVD & GALWAY DR"}, {"id": "830", "lat": 39.05292, "lon": -76.94067, "name": "CALVERTON BLVD & CHAPEL VIEW DR"}, {"id": "832", "lat": 39.0516, "lon": -76.93741, "name": "CALVERTON BLVD & BELTSVILLE DR"}, {"id": "833", "lat": 39.05695, "lon": -76.95084, "name": "CALVERTON BLVD & GRACEFIELD RD"}, {"id": "834", "lat": 39.05698, "lon": -76.94828, "name": "CALVERTON BLVD & SHANANDALE DR"}, {"id": "835", "lat": 39.05667, "lon": -76.94642, "name": "CALVERTON BLVD & CRAIGLAWN RD"}, {"id": "836", "lat": 39.05648, "lon": -76.94427, "name": "GALWAY DR & CALVERTON BLVD"}, {"id": "846", "lat": 38.98774, "lon": -76.93951, "name": "CAMPUS DR & REGENTS DR"}, {"id": "849", "lat": 38.98783, "lon": -76.93856, "name": "CAMPUS DR & REGENTS DR"}, {"id": "859", "lat": 39.00205, "lon": -76.90974, "name": "CHERRYWOOD LN & BREEZEWOOD DR"}, {"id": "873", "lat": 38.97314, "lon": -76.87275, "name": "85TH PL & CARROLLTON PKWY"}, {"id": "874", "lat": 38.97223, "lon": -76.87506, "name": "CARROLLTON PKWY & FAIRBANKS ST"}, {"id": "875", "lat": 38.97016, "lon": -76.87749, "name": "CARROLLTON PKY & QUENTIN ST"}, {"id": "876", "lat": 38.96986, "lon": -76.88013, "name": "CARROLLTON PKWY & LAMONT DR"}, {"id": "877", "lat": 38.97327, "lon": -76.87346, "name": "CARROLLTON PKWY & 85TH PL"}, {"id": "878", "lat": 38.97251, "lon": -76.87486, "name": "CARROLLTON PKWY & FAIRBANKS ST"}, {"id": "879", "lat": 38.97025, "lon": -76.87753, "name": "CARROLLTON PKWY & QUENTIN ST"}, {"id": "887", "lat": 39.08133, "lon": -76.94607, "name": "CASTLE BLVD & BRIGGS CHANEY RD"}, {"id": "891", "lat": 39.08149, "lon": -76.94648, "name": "BRIGGS CHANEY RD & CASTLE BLVD"}, {"id": "925", "lat": 38.88545, "lon": -76.90758, "name": "CENTRAL AVE & VENTURA AVE"}, {"id": "926", "lat": 38.88576, "lon": -76.90532, "name": "CENTRAL AVE & XENIA AVE"}, {"id": "927", "lat": 38.88597, "lon": -76.90391, "name": "CENTRAL AVE & ROLLINS AVE"}, {"id": "931", "lat": 38.88842, "lon": -76.87865, "name": "CENTRAL AVE & SHADY GLEN RD"}, {"id": "933", "lat": 38.88754, "lon": -76.88653, "name": "CENTRAL AVE & DAIMLER DR"}, {"id": "937", "lat": 38.88901, "lon": -76.86936, "name": "CENTRAL AVE & JONQUIL AVE"}, {"id": "938", "lat": 38.88934, "lon": -76.86568, "name": "CENTRAL AVE & WESTHAMPTON AVE"}, {"id": "940", "lat": 38.8899, "lon": -76.85968, "name": "CENTRAL AVE & NORAIR AVE"}, {"id": "943", "lat": 38.89975, "lon": -76.79346, "name": "CENTRAL AVE & WATKINS PARK DR"}, {"id": "944", "lat": 38.9002, "lon": -76.78068, "name": "CENTRAL AVE & STATON DR"}, {"id": "946", "lat": 38.90224, "lon": -76.75642, "name": "CENTRAL AVE & CHURCH RD"}, {"id": "947", "lat": 38.90122, "lon": -76.73306, "name": "HALL RD & POINTER RIDGE DR"}, {"id": "949", "lat": 38.88537, "lon": -76.90898, "name": "CENTRAL AVE & TUNIC AVE"}, {"id": "950", "lat": 38.88561, "lon": -76.90728, "name": "CENTRAL AVE & VALE PL"}, {"id": "951", "lat": 38.88596, "lon": -76.90499, "name": "CENTRAL AVE & MARYLAND PARK DR"}, {"id": "955", "lat": 38.88869, "lon": -76.87823, "name": "CENTRAL AVE & HILL RD"}, {"id": "956", "lat": 38.95829, "lon": -77.44946, "name": "AVIATION DR & AUTOPILOT DR"}, {"id": "957", "lat": 38.88781, "lon": -76.88684, "name": "CENTRAL AVE & DAIMLER DR"}, {"id": "958", "lat": 38.8878, "lon": -76.88388, "name": "CENTRAL AVE & PEPPER MILL DR"}, {"id": "961", "lat": 38.88918, "lon": -76.87068, "name": "CENTRAL AVE & JONQUIL AVE"}, {"id": "962", "lat": 38.88965, "lon": -76.86542, "name": "CENTRAL AVE & WESTHAMPTON AVE"}, {"id": "964", "lat": 38.89025, "lon": -76.85926, "name": "CENTRAL AVE & NORAIR AVE"}, {"id": "966", "lat": 38.89069, "lon": -76.85471, "name": "CENTRAL AVE & BRIGHTSEAT RD"}, {"id": "967", "lat": 38.90003, "lon": -76.79413, "name": "CENTRAL AVE & ENTERPRISE RD"}, {"id": "968", "lat": 38.90049, "lon": -76.78242, "name": "CENTRAL AVE & STATON DR"}, {"id": "970", "lat": 38.90184, "lon": -76.757, "name": "CENTRAL AVE & CHURCH RD"}, {"id": "972", "lat": 39.01677, "lon": -76.93226, "name": "CHERRY HILL RD & 47TH AVE"}, {"id": "973", "lat": 39.03917, "lon": -76.94806, "name": "POWDER MILL RD & CHERRY HILL RD"}, {"id": "974", "lat": 39.04233, "lon": -76.94988, "name": "CHERRY HILL RD & CHERRY HILL CT"}, {"id": "975", "lat": 39.04452, "lon": -76.95163, "name": "CHERRY HILL RD & TOWNLEY APARTMENTS"}, {"id": "977", "lat": 39.01655, "lon": -76.93226, "name": "CHERRY HILL RD & 47TH AVE"}, {"id": "981", "lat": 38.93334, "lon": -76.91464, "name": "CHEVERLY AVE & MONTROSE RD"}, {"id": "982", "lat": 38.9313, "lon": -76.91326, "name": "CHEVERLY AVE & LOMBARD ST"}, {"id": "983", "lat": 38.92974, "lon": -76.91279, "name": "CHEVERLY AVE & KILMER ST"}, {"id": "984", "lat": 38.92779, "lon": -76.91291, "name": "CHEVERLY AVE & INWOOD ST"}, {"id": "985", "lat": 38.92547, "lon": -76.91281, "name": "CHEVERLY AVE & FOREST RD"}, {"id": "987", "lat": 38.92177, "lon": -76.91419, "name": "CHEVERLY AVE & CHEVERLY CIR"}, {"id": "989", "lat": 38.91862, "lon": -76.91497, "name": "CHEVERLY AVE & COLUMBIA PARK RD"}, {"id": "990", "lat": 38.93345, "lon": -76.91449, "name": "CHEVERLY AVE & MONTROSE RD"}, {"id": "991", "lat": 38.93139, "lon": -76.91347, "name": "CHEVERLY AVE & LOMBARD ST"}, {"id": "992", "lat": 38.92997, "lon": -76.91264, "name": "CHEVERLY AVE & KILMER ST"}, {"id": "993", "lat": 38.92807, "lon": -76.91308, "name": "CHEVERLY AVE & INWOOD ST"}, {"id": "994", "lat": 38.92541, "lon": -76.91299, "name": "CHEVERLY AVE & FOREST RD"}, {"id": "995", "lat": 38.92343, "lon": -76.91295, "name": "CHEVERLY AVE & CHEVERLY CIR"}, {"id": "996", "lat": 38.92214, "lon": -76.91423, "name": "CHEVERLY AVE & BELLEVIEW AVE"}, {"id": "998", "lat": 38.91863, "lon": -76.91521, "name": "CHEVERLY AVE & ARBOR ST"}, {"id": "1001", "lat": 38.95437, "lon": -76.979, "name": "CHILLUM RD & LONGFORD DR"}, {"id": "1003", "lat": 38.95622, "lon": -76.98253, "name": "CHILLUM RD & 16TH AVE"}, {"id": "1004", "lat": 38.95804, "lon": -76.98744, "name": "SARGENT RD & CHILLUM RD"}, {"id": "1005", "lat": 38.95975, "lon": -76.98933, "name": "CHILLUM RD & TWIN OAK DR"}, {"id": "1007", "lat": 38.96172, "lon": -76.99353, "name": "CHILLUM RD & RIGGS RD"}, {"id": "1009", "lat": 38.96495, "lon": -76.99941, "name": "CHILLUM RD & KNOLLBROOK DR"}, {"id": "1010", "lat": 38.95612, "lon": -76.99041, "name": "CHILLUM PL & EASTERN AVE"}, {"id": "1011", "lat": 38.95437, "lon": -76.97942, "name": "CHILLUM RD & LONGFORD DR"}, {"id": "1012", "lat": 38.95494, "lon": -76.98051, "name": "CHILLUM RD & 18TH AVE"}, {"id": "1013", "lat": 38.95606, "lon": -76.98263, "name": "CHILLUM RD & 16TH AVE"}, {"id": "1014", "lat": 38.95816, "lon": -76.9866, "name": "CHILLUM RD & SARGENT RD"}, {"id": "1015", "lat": 38.95958, "lon": -76.98938, "name": "CHILLUM RD & TWIN OAK DR"}, {"id": "1017", "lat": 38.96193, "lon": -76.9935, "name": "CHILLUM RD & RIGGS RD"}, {"id": "1020", "lat": 38.9649, "lon": -77.00095, "name": "CHILLUM RD & EASTERN AVE NE"}, {"id": "1021", "lat": 38.96577, "lon": -76.85872, "name": "CIPRIANO RD & 10TH ST"}, {"id": "1022", "lat": 38.96859, "lon": -76.85875, "name": "CIPRIANO RD & 7TH ST"}, {"id": "1023", "lat": 38.97067, "lon": -76.8587, "name": "CIPRIANO RD & 5TH ST"}, {"id": "1024", "lat": 38.97245, "lon": -76.85784, "name": "CIPRIANO RD & 3RD ST"}, {"id": "1025", "lat": 38.97515, "lon": -76.85527, "name": "CIPRIANO RD & WELLINGTON PL"}, {"id": "1026", "lat": 38.97683, "lon": -76.85466, "name": "CIPRIANO RD & TUCKERMAN ST"}, {"id": "1028", "lat": 38.96897, "lon": -76.85899, "name": "CIPRIANO RD & SPRING AVE"}, {"id": "1029", "lat": 38.97096, "lon": -76.8588, "name": "CIPRIANO RD & HICKORY HILL AVE"}, {"id": "1030", "lat": 38.97272, "lon": -76.85739, "name": "CIPRIANO RD & 3RD ST"}, {"id": "1032", "lat": 38.97692, "lon": -76.85448, "name": "CIPRIANO RD & TUCKERMAN ST"}, {"id": "1035", "lat": 38.84114, "lon": -76.94912, "name": "COLEBROOKE DR & FAIRLAWN AVE"}, {"id": "1036", "lat": 38.8404, "lon": -76.9501, "name": "COLEBROOKE DR & GAITHER ST"}, {"id": "1037", "lat": 38.83942, "lon": -76.95164, "name": "COLEBROOKE DR & 28TH PKWY"}, {"id": "1038", "lat": 38.84123, "lon": -76.94917, "name": "COLEBROOKE DR & FAIRLAWN AVE"}, {"id": "1039", "lat": 38.83953, "lon": -76.95171, "name": "COLEBROOKE DR & 28TH PKWY"}, {"id": "1040", "lat": 38.83792, "lon": -76.95377, "name": "26TH AVE & COLEBROOKE DR"}, {"id": "1041", "lat": 38.8371, "lon": -76.95503, "name": "COLEBROOKE DR & 25TH AVE"}, {"id": "1042", "lat": 38.99263, "lon": -77.03554, "name": "COLESVILLE RD & 16TH ST"}, {"id": "1045", "lat": 38.99849, "lon": -77.0266, "name": "COLESVILLE RD & SPRING ST"}, {"id": "1046", "lat": 38.99968, "lon": -77.02603, "name": "COLESVILLE RD & S NOYES DR"}, {"id": "1047", "lat": 39.00148, "lon": -77.02533, "name": "COLESVILLE RD & N NOYES DR"}, {"id": "1048", "lat": 39.00387, "lon": -77.02367, "name": "COLESVILLE RD & ROWEN RD"}, {"id": "1049", "lat": 39.00502, "lon": -77.02322, "name": "COLESVILLE RD & DALE DR"}, {"id": "1050", "lat": 39.00782, "lon": -77.01961, "name": "COLESVILLE RD & SLIGO CREEK PKY"}, {"id": "1051", "lat": 39.0085, "lon": -77.01853, "name": "COLESVILLE RD & FRANKLIN AVE"}, {"id": "1052", "lat": 39.01036, "lon": -77.01736, "name": "COLESVILLE RD & LEIGHTON AVE"}, {"id": "1053", "lat": 39.01225, "lon": -77.01672, "name": "COLESVILLE RD & INDIAN SPRING DR"}, {"id": "1055", "lat": 39.01877, "lon": -77.01391, "name": "COLESVILLE RD & LANARK WAY"}, {"id": "1056", "lat": 39.01988, "lon": -77.01185, "name": "UNIVERSITY BLVD & COLESVILLE RD"}, {"id": "1057", "lat": 39.0237, "lon": -77.01101, "name": "COLESVILLE RD & LORAIN AVE"}, {"id": "1058", "lat": 39.02575, "lon": -77.01107, "name": "COLESVILLE RD & SOUTHWOOD AVE"}, {"id": "1059", "lat": 39.02781, "lon": -77.00926, "name": "COLESVILLE RD & CRESTMOOR DR"}, {"id": "1060", "lat": 38.99242, "lon": -77.0353, "name": "COLESVILLE RD & 16TH ST"}, {"id": "1063", "lat": 38.99743, "lon": -77.02701, "name": "COLESVILLE RD & FENTON ST"}, {"id": "1064", "lat": 38.99876, "lon": -77.02615, "name": "COLESVILLE RD & SPRING ST"}, {"id": "1065", "lat": 38.99983, "lon": -77.02569, "name": "COLESVILLE RD & S NOYES DR"}, {"id": "1066", "lat": 39.0016, "lon": -77.02499, "name": "COLESVILLE RD & N NOYES DR"}, {"id": "1067", "lat": 39.00415, "lon": -77.02381, "name": "COLESVILLE RD & ROWEN RD"}, {"id": "1068", "lat": 39.00507, "lon": -77.02286, "name": "COLESVILLE RD & DALE DR"}, {"id": "1069", "lat": 39.00792, "lon": -77.01997, "name": "COLESVILLE RD & ST ANDREWS WAY"}, {"id": "1071", "lat": 39.0108, "lon": -77.01757, "name": "COLESVILLE RD & LEIGHTON AVE"}, {"id": "1072", "lat": 39.01233, "lon": -77.01705, "name": "COLESVILLE RD & INDIAN SPRING DR"}, {"id": "1076", "lat": 39.02087, "lon": -77.01207, "name": "COLESVILLE RD & UNIVERSITY BLVD"}, {"id": "1077", "lat": 39.02376, "lon": -77.01135, "name": "COLESVILLE RD & LORAIN AVE"}, {"id": "1078", "lat": 39.02585, "lon": -77.0107, "name": "COLESVILLE RD & SOUTHWOOD AVE"}, {"id": "1079", "lat": 39.02811, "lon": -77.00934, "name": "COLESVILLE RD & CRESTMOOR DR"}, {"id": "1080", "lat": 38.90555, "lon": -77.02949, "name": "13TH ST & M ST"}, {"id": "1088", "lat": 39.03279, "lon": -77.00348, "name": "COLUMBIA PIKE & HILLWOOD DR"}, {"id": "1093", "lat": 38.90971, "lon": -77.02866, "name": "P ST NW & LOGAN CIR NW"}, {"id": "1096", "lat": 39.06569, "lon": -77.03486, "name": "RANDOLPH RD & TIVOLI LAKE BLVD"}, {"id": "1099", "lat": 39.0678, "lon": -77.07494, "name": "CONNECTICUT AVE & KAYSON ST"}, {"id": "1100", "lat": 38.97581, "lon": -77.07727, "name": "CONNECTICUT AVE & QUINCY ST"}, {"id": "1101", "lat": 38.97815, "lon": -77.07705, "name": "CONNECTICUT AVE & RAYMOND ST"}, {"id": "1102", "lat": 38.97971, "lon": -77.07729, "name": "CONNECTICUT AVE & SHEPHERD ST"}, {"id": "1103", "lat": 38.98132, "lon": -77.0773, "name": "CONNECTICUT AVE & TAYLOR ST"}, {"id": "1104", "lat": 38.9821, "lon": -77.07704, "name": "CONNECTICUT AVE & THORNAPPLE ST"}, {"id": "1105", "lat": 38.98368, "lon": -77.07704, "name": "CONNECTICUT AVE & WILLIAMS LN"}, {"id": "1106", "lat": 38.98529, "lon": -77.07731, "name": "CONNECTICUT AVE & LELAND ST"}, {"id": "1107", "lat": 38.98686, "lon": -77.07729, "name": "CONNECTICUT AVE & BLACKTHORN ST"}, {"id": "1110", "lat": 38.99022, "lon": -77.0773, "name": "CONNECTICUT AVE & DUNLOP ST"}, {"id": "1111", "lat": 38.99423, "lon": -77.07701, "name": "CONNECTICUT AVE & CHEVY CHASE LAKE DR"}, {"id": "1112", "lat": 38.99597, "lon": -77.07698, "name": "CONNECTICUT AVE & MANOR RD"}, {"id": "1113", "lat": 39.00138, "lon": -77.07691, "name": "CONNECTICUT AVE & MONTROSE DR"}, {"id": "1116", "lat": 39.00948, "lon": -77.08103, "name": "CONNECTICUT AVE & CULVER ST"}, {"id": "1119", "lat": 39.01516, "lon": -77.07911, "name": "CONNECTICUT AVE & SAUL RD"}, {"id": "1121", "lat": 39.02007, "lon": -77.07703, "name": "CONNECTICUT AVE & EVERETT ST"}, {"id": "1122", "lat": 39.02274, "lon": -77.07655, "name": "CONNECTICUT AVE & WASHINGTON ST"}, {"id": "1123", "lat": 39.02491, "lon": -77.07633, "name": "CONNECTICUT AVE & BALTIMORE ST"}, {"id": "1124", "lat": 39.02613, "lon": -77.07652, "name": "CONNECTICUT AVE & WARNER ST"}, {"id": "1125", "lat": 39.02816, "lon": -77.07621, "name": "CONNECTICUT AVE & KNOWLES AVE"}, {"id": "1126", "lat": 39.0293, "lon": -77.07586, "name": "CONNECTICUT AVE & PLYERS MILL RD"}, {"id": "1128", "lat": 39.03351, "lon": -77.07515, "name": "CONNECTICUT AVE & DECATUR AVE"}, {"id": "1129", "lat": 39.03451, "lon": -77.07488, "name": "CONNECTICUT AVE & LAWRENCE AVE"}, {"id": "1132", "lat": 39.04462, "lon": -77.07612, "name": "CONNECTICUT AVE & SPRUELL DR"}, {"id": "1134", "lat": 39.05119, "lon": -77.07469, "name": "CONNECTICUT AVE & VEIRS MILL RD"}, {"id": "1135", "lat": 39.05346, "lon": -77.07423, "name": "CONNECTICUT AVE & BRIGHTVIEW ST"}, {"id": "1136", "lat": 39.05459, "lon": -77.07399, "name": "CONNECTICUT AVE & CAREY ST"}, {"id": "1137", "lat": 39.05693, "lon": -77.07346, "name": "CONNECTICUT AVE & RANDOLPH RD"}, {"id": "1138", "lat": 39.05838, "lon": -77.07318, "name": "CONNECTICUT AVE & EVERTON ST"}, {"id": "1139", "lat": 39.06088, "lon": -77.07336, "name": "CONNECTICUT AVE & GREENLY ST"}, {"id": "1140", "lat": 39.06337, "lon": -77.07369, "name": "CONNECTICUT AVE & WELLER RD"}, {"id": "1141", "lat": 39.06463, "lon": -77.07404, "name": "CONNECTICUT AVE & ISBELL ST"}, {"id": "1144", "lat": 39.06889, "lon": -77.07538, "name": "CONNECTICUT AVE & DEAN RD"}, {"id": "1146", "lat": 39.07643, "lon": -77.08089, "name": "CONNECTICUT AVE & INDEPENDENCE ST"}, {"id": "1147", "lat": 39.07934, "lon": -77.08096, "name": "CONNECTICUT AVE & ASPEN HILL RD"}, {"id": "1149", "lat": 39.08399, "lon": -77.07692, "name": "CONNECTICUT AVE & GEORGIA AVE"}, {"id": "1155", "lat": 38.97354, "lon": -77.07704, "name": "CONNECTICUT AVE & NEWLANDS ST"}, {"id": "1156", "lat": 38.97565, "lon": -77.07704, "name": "CONNECTICUT AVE & QUINCY ST"}, {"id": "1157", "lat": 38.97801, "lon": -77.07729, "name": "CONNECTICUT AVE & ROSEMARY ST"}, {"id": "1159", "lat": 38.98089, "lon": -77.07705, "name": "CONNECTICUT AVE & TAYLOR ST"}, {"id": "1160", "lat": 38.98237, "lon": -77.07731, "name": "CONNECTICUT AVE & THORNAPPLE ST"}, {"id": "1161", "lat": 38.98391, "lon": -77.0773, "name": "CONNECTICUT AVE & VIRGILIA ST"}, {"id": "1162", "lat": 38.98535, "lon": -77.07704, "name": "CONNECTICUT AVE & LELAND ST"}, {"id": "1166", "lat": 38.99035, "lon": -77.07703, "name": "CONNECTICUT AVE & DUNLOP ST"}, {"id": "1167", "lat": 38.99425, "lon": -77.07735, "name": "CONNECTICUT AVE & CHEVY CHASE LAKE DR"}, {"id": "1168", "lat": 38.99703, "lon": -77.07734, "name": "CONNECTICUT AVE & MANOR RD"}, {"id": "1169", "lat": 39.00143, "lon": -77.07728, "name": "CONNECTICUT AVE & PARSONS RD"}, {"id": "1175", "lat": 39.0157, "lon": -77.07853, "name": "CONNECTICUT AVE & SAUL RD"}, {"id": "1176", "lat": 39.01825, "lon": -77.07817, "name": "CONNECTICUT AVE & FRANKLIN ST"}, {"id": "1177", "lat": 39.02057, "lon": -77.07722, "name": "CONNECTICUT AVE & DRESDEN ST"}, {"id": "1178", "lat": 39.02242, "lon": -77.0763, "name": "CONNECTICUT AVE & WASHINGTON ST"}, {"id": "1179", "lat": 39.02432, "lon": -77.07586, "name": "CONNECTICUT AVE & BALTIMORE ST"}, {"id": "1180", "lat": 39.02672, "lon": -77.07693, "name": "CONNECTICUT AVE & KNOWLES AVE"}, {"id": "1181", "lat": 39.02839, "lon": -77.07648, "name": "CONNECTICUT AVE & HOWARD AVE"}, {"id": "1182", "lat": 39.03, "lon": -77.07599, "name": "CONNECTICUT AVE & PLYERS MILL RD"}, {"id": "1184", "lat": 39.03367, "lon": -77.07481, "name": "CONNECTICUT AVE & DECATUR AVE"}, {"id": "1185", "lat": 39.03513, "lon": -77.07525, "name": "CONNECTICUT AVE & LAWRENCE AVE"}, {"id": "1188", "lat": 39.04471, "lon": -77.07646, "name": "CONNECTICUT AVE & SPRUELL DR"}, {"id": "1190", "lat": 39.05128, "lon": -77.0751, "name": "CONNECTICUT AVE & VEIRS MILL RD"}, {"id": "1192", "lat": 39.05459, "lon": -77.07431, "name": "CONNECTICUT AVE & CAREY ST"}, {"id": "1193", "lat": 39.05712, "lon": -77.07403, "name": "RANDOLPH RD & CONNECTICUT AVE"}, {"id": "1194", "lat": 39.05858, "lon": -77.07345, "name": "CONNECTICUT AVE & EVERTON ST"}, {"id": "1195", "lat": 39.06087, "lon": -77.07305, "name": "CONNECTICUT AVE & GREENLY ST"}, {"id": "1196", "lat": 39.06317, "lon": -77.07334, "name": "CONNECTICUT AVE & WELLER RD"}, {"id": "1197", "lat": 39.06472, "lon": -77.07376, "name": "CONNECTICUT AVE & ISBELL ST"}, {"id": "1199", "lat": 39.06868, "lon": -77.0756, "name": "CONNECTICUT AVE & KELSEY ST"}, {"id": "1201", "lat": 39.07626, "lon": -77.08034, "name": "CONNECTICUT AVE & INDEPENDENCE ST"}, {"id": "1202", "lat": 39.08091, "lon": -77.08048, "name": "CONNECTICUT AVE & ASPEN HILL RD"}, {"id": "1210", "lat": 38.85687, "lon": -76.89516, "name": "COUNCIL DR & FOSTER ST"}, {"id": "1211", "lat": 38.85616, "lon": -76.89491, "name": "COUNCIL DR & GATEWAY BLVD"}, {"id": "1212", "lat": 38.85537, "lon": -76.89924, "name": "COUNTY RD & FOSTER ST"}, {"id": "1213", "lat": 38.85652, "lon": -76.89913, "name": "COUNTY RD & ELMHURST ST"}, {"id": "1214", "lat": 38.85801, "lon": -76.89901, "name": "COUNTY RD & DISTRICT HEIGHTS PKY"}, {"id": "1215", "lat": 38.85964, "lon": -76.89868, "name": "COUNTY RD & BELWOOD ST"}, {"id": "1218", "lat": 38.85551, "lon": -76.89904, "name": "COUNTY RD & FOSTER ST"}, {"id": "1219", "lat": 38.85673, "lon": -76.89896, "name": "COUNTY RD & ELMHURST ST"}, {"id": "1220", "lat": 38.85813, "lon": -76.89882, "name": "COUNTY RD & DISTRICT HGTS PKWY"}, {"id": "1221", "lat": 38.86004, "lon": -76.89883, "name": "COUNTY RD & BELWOOD ST"}, {"id": "1229", "lat": 39.00115, "lon": -76.87539, "name": "CRESCENT RD & GARDEN WAY"}, {"id": "1237", "lat": 39.00136, "lon": -76.87484, "name": "CRESCENT RD & GARDENWAY"}, {"id": "1238", "lat": 38.78558, "lon": -76.89778, "name": "OLD BRANCH AVE & ARBUTUS LN"}, {"id": "1239", "lat": 38.78604, "lon": -76.8979, "name": "OLD BRANCH AVE & ARBUTUS LN"}, {"id": "1240", "lat": 38.84441, "lon": -76.95665, "name": "CURTIS DR & HILLCREST PKWY"}, {"id": "1241", "lat": 38.84563, "lon": -76.95429, "name": "CURTIS DR & 31ST AVE"}, {"id": "1243", "lat": 38.84739, "lon": -76.95181, "name": "CURTIS DR & BRANCH AVE"}, {"id": "1244", "lat": 38.92206, "lon": -76.96035, "name": "SOUTH DAKOTA AVE NE & 33RD ST NE"}, {"id": "1247", "lat": 38.8445, "lon": -76.95678, "name": "CURTIS DR & HILLCREST PKWY"}, {"id": "1249", "lat": 38.84638, "lon": -76.95378, "name": "CURTIS DR & 32ND AVE"}, {"id": "1250", "lat": 38.84763, "lon": -76.95151, "name": "CURTIS DR & BRANCH AVE"}, {"id": "1253", "lat": 38.82544, "lon": -76.95077, "name": "DALLAS DR & RALEIGH RD"}, {"id": "1258", "lat": 38.8174, "lon": -76.99307, "name": "DEAL DR & MARCY AVE"}, {"id": "1259", "lat": 38.8181, "lon": -76.99327, "name": "DEAL DR & DUNSTER DR"}, {"id": "1260", "lat": 38.81897, "lon": -76.99368, "name": "DEAL DR & KENNEBEC ST"}, {"id": "1261", "lat": 38.82069, "lon": -76.99563, "name": "DEAL DR & AUDREY LA"}, {"id": "1263", "lat": 38.81834, "lon": -76.99351, "name": "DEAL DR & DUNSTER DR"}, {"id": "1264", "lat": 38.81917, "lon": -76.99361, "name": "KENNEBEC ST & DEAL DR"}, {"id": "1265", "lat": 38.97322, "lon": -76.96077, "name": "DEAN DR & NORTHWEST DR"}, {"id": "1267", "lat": 38.97311, "lon": -76.96074, "name": "DEAN DR & NORTHWEST DR"}, {"id": "1271", "lat": 39.02452, "lon": -77.1266, "name": "DEMOCRACY BLVD & OLD GEORGETOWN RD"}, {"id": "1273", "lat": 39.02317, "lon": -77.13012, "name": "DEMOCRACY BLVD & BELLS MILL RD"}, {"id": "1274", "lat": 39.0222, "lon": -77.13396, "name": "DEMOCRACY BLVD & FERNWOOD RD"}, {"id": "1282", "lat": 39.02322, "lon": -77.13132, "name": "DEMOCRACY BLVD & BELLS MILL RD"}, {"id": "1283", "lat": 39.02286, "lon": -77.13164, "name": "DEMOCRACY BLVD & MAYFIELD DR"}, {"id": "1287", "lat": 39.02497, "lon": -77.13664, "name": "FERNWOOD RD & MARRIOTT DR"}, {"id": "1294", "lat": 39.09176, "lon": -77.15304, "name": "HUNGERFORD DR & N WASHINGTON ST"}, {"id": "1295", "lat": 38.86043, "lon": -76.88989, "name": "DISTRICT HEIGHTS PKY & BRETON DR"}, {"id": "1296", "lat": 38.98162, "lon": -76.86547, "name": "DOCTORS HOSPITAL RDWY & BUS SHELTER"}, {"id": "1324", "lat": 38.97166, "lon": -76.97974, "name": "RIGGS RD & EAST-WEST HWY"}, {"id": "1358", "lat": 39.10067, "lon": -76.84547, "name": "2ND ST & LAUREL AVE"}, {"id": "1366", "lat": 38.99783, "lon": -76.87803, "name": "SOUTHWAY & #7 COURT"}, {"id": "1368", "lat": 39.01593, "lon": -76.92431, "name": "EDGEWOOD RD & 49TH AVE"}, {"id": "1369", "lat": 39.01595, "lon": -76.92124, "name": "EDGEWOOD RD & RHODE ISLAND AVE"}, {"id": "1371", "lat": 39.01609, "lon": -76.92438, "name": "EDGEWOOD RD & 49TH AVE"}, {"id": "1372", "lat": 39.01612, "lon": -76.92131, "name": "EDGEWOOD RD & RHODE ISLAND AVE"}, {"id": "1373", "lat": 38.93969, "lon": -76.93444, "name": "EDMONSTON RD & ANNAPOLIS RD"}, {"id": "1374", "lat": 38.94091, "lon": -76.93424, "name": "EDMONSTON RD & TAYLOR ST"}, {"id": "1375", "lat": 38.94283, "lon": -76.93292, "name": "EDMONSTON RD & UPSHUR ST"}, {"id": "1376", "lat": 38.94354, "lon": -76.93185, "name": "EDMONSTON RD & 51ST ST"}, {"id": "1377", "lat": 38.94505, "lon": -76.9296, "name": "EDMONSTON RD & BUCHANAN ST"}, {"id": "1378", "lat": 38.94648, "lon": -76.92844, "name": "EDMONSTON RD & CHESAPEAKE RD"}, {"id": "1379", "lat": 38.94745, "lon": -76.92757, "name": "EDMONSTON RD & DECATUR ST"}, {"id": "1381", "lat": 38.95001, "lon": -76.92578, "name": "EDMONSTON RD & FARRAGUT ST"}, {"id": "1382", "lat": 38.95099, "lon": -76.9248, "name": "EDMONSTON RD & GALLATIN ST"}, {"id": "1383", "lat": 38.9519, "lon": -76.92376, "name": "EDMONSTON RD & HAMILTON ST"}, {"id": "1384", "lat": 38.97642, "lon": -76.91367, "name": "EDMONSTON RD & RADCLIFFE DR"}, {"id": "1385", "lat": 38.98026, "lon": -76.91296, "name": "EDMONSTON RD & KNOXVILLE DR"}, {"id": "1386", "lat": 38.98132, "lon": -76.91192, "name": "EDMONSTON RD & WELLESLEY DR"}, {"id": "1387", "lat": 38.98361, "lon": -76.91015, "name": "EDMONSTON RD & BRYN MAWR RD"}, {"id": "1388", "lat": 38.98604, "lon": -76.90949, "name": "EDMONSTON RD & CHARLTON AVE"}, {"id": "1390", "lat": 38.99029, "lon": -76.90656, "name": "EDMONSTON RD & PONTIAC ST"}, {"id": "1392", "lat": 38.99886, "lon": -76.90006, "name": "EDMONSTON RD & BREEZEWOOD DR"}, {"id": "1393", "lat": 38.99999, "lon": -76.89872, "name": "EDMONSTON RD & EDMONSTON CT"}, {"id": "1394", "lat": 39.00121, "lon": -76.89801, "name": "EDMONSTON RD & SPRINGHILL CT"}, {"id": "1395", "lat": 39.00334, "lon": -76.89768, "name": "EDMONSTON RD & SPRINGHILL DR"}, {"id": "1396", "lat": 38.93983, "lon": -76.93422, "name": "EDMONSTON RD & ANNAPOLIS RD"}, {"id": "1397", "lat": 38.94101, "lon": -76.93437, "name": "EDMONSTON RD & TAYLOR ST"}, {"id": "1398", "lat": 38.94252, "lon": -76.9331, "name": "EDMONSTON RD & TILDEN RD"}, {"id": "1399", "lat": 38.94374, "lon": -76.93173, "name": "EDMONSTON RD & 51ST ST"}, {"id": "1401", "lat": 38.9467, "lon": -76.92838, "name": "EDMONSTON RD & CHESAPEAKE RD"}, {"id": "1402", "lat": 38.94766, "lon": -76.92759, "name": "EDMONSTON RD & DECATUR ST"}, {"id": "1403", "lat": 38.94913, "lon": -76.92647, "name": "EDMONSTON RD & EMERSON ST"}, {"id": "1405", "lat": 38.95082, "lon": -76.92521, "name": "EDMONSTON RD & GALLATIN ST"}, {"id": "1406", "lat": 38.95223, "lon": -76.92371, "name": "EDMONSTON RD & HAMILTON ST"}, {"id": "1407", "lat": 38.97609, "lon": -76.91365, "name": "EDMONSTON RD & RADCLIFFE DR"}, {"id": "1408", "lat": 38.97996, "lon": -76.91292, "name": "EDMONSTON RD & KNOXVILLE DR"}, {"id": "1409", "lat": 38.98132, "lon": -76.91175, "name": "EDMONSTON RD & WELLESLEY DR"}, {"id": "1410", "lat": 38.98318, "lon": -76.91019, "name": "EDMONSTON RD & BRYN MAWR RD"}, {"id": "1411", "lat": 38.98611, "lon": -76.90929, "name": "EDMONSTON RD & CHARLTON AVE"}, {"id": "1413", "lat": 38.9904, "lon": -76.90663, "name": "EDMONSTON RD & PONTIAC ST"}, {"id": "1414", "lat": 39.00009, "lon": -76.89889, "name": "EDMONSTON RD & EDMONSTON CT"}, {"id": "1415", "lat": 39.00117, "lon": -76.89782, "name": "EDMONSTON RD & SPRINGHILL CT"}, {"id": "1416", "lat": 39.00365, "lon": -76.89786, "name": "EDMONSTON RD & SPRINGHILL DR"}, {"id": "1420", "lat": 38.94717, "lon": -76.91309, "name": "58TH AVE & EMERSON ST"}, {"id": "1427", "lat": 38.97616, "lon": -76.99665, "name": "ETHAN ALLEN AVE & ELM AVE"}, {"id": "1429", "lat": 38.97795, "lon": -77.00179, "name": "ETHAN ALLEN AVE & JACKSON AVE"}, {"id": "1430", "lat": 38.97814, "lon": -77.00576, "name": "ETHAN ALLEN AVE & CARROLL AVE"}, {"id": "1431", "lat": 38.97619, "lon": -76.99696, "name": "ETHAN ALLEN AVE & ELM AVE"}, {"id": "1438", "lat": 38.99779, "lon": -76.87838, "name": "SOUTHWAY & RIDGE RD"}, {"id": "1451", "lat": 39.06618, "lon": -77.17447, "name": "FALLS RD & W KERSEY LA"}, {"id": "1452", "lat": 39.06248, "lon": -77.1766, "name": "FALLS RD & DUNSTER RD"}, {"id": "1454", "lat": 39.05894, "lon": -77.17793, "name": "FALLS RD & CHILHAM PL"}, {"id": "1455", "lat": 39.05719, "lon": -77.17857, "name": "FALLS RD & ATWELL RD"}, {"id": "1457", "lat": 39.05067, "lon": -77.18778, "name": "FALLS RD & TUCKERMAN LA"}, {"id": "1458", "lat": 39.04751, "lon": -77.19029, "name": "FALLS RD & WINTERSET DR"}, {"id": "1459", "lat": 39.04587, "lon": -77.19147, "name": "FALLS RD & GLEN RD"}, {"id": "1460", "lat": 39.04413, "lon": -77.19288, "name": "FALLS RD & MARSEILLE DR"}, {"id": "1461", "lat": 39.04051, "lon": -77.19252, "name": "FALLS RD & WOODINGTON DR"}, {"id": "1462", "lat": 39.03754, "lon": -77.19326, "name": "FALLS RD & ELDWICK WAY"}, {"id": "1465", "lat": 39.06683, "lon": -77.17371, "name": "FALLS RD & KERSEY LA"}, {"id": "1468", "lat": 39.05864, "lon": -77.17777, "name": "FALLS RD & CHILHAM PL"}, {"id": "1469", "lat": 39.05743, "lon": -77.17822, "name": "FALLS RD & ATWELL RD"}, {"id": "1471", "lat": 39.05008, "lon": -77.18839, "name": "FALLS RD & FALLS CHAPEL WAY"}, {"id": "1472", "lat": 39.04764, "lon": -77.19044, "name": "FALLS RD & WINTERSET DR"}, {"id": "1473", "lat": 39.04667, "lon": -77.19112, "name": "FALLS RD & GLEN RD"}, {"id": "1474", "lat": 39.04417, "lon": -77.19273, "name": "FALLS RD & MARSEILLE DR"}, {"id": "1475", "lat": 39.04073, "lon": -77.19269, "name": "FALLS RD & WOODINGTON DR"}, {"id": "1476", "lat": 39.03737, "lon": -77.19309, "name": "FALLS RD & ELDWICK WAY"}, {"id": "1478", "lat": 39.02642, "lon": -77.20458, "name": "FALLS RD & S GLEN RD"}, {"id": "1479", "lat": 39.01907, "lon": -77.20867, "name": "FALLS RD & RIVER RD"}, {"id": "1481", "lat": 38.9902, "lon": -76.87069, "name": "ORA GLEN DR & GREENBROOK DR"}, {"id": "1483", "lat": 38.99421, "lon": -77.024, "name": "FENTON ST & BONIFANT ST"}, {"id": "1484", "lat": 38.99117, "lon": -77.02408, "name": "FENTON ST & SILVER SPRING AVE"}, {"id": "1485", "lat": 38.99, "lon": -77.02381, "name": "FENTON ST & SLIGO AVE"}, {"id": "1488", "lat": 38.99522, "lon": -77.02426, "name": "FENTON ST & WAYNE AVE"}, {"id": "1489", "lat": 38.99462, "lon": -77.02424, "name": "FENTON ST & BONIFANT ST"}, {"id": "1491", "lat": 38.99152, "lon": -77.02392, "name": "FENTON ST & SILVER SPRING AVE"}, {"id": "1492", "lat": 38.98998, "lon": -77.02407, "name": "FENTON ST & SLIGO AVE"}, {"id": "1493", "lat": 38.98849, "lon": -77.02385, "name": "FENTON ST & RICHMOND AVE"}, {"id": "1494", "lat": 38.99717, "lon": -77.0258, "name": "FENTON ST & ROEDER RD"}, {"id": "1495", "lat": 38.99651, "lon": -77.02513, "name": "FENTON ST & ELLSWORTH DR"}, {"id": "1496", "lat": 38.91862, "lon": -76.91648, "name": "ARBOR ST & BELLEVIEW AVE"}, {"id": "1499", "lat": 39.11512, "lon": -77.1657, "name": "FREDERICK RD & REDLAND RD"}, {"id": "1505", "lat": 39.09636, "lon": -77.15448, "name": "MANNAKEE ST & HUNGERFORD DR"}, {"id": "1506", "lat": 39.09641, "lon": -77.15496, "name": "MANNAKEE ST & HUNGERFORD DR"}, {"id": "1514", "lat": 38.80907, "lon": -76.95322, "name": "FISHER RD & ST MORITZ DR"}, {"id": "1515", "lat": 38.81033, "lon": -76.9519, "name": "FISHER RD & DAMIAN DR"}, {"id": "1516", "lat": 38.81184, "lon": -76.95029, "name": "FISHER RD & TEMPLE BLVD"}, {"id": "1517", "lat": 38.8126, "lon": -76.94849, "name": "FISHER RD & FISHER DR"}, {"id": "1518", "lat": 38.81343, "lon": -76.94658, "name": "FISHER RD & HOLTON LA"}, {"id": "1519", "lat": 38.80906, "lon": -76.95335, "name": "FISHER RD & ST MORITZ DR"}, {"id": "1520", "lat": 38.81063, "lon": -76.95174, "name": "FISHER RD & DAMIAN DR"}, {"id": "1521", "lat": 38.81201, "lon": -76.95024, "name": "FISHER RD & TEMPLE BLVD"}, {"id": "1522", "lat": 38.81287, "lon": -76.94834, "name": "FISHER RD & FISHER DR"}, {"id": "1524", "lat": 38.81109, "lon": -77.22325, "name": "BRADDOCK RD & PORT ROYAL RD"}, {"id": "1537", "lat": 38.81106, "lon": -76.98386, "name": "GALLOWAY DR & FENWOOD AVE"}, {"id": "1538", "lat": 38.80927, "lon": -76.98422, "name": "GALLOWAY DR & COLONY RD"}, {"id": "1543", "lat": 39.11275, "lon": -77.16194, "name": "FREDERICK RD & INDIANOLA DR"}, {"id": "1546", "lat": 38.85776, "lon": -76.88831, "name": "GATEWAY BLVD & RAMBLEWOOD DR"}, {"id": "1548", "lat": 38.85561, "lon": -76.896, "name": "GATEWAY BLVD & BLAZER DR"}, {"id": "1549", "lat": 38.85422, "lon": -76.89886, "name": "MARLBORO PIKE & GATEWAY BLVD"}, {"id": "1550", "lat": 38.85763, "lon": -76.88873, "name": "GATEWAY BLVD & RAMBLEWOOD DR"}, {"id": "1551", "lat": 38.8578, "lon": -76.88989, "name": "BRETON DR & GATEWAY BLVD"}, {"id": "1552", "lat": 38.85571, "lon": -76.89611, "name": "GATEWAY BLVD & BLAZER DR"}, {"id": "1553", "lat": 38.85478, "lon": -76.89898, "name": "GATEWAY BLVD & COUNTY RD"}, {"id": "1554", "lat": 38.98517, "lon": -77.02654, "name": "GEORGIA AVE & BLAIR RD"}, {"id": "1558", "lat": 38.99515, "lon": -77.027, "name": "GEORGIA AVE & ELLSWORTH DR"}, {"id": "1559", "lat": 38.99748, "lon": -77.02951, "name": "GEORGIA AVE & CAMERON ST"}, {"id": "1560", "lat": 38.99929, "lon": -77.03146, "name": "GEORGIA AVE & SPRING ST"}, {"id": "1561", "lat": 39.00062, "lon": -77.0333, "name": "GEORGIA AVE & BALLARD ST"}, {"id": "1562", "lat": 39.00231, "lon": -77.0347, "name": "GEORGIA AVE & NOYES DR"}, {"id": "1563", "lat": 39.00419, "lon": -77.03673, "name": "GEORGIA AVE & HIGHLAND DR"}, {"id": "1564", "lat": 39.00507, "lon": -77.03768, "name": "GEORGIA AVE & GRACE CHURCH RD"}, {"id": "1565", "lat": 39.00698, "lon": -77.03929, "name": "GEORGIA AVE & LUZERNE AVE"}, {"id": "1566", "lat": 39.00946, "lon": -77.04038, "name": "GEORGIA AVE & SEMINARY PL"}, {"id": "1569", "lat": 39.01813, "lon": -77.04341, "name": "GEORGIA AVE & TILTON DR"}, {"id": "1570", "lat": 39.01925, "lon": -77.04413, "name": "GEORGIA AVE & BELVEDERE BLVD"}, {"id": "1571", "lat": 39.02118, "lon": -77.0445, "name": "GEORGIA AVE & AUGUST DR"}, {"id": "1572", "lat": 39.02198, "lon": -77.04512, "name": "GEORGIA AVE & DEXTER AVE"}, {"id": "1573", "lat": 39.02417, "lon": -77.04553, "name": "GEORGIA AVE & DENNIS AVE"}, {"id": "1574", "lat": 39.02646, "lon": -77.04632, "name": "GEORGIA AVE & EVANS PKWY"}, {"id": "1575", "lat": 39.02826, "lon": -77.04692, "name": "GEORGIA AVE & DAYTON ST"}, {"id": "1576", "lat": 39.02959, "lon": -77.04772, "name": "GEORGIA AVE & PLYERS MILL RD"}, {"id": "1577", "lat": 39.03206, "lon": -77.04856, "name": "GEORGIA AVE & WINDHAM LA"}, {"id": "1582", "lat": 39.04536, "lon": -77.05196, "name": "GEORGIA AVE & DAWSON AVE"}, {"id": "1585", "lat": 39.05083, "lon": -77.05172, "name": "GEORGIA AVE & HENDERSON AVE"}, {"id": "1586", "lat": 39.0534, "lon": -77.05066, "name": "GEORGIA AVE & SHOREFIELD RD"}, {"id": "1587", "lat": 39.05546, "lon": -77.05018, "name": "GEORGIA AVE & MASON ST"}, {"id": "1591", "lat": 39.06335, "lon": -77.05493, "name": "GEORGIA AVE & GLENALLAN AVE"}, {"id": "1593", "lat": 39.06492, "lon": -77.05746, "name": "GEORGIA AVE & EPPING RD"}, {"id": "1594", "lat": 39.06704, "lon": -77.0597, "name": "GEORGIA AVE & WELLER RD"}, {"id": "1595", "lat": 39.06806, "lon": -77.06082, "name": "GEORGIA AVE & HATHAWAY DR"}, {"id": "1596", "lat": 39.06944, "lon": -77.06244, "name": "GEORGIA AVE & JANET RD"}, {"id": "1597", "lat": 39.07102, "lon": -77.06369, "name": "GEORGIA AVE & KAYSON ST"}, {"id": "1598", "lat": 39.07248, "lon": -77.06514, "name": "GEORGIA AVE & MAY ST"}, {"id": "1599", "lat": 39.07394, "lon": -77.06618, "name": "GEORGIA AVE & REGINA DR"}, {"id": "1600", "lat": 39.07501, "lon": -77.06814, "name": "GEORGIA AVE & VERONA DR"}, {"id": "1601", "lat": 39.07741, "lon": -77.07039, "name": "GEORGIA AVE & HEWITT AVE"}, {"id": "1603", "lat": 39.07964, "lon": -77.07338, "name": "GEORGIA AVE & WENDY LA"}, {"id": "1604", "lat": 39.08139, "lon": -77.07643, "name": "GEORGIA AVE & ASPEN HILL RD"}, {"id": "1606", "lat": 39.08394, "lon": -77.07818, "name": "GEORGIA AVE & CONNECTICUT AVE"}, {"id": "1607", "lat": 39.08411, "lon": -77.0771, "name": "CONNECTICUT AVE & GEORGIA AVE"}, {"id": "1608", "lat": 39.08781, "lon": -77.07991, "name": "GEORGIA AVE & HEATHFIELD RD"}, {"id": "1609", "lat": 39.09011, "lon": -77.08019, "name": "GEORGIA AVE & BEL PRE RD"}, {"id": "1612", "lat": 39.12577, "lon": -77.07271, "name": "GEORGIA AVE & EMORY LA"}, {"id": "1613", "lat": 39.13878, "lon": -77.06874, "name": "GEORGIA AVE & CHERRY VALLEY DR"}, {"id": "1614", "lat": 39.14554, "lon": -77.0673, "name": "GEORGIA AVE & KING WILLIAM DR"}, {"id": "1615", "lat": 39.14818, "lon": -77.06673, "name": "GEORGIA AVE & QUEEN MARY DR"}, {"id": "1618", "lat": 38.98691, "lon": -77.02681, "name": "GEORGIA AVE & 13TH ST"}, {"id": "1619", "lat": 38.99123, "lon": -77.0268, "name": "GEORGIA AVE & SILVER SPRING AVE"}, {"id": "1620", "lat": 38.99144, "lon": -76.84056, "name": "GREENBELT RD & VANDENBERG CT"}, {"id": "1621", "lat": 38.9937, "lon": -77.02687, "name": "GEORGIA AVE & BONIFANT ST"}, {"id": "1623", "lat": 38.99573, "lon": -77.02838, "name": "COLESVILLE RD & GEORGIA AVE"}, {"id": "1624", "lat": 38.99753, "lon": -77.02997, "name": "GEORGIA AVE & CAMERON ST"}, {"id": "1625", "lat": 38.99956, "lon": -77.03217, "name": "GEORGIA AVE & SPRING ST"}, {"id": "1626", "lat": 39.00082, "lon": -77.0331, "name": "GEORGIA AVE & BALLARD ST"}, {"id": "1627", "lat": 39.00243, "lon": -77.03526, "name": "GEORGIA AVE & NOYES DR"}, {"id": "1628", "lat": 39.00428, "lon": -77.03724, "name": "GEORGIA AVE & HIGHLAND DR"}, {"id": "1629", "lat": 39.00551, "lon": -77.03852, "name": "GEORGIA AVE & GRACE CHURCH RD"}, {"id": "1630", "lat": 39.00692, "lon": -77.0396, "name": "GEORGIA AVE & LUZERNE AVE"}, {"id": "1631", "lat": 39.00902, "lon": -77.04053, "name": "GEORGIA AVE & SEMINARY RD"}, {"id": "1635", "lat": 39.01942, "lon": -77.04387, "name": "GEORGIA AVE & BELVEDERE BLVD"}, {"id": "1636", "lat": 39.02073, "lon": -77.04466, "name": "GEORGIA AVE & HILDAROSE DR"}, {"id": "1637", "lat": 39.02249, "lon": -77.04496, "name": "GEORGIA AVE & DEXTER AVE"}, {"id": "1638", "lat": 39.02542, "lon": -77.04629, "name": "GEORGIA AVE & DENNIS AVE"}, {"id": "1639", "lat": 39.02695, "lon": -77.04682, "name": "GEORGIA AVE & EVANS DR"}, {"id": "1641", "lat": 39.02993, "lon": -77.04751, "name": "GEORGIA AVE & PLYERS MILL RD"}, {"id": "1642", "lat": 39.03221, "lon": -77.04829, "name": "GEORGIA AVE & WINDHAM LA"}, {"id": "1643", "lat": 39.03491, "lon": -77.04955, "name": "GEORGIA AVE & VEIRS MILL RD"}, {"id": "1645", "lat": 39.04064, "lon": -77.05165, "name": "GEORGIA AVE & ENNALLS AVE"}, {"id": "1646", "lat": 39.04343, "lon": -77.05221, "name": "GEORGIA AVE & BLUERIDGE AVE"}, {"id": "1647", "lat": 39.0457, "lon": -77.05229, "name": "GEORGIA AVE & DAWSON AVE"}, {"id": "1648", "lat": 39.0473, "lon": -77.0522, "name": "GEORGIA AVE & ARCOLA AVE"}, {"id": "1649", "lat": 39.04959, "lon": -77.05201, "name": "GEORGIA AVE & PARKER AVE"}, {"id": "1650", "lat": 39.05108, "lon": -77.05133, "name": "GEORGIA AVE & HENDERSON AVE"}, {"id": "1651", "lat": 39.0528, "lon": -77.05118, "name": "GEORGIA AVE & WEISMAN RD"}, {"id": "1653", "lat": 39.05818, "lon": -77.0491, "name": "RANDOLPH RD & GEORGIA AVE"}, {"id": "1654", "lat": 39.0602, "lon": -77.05134, "name": "GEORGIA AVE & JUDSON RD"}, {"id": "1656", "lat": 38.98552, "lon": -76.83942, "name": "GOOD LUCK RD & PALAMAR DR"}, {"id": "1658", "lat": 38.77246, "lon": -77.25601, "name": "FIELD MASTER DR & OLD KEENE MILL RD"}, {"id": "1659", "lat": 39.06612, "lon": -77.05902, "name": "GEORGIA AVE & WELLER RD"}, {"id": "1660", "lat": 39.06821, "lon": -77.0614, "name": "GEORGIA AVE & HATHAWAY DR"}, {"id": "1661", "lat": 39.06966, "lon": -77.06217, "name": "GEORGIA AVE & JANET RD"}, {"id": "1662", "lat": 39.07134, "lon": -77.06349, "name": "GEORGIA AVE & KAYSON ST"}, {"id": "1664", "lat": 39.07344, "lon": -77.06627, "name": "GEORGIA AVE & NILES ST"}, {"id": "1665", "lat": 39.07518, "lon": -77.06766, "name": "GEORGIA AVE & VERONA DR"}, {"id": "1666", "lat": 39.07756, "lon": -77.07126, "name": "GEORGIA AVE & HEWITT AVE"}, {"id": "1668", "lat": 39.07973, "lon": -77.07423, "name": "GEORGIA AVE & WENDY LA"}, {"id": "1670", "lat": 39.08115, "lon": -77.07544, "name": "GEORGIA AVE & ASPEN HILL RD"}, {"id": "1671", "lat": 39.08421, "lon": -77.07777, "name": "GEORGIA AVE & CONNECTICUT AVE"}, {"id": "1674", "lat": 39.09094, "lon": -77.07965, "name": "GEORGIA AVE & BEL PRE RD"}, {"id": "1679", "lat": 39.13888, "lon": -77.06832, "name": "GEORGIA AVE & CHERRY VALLEY DR"}, {"id": "1680", "lat": 39.14587, "lon": -77.06687, "name": "GEORGIA AVE & KING WILLIAM DR"}, {"id": "1681", "lat": 39.14856, "lon": -77.06701, "name": "GEORGIA AVE & QUEEN MARY DR"}, {"id": "1683", "lat": 38.82285, "lon": -76.99351, "name": "GLASSMANOR DR & IRVINGTON ST"}, {"id": "1685", "lat": 38.81928, "lon": -76.99278, "name": "KENNEBEC ST & GLASSMANOR DR"}, {"id": "1686", "lat": 38.82274, "lon": -76.99369, "name": "GLASSMANOR DR & IRVINGTON ST"}, {"id": "1689", "lat": 39.06044, "lon": -77.04549, "name": "RANDOLPH RD & GLENALLAN AVE"}, {"id": "1701", "lat": 38.93373, "lon": -76.868, "name": "GLENARDEN PKWY & HAYES ST"}, {"id": "1704", "lat": 38.93089, "lon": -76.86149, "name": "GLENARDEN PKWY & WESLEY ST"}, {"id": "1707", "lat": 38.93162, "lon": -76.86374, "name": "GLENARDEN PKWY & REED ST"}, {"id": "1708", "lat": 38.93089, "lon": -76.86185, "name": "GLENARDEN PKWY & WESLEY ST"}, {"id": "1709", "lat": 38.93014, "lon": -76.85997, "name": "GLENARDEN PKWY & BRIGHTSEAT RD"}, {"id": "1718", "lat": 38.80696, "lon": -76.90227, "name": "ALLENTOWN RD & ROBIN LA"}, {"id": "1720", "lat": 38.9722, "lon": -76.89264, "name": "GOOD LUCK RD & ADRIAN ST"}, {"id": "1721", "lat": 38.97273, "lon": -76.88988, "name": "GOOD LUCK RD & TREXLER RD"}, {"id": "1722", "lat": 38.97469, "lon": -76.88636, "name": "GOOD LUCK RD & NASHVILLE RD"}, {"id": "1723", "lat": 38.97499, "lon": -76.88387, "name": "GOOD LUCK RD & LAMONT ELEMENTARY SCHOOL"}, {"id": "1726", "lat": 38.97792, "lon": -76.85391, "name": "GOOD LUCK RD & CIPRIANO RD"}, {"id": "1727", "lat": 38.97878, "lon": -76.85145, "name": "GOOD LUCK RD & 94TH AVE"}, {"id": "1728", "lat": 38.97988, "lon": -76.84867, "name": "GOOD LUCK RD & PRESLEY RD"}, {"id": "1729", "lat": 38.98055, "lon": -76.84712, "name": "GOOD LUCK RD & 96TH AVE"}, {"id": "1730", "lat": 38.98243, "lon": -76.84393, "name": "GOOD LUCK RD & 97TH PL"}, {"id": "1731", "lat": 38.98326, "lon": -76.84251, "name": "GOOD LUCK RD & 100TH AVE"}, {"id": "1732", "lat": 38.98427, "lon": -76.84083, "name": "GOOD LUCK RD & ELVIS LN"}, {"id": "1733", "lat": 38.77874, "lon": -76.96144, "name": "BOCK RD & MILL CROSSING DR"}, {"id": "1734", "lat": 38.97257, "lon": -76.89129, "name": "GOOD LUCK RD & IAN ST"}, {"id": "1735", "lat": 38.97322, "lon": -76.88893, "name": "GOOD LUCK RD & HARLAND ST"}, {"id": "1736", "lat": 38.97441, "lon": -76.88685, "name": "GOOD LUCK RD & NASHVILLE RD"}, {"id": "1737", "lat": 38.97487, "lon": -76.8837, "name": "GOOD LUCK RD & LAMONT ELEMENTARY SCHOOL"}, {"id": "1741", "lat": 38.979, "lon": -76.85127, "name": "GOOD LUCK RD & 94TH AVE"}, {"id": "1742", "lat": 38.98013, "lon": -76.84847, "name": "GOOD LUCK RD & PRESLEY RD"}, {"id": "1743", "lat": 38.98091, "lon": -76.84675, "name": "GOOD LUCK RD & 96TH AVE"}, {"id": "1744", "lat": 38.9827, "lon": -76.84373, "name": "GOOD LUCK RD & 97TH PL"}, {"id": "1745", "lat": 38.98357, "lon": -76.84229, "name": "GOOD LUCK RD & 100TH AVE"}, {"id": "1746", "lat": 38.98459, "lon": -76.84059, "name": "GOOD LUCK RD & ELVIS LA"}, {"id": "1748", "lat": 38.91775, "lon": -76.91911, "name": "ARBOR ST & 59TH AVE"}, {"id": "1751", "lat": 39.0936, "lon": -77.07583, "name": "BEL PRE RD & GRAND PRE RD"}, {"id": "1753", "lat": 39.08897, "lon": -77.07547, "name": "GRAND PRE RD & CONNECTICUT AVE"}, {"id": "1754", "lat": 39.05492, "lon": -76.95768, "name": "PLUM ORCHARD DR & BROADBIRCH DR"}, {"id": "1755", "lat": 39.05553, "lon": -76.95763, "name": "BROADBIRCH DR & PLUM ORCHARD DR"}, {"id": "1756", "lat": 38.9982, "lon": -76.92952, "name": "GREENBELT RD & 48TH AVE"}, {"id": "1757", "lat": 38.99859, "lon": -76.92537, "name": "RHODE ISLAND AVE & MD-193"}, {"id": "1759", "lat": 38.99938, "lon": -76.9116, "name": "CHERRYWOOD LN & GREENBELT RD"}, {"id": "1760", "lat": 38.99669, "lon": -76.90563, "name": "GREENBELT RD & 63RD AVE"}, {"id": "1761", "lat": 38.99655, "lon": -76.9019, "name": "GREENBELT RD & EDMONSTON RD"}, {"id": "1762", "lat": 38.99477, "lon": -76.87377, "name": "HANOVER PKY & GREENBELT RD"}, {"id": "1764", "lat": 38.9915, "lon": -76.86378, "name": "GREENBELT RD & MANDAN RD"}, {"id": "1766", "lat": 38.99131, "lon": -76.86029, "name": "GREENBELT RD & CHELSEA WOODS CONDOMINIUM"}, {"id": "1767", "lat": 38.99079, "lon": -76.85262, "name": "GREENBELT RD & GODDARD RD"}, {"id": "1769", "lat": 38.99838, "lon": -76.92878, "name": "GREENBELT RD & 48TH AVE"}, {"id": "1770", "lat": 38.99809, "lon": -76.9261, "name": "GREENBELT RD & RHODE ISLAND AVE"}, {"id": "1772", "lat": 38.99947, "lon": -76.91184, "name": "CHERRYWOOD LN & #5510"}, {"id": "1773", "lat": 38.75311, "lon": -77.27279, "name": "RESERVATION DR & HUNT SQUARE CT"}, {"id": "1774", "lat": 38.99686, "lon": -76.90452, "name": "GREENBELT RD & 63RD AVE"}, {"id": "1776", "lat": 38.99487, "lon": -76.87404, "name": "HANOVER PKY & GREENBELT RD"}, {"id": "1778", "lat": 38.99178, "lon": -76.86368, "name": "GREENBELT RD & MANDAN RD"}, {"id": "1781", "lat": 38.99117, "lon": -76.85334, "name": "GREENBELT RD & GODDARD RD"}, {"id": "1784", "lat": 38.92061, "lon": -76.87745, "name": "GREENLEAF RD & MUNCY RD"}, {"id": "1785", "lat": 38.92008, "lon": -76.87559, "name": "GREENLEAF RD & NORMANDY RD"}, {"id": "1786", "lat": 38.92008, "lon": -76.87373, "name": "GREENLEAF RD & ROMNEY CT"}, {"id": "1787", "lat": 38.92007, "lon": -76.87181, "name": "GREENLEAF RD & MATTHEW HENSON AVE"}, {"id": "1789", "lat": 38.9202, "lon": -76.8757, "name": "GREENLEAF RD & NORMANDY RD"}, {"id": "1790", "lat": 38.9202, "lon": -76.87346, "name": "GREENLEAF RD & ROMNEY CT"}, {"id": "1791", "lat": 38.92021, "lon": -76.87197, "name": "GREENLEAF RD & MATTHEW HENSON AVE"}, {"id": "1794", "lat": 39.11535, "lon": -77.16541, "name": "FREDERICK RD & REDLAND RD"}, {"id": "1796", "lat": 39.08792, "lon": -77.15069, "name": "HUNGERFORD DR & BEALL AVE"}, {"id": "1798", "lat": 38.72253, "lon": -76.99248, "name": "GABLE LA & MERCK PL"}, {"id": "1801", "lat": 38.8919, "lon": -76.77643, "name": "WHITEHOLM DR & KEVERTON DR"}, {"id": "1803", "lat": 38.87351, "lon": -77.31467, "name": "JERMANTOWN RD & ARROWHEAD DR"}, {"id": "1804", "lat": 38.87352, "lon": -77.31506, "name": "JERMANTOWN RD & ARROWHEAD DR"}, {"id": "1806", "lat": 39.07128, "lon": -77.16745, "name": "FALLS RD & FALLSMEAD WAY"}, {"id": "1807", "lat": 39.07656, "lon": -77.16287, "name": "GREAT FALLS RD & GREAT FALLS RD"}, {"id": "1816", "lat": 38.84447, "lon": -77.12309, "name": "SEMINARY RD & MAGNOLIA LA"}, {"id": "1818", "lat": 38.93526, "lon": -76.94789, "name": "NEWARK RD & 40TH PL"}, {"id": "1819", "lat": 38.89314, "lon": -76.77823, "name": "WHITEHOLM DR & KENDLE ST"}, {"id": "1821", "lat": 38.95596, "lon": -76.96373, "name": "HAMILTON ST & 31ST AVE"}, {"id": "1822", "lat": 38.95511, "lon": -76.96045, "name": "HAMILTON ST & 35TH AVE"}, {"id": "1823", "lat": 38.95436, "lon": -76.95817, "name": "HAMILTON ST & 36TH AVE"}, {"id": "1824", "lat": 38.95385, "lon": -76.95638, "name": "HAMILTON ST & 37TH AVE"}, {"id": "1825", "lat": 38.95336, "lon": -76.95527, "name": "HAMILTON ST & 38TH AVE"}, {"id": "1829", "lat": 38.95619, "lon": -76.96327, "name": "HAMILTON ST & 31ST AVE"}, {"id": "1831", "lat": 38.95516, "lon": -76.96133, "name": "HAMILTON ST & QUEENS CHAPEL RD"}, {"id": "1832", "lat": 38.95436, "lon": -76.95868, "name": "HAMILTON ST & 36TH AVE"}, {"id": "1833", "lat": 38.9538, "lon": -76.95664, "name": "HAMILTON ST & 37TH AVE"}, {"id": "1835", "lat": 38.95257, "lon": -76.87869, "name": "ANNAPOLIS RD & HAWKINS RD"}, {"id": "1836", "lat": 38.91692, "lon": -77.02729, "name": "U ST NW & 11TH ST NW"}, {"id": "1838", "lat": 38.92404, "lon": -76.88407, "name": "HAWTHORNE ST & KENT VILLAGE DR"}, {"id": "1839", "lat": 38.91711, "lon": -77.02687, "name": "U ST NW & 11TH ST NW"}, {"id": "1840", "lat": 38.92524, "lon": -76.89073, "name": "HAWTHORNE ST & PINEBROOK AVE"}, {"id": "1841", "lat": 38.92395, "lon": -76.88392, "name": "HAWTHORNE ST & KENT VILLAGE DR"}, {"id": "1842", "lat": 38.92464, "lon": -76.88631, "name": "HAWTHORNE ST & KENT TOWN DR"}, {"id": "1844", "lat": 38.92546, "lon": -76.89115, "name": "HAWTHORNE ST & PINEBROOK AVE"}, {"id": "1845", "lat": 38.93393, "lon": -76.86807, "name": "HAYES ST & GLENARDEN PKWY"}, {"id": "1846", "lat": 38.93433, "lon": -76.86717, "name": "HAYES ST & JOHNSON AVE"}, {"id": "1847", "lat": 38.93444, "lon": -76.86726, "name": "HAYES ST & JOHNSON AVE"}, {"id": "1848", "lat": 38.91692, "lon": -77.0292, "name": "U ST NW & 13TH ST NW"}, {"id": "1851", "lat": 38.80873, "lon": -76.97764, "name": "HELMONT DR & FENWOOD AVE"}, {"id": "1852", "lat": 38.80972, "lon": -76.97823, "name": "HELMONT DR & IRONTON DR"}, {"id": "1853", "lat": 38.81186, "lon": -76.98016, "name": "HELMONT DR & CLEARVIEW AVE"}, {"id": "1854", "lat": 38.81326, "lon": -76.98274, "name": "HELMONT DR & DUNDALK DR"}, {"id": "1876", "lat": 38.84374, "lon": -76.90054, "name": "HIL MAR DR & N HIL MAR CIR"}, {"id": "1879", "lat": 38.91711, "lon": -77.02942, "name": "U ST NW & 13TH ST NW"}, {"id": "1885", "lat": 38.71646, "lon": -76.99703, "name": "TANTALLON DR & BUCKMASTER LA"}, {"id": "1888", "lat": 38.89084, "lon": -76.78048, "name": "KEVERTON DR & DAUNTLY ST"}, {"id": "1889", "lat": 38.89743, "lon": -77.02784, "name": "F ST NW & 12TH ST NW"}, {"id": "1891", "lat": 39.06976, "lon": -77.17046, "name": "FALLS RD & WOOTTON PKY"}, {"id": "1894", "lat": 39.08025, "lon": -77.16097, "name": "GREAT FALLS RD & MONUMENT ST"}, {"id": "1895", "lat": 38.96058, "lon": -77.09659, "name": "WILLARD AVE & RIVER RD"}, {"id": "1896", "lat": 38.96282, "lon": -77.09409, "name": "WILLARD AVE & N PARK AVE"}, {"id": "1897", "lat": 38.89583, "lon": -76.80721, "name": "KETTERING DR & HERRINGTON DR"}, {"id": "1898", "lat": 38.96202, "lon": -77.08956, "name": "WILLARD AVE & FRIENDSHIP BLVD"}, {"id": "1901", "lat": 38.82071, "lon": -77.00103, "name": "INDIAN HEAD HWY & SOUTHERN AVE"}, {"id": "1913", "lat": 38.82097, "lon": -77.00091, "name": "INDIAN HEAD HWY & SOUTHERN AVE"}, {"id": "1914", "lat": 38.81898, "lon": -76.99858, "name": "AUDREY LN & NEPTUNE AVE"}, {"id": "1915", "lat": 38.81626, "lon": -76.99856, "name": "INDIAN HEAD HWY & LIVINGSTON RD"}, {"id": "1916", "lat": 38.89386, "lon": -76.8073, "name": "KETTERING DR & RED JADE DR"}, {"id": "1919", "lat": 38.89474, "lon": -76.80729, "name": "KETTERING DR & KETTERING TER"}, {"id": "1926", "lat": 38.82202, "lon": -76.99643, "name": "IRVINGTON ST & AUDREY LN"}, {"id": "1927", "lat": 38.82421, "lon": -76.99089, "name": "IVERSON ST & OWENS RD"}, {"id": "1929", "lat": 38.82392, "lon": -76.98528, "name": "IVERSON ST & SUTLER DR"}, {"id": "1930", "lat": 38.87649, "lon": -77.11344, "name": "N CARLIN SPRINGS RD & N VERMONT ST"}, {"id": "1931", "lat": 38.83004, "lon": -76.96756, "name": "IVERSON ST & 19TH AVE"}, {"id": "1932", "lat": 38.83085, "lon": -76.96487, "name": "IVERSON ST & 21ST AVE"}, {"id": "1933", "lat": 38.83184, "lon": -76.96218, "name": "IVERSON ST & 22ND AVE"}, {"id": "1936", "lat": 38.83432, "lon": -76.95796, "name": "IVERSON ST & 23RD PL"}, {"id": "1937", "lat": 38.835, "lon": -76.9566, "name": "IVERSON ST & 24TH AVE"}, {"id": "1938", "lat": 38.83572, "lon": -76.95508, "name": "IVERSON ST & 25TH AVE"}, {"id": "1939", "lat": 38.83669, "lon": -76.95304, "name": "IVERSON ST & 26TH AVE"}, {"id": "1940", "lat": 38.83777, "lon": -76.95077, "name": "IVERSON ST & 28TH AVE"}, {"id": "1941", "lat": 38.83839, "lon": -76.94879, "name": "IVERSON ST & IVERSON MALL"}, {"id": "1942", "lat": 38.82411, "lon": -76.99073, "name": "IVERSON ST & OWENS RD"}, {"id": "1944", "lat": 38.82408, "lon": -76.98529, "name": "IVERSON ST & SUTLER RD"}, {"id": "1945", "lat": 38.82935, "lon": -76.96783, "name": "IVERSON ST & IVERSON PL"}, {"id": "1946", "lat": 38.83083, "lon": -76.96349, "name": "IVERSON ST & 21ST AVE"}, {"id": "1947", "lat": 38.8318, "lon": -76.96174, "name": "IVERSON ST & 22ND AVE"}, {"id": "1948", "lat": 38.83331, "lon": -76.95969, "name": "IVERSON ST & 23RD PKY"}, {"id": "1950", "lat": 38.83518, "lon": -76.95559, "name": "IVERSON ST & 24TH AVE"}, {"id": "1951", "lat": 38.83609, "lon": -76.9537, "name": "IVERSON ST & 25TH AVE"}, {"id": "1952", "lat": 38.83697, "lon": -76.95182, "name": "IVERSON ST & 26TH AVE"}, {"id": "1953", "lat": 38.83799, "lon": -76.9497, "name": "IVERSON ST & 28TH AVE"}, {"id": "1954", "lat": 38.83857, "lon": -76.94908, "name": "IVERSON ST & IVERSON MALL"}, {"id": "1955", "lat": 38.8924, "lon": -76.80791, "name": "KETTERING DR & KETTERING LA"}, {"id": "1956", "lat": 38.89236, "lon": -76.8077, "name": "KETTERING DR & RED JADE DR"}, {"id": "1958", "lat": 38.95465, "lon": -76.95288, "name": "JEFFERSON ST & 38TH AVE"}, {"id": "1959", "lat": 38.95478, "lon": -76.94974, "name": "JEFFERSON ST & 40TH AVE"}, {"id": "1960", "lat": 38.95478, "lon": -76.94776, "name": "JEFFERSON ST & 41ST AVE"}, {"id": "1961", "lat": 38.95496, "lon": -76.94598, "name": "JEFFERSON ST & 42ND AVE"}, {"id": "1962", "lat": 38.95508, "lon": -76.94327, "name": "JEFFERSON ST & 43RD AVE"}, {"id": "1963", "lat": 38.95534, "lon": -76.94132, "name": "JEFFERSON ST & 44TH AVE"}, {"id": "1964", "lat": 38.95482, "lon": -76.94997, "name": "40TH AVE & JEFFERSON ST"}, {"id": "1965", "lat": 38.95488, "lon": -76.94748, "name": "JEFFERSON ST & 41ST AVE"}, {"id": "1966", "lat": 38.95488, "lon": -76.94565, "name": "JEFFERSON ST & 42ND AVE"}, {"id": "1967", "lat": 38.95518, "lon": -76.94311, "name": "JEFFERSON ST & 43RD AVE"}, {"id": "1968", "lat": 38.9553, "lon": -76.94058, "name": "JEFFERSON ST & BALTIMORE AVE"}, {"id": "1970", "lat": 38.89025, "lon": -76.80846, "name": "KETTERING DR & ABBOTSWOOD CT"}, {"id": "1973", "lat": 38.96062, "lon": -77.0968, "name": "WILLARD AVE & RIVER RD"}, {"id": "1974", "lat": 38.96267, "lon": -77.09339, "name": "WILLARD AVE & N PARK AVE"}, {"id": "1975", "lat": 38.8884, "lon": -76.8096, "name": "KETTERING DR & HONEYSUCKLE CT"}, {"id": "1976", "lat": 38.8857, "lon": -76.81249, "name": "KETTERING DR & KETTERING CT"}, {"id": "1978", "lat": 38.80853, "lon": -76.96256, "name": "EVERHART PL & CORNING AVE"}, {"id": "1979", "lat": 38.77797, "lon": -77.23242, "name": "ROLLING RD & OLD KEENE MILL RD"}, {"id": "1980", "lat": 38.80782, "lon": -76.96374, "name": "GLEN ROCK AVE & CORNING AVE"}, {"id": "1981", "lat": 38.98394, "lon": -77.09145, "name": "MONTGOMERY AVE & WAVERLY ST"}, {"id": "1985", "lat": 38.99858, "lon": -77.06738, "name": "JONES BRIDGE RD & ALTIMONT LA"}, {"id": "1986", "lat": 38.99883, "lon": -77.06948, "name": "JONES BRIDGE RD & BRIERLY RD"}, {"id": "1987", "lat": 38.99927, "lon": -77.07289, "name": "JONES BRIDGE RD & MONTGOMERY AVE"}, {"id": "1988", "lat": 38.99985, "lon": -77.07795, "name": "JONES BRIDGE RD & CONNECTICUT AVE"}, {"id": "1989", "lat": 39.00037, "lon": -77.08289, "name": "JONES BRIDGE RD & HAWKINS LA"}, {"id": "1992", "lat": 38.79854, "lon": -77.32361, "name": "BURKE CENTRE PKWY & OX RD"}, {"id": "1993", "lat": 38.99852, "lon": -77.06791, "name": "JONES BRIDGE RD & JONES BRIDGE CT"}, {"id": "1994", "lat": 38.9987, "lon": -77.06942, "name": "JONES BRIDGE RD & BRIERLY CT"}, {"id": "1995", "lat": 38.99941, "lon": -77.07308, "name": "JONES BRIDGE RD & MONTGOMERY AVE"}, {"id": "1996", "lat": 39.00006, "lon": -77.07784, "name": "JONES BRIDGE RD & CONNECTICUT AVE"}, {"id": "2001", "lat": 38.99433, "lon": -77.06472, "name": "JONES MILL RD & FARMINGTON DR"}, {"id": "2003", "lat": 38.99462, "lon": -77.06492, "name": "JONES MILL RD & FARMINGTON DR"}, {"id": "2009", "lat": 38.96084, "lon": -76.7272, "name": "KEMBRIDGE DR & KINDERBROOK LN"}, {"id": "2010", "lat": 38.9595, "lon": -76.72895, "name": "KEMBRIDGE DR & KRESSON PL"}, {"id": "2011", "lat": 38.95863, "lon": -76.73142, "name": "KEMBRIDGE DR & KIMBLE LN"}, {"id": "2013", "lat": 38.95669, "lon": -76.73787, "name": "KEMBRIDGE DR & KAVANAUGH LA"}, {"id": "2014", "lat": 38.95695, "lon": -76.74057, "name": "KEMBRIDGE DR & KNIGHTHILL LN"}, {"id": "2015", "lat": 38.95794, "lon": -76.74229, "name": "KEMBRIDGE DR & KENHILL DR"}, {"id": "2016", "lat": 38.96089, "lon": -76.72732, "name": "KEMBRIDGE DR & KINDERBROOK LN"}, {"id": "2017", "lat": 38.95921, "lon": -76.72926, "name": "KEMBRIDGE DR & KESWICK LN"}, {"id": "2018", "lat": 38.95874, "lon": -76.73118, "name": "KEMBRIDGE DR & KIMBLE LN"}, {"id": "2019", "lat": 38.95817, "lon": -76.73536, "name": "KEMBRIDGE DR & KINGSFIELD LA"}, {"id": "2020", "lat": 38.95689, "lon": -76.73749, "name": "KEMBRIDGE DR & KAVANAUGH LN"}, {"id": "2021", "lat": 38.95708, "lon": -76.74069, "name": "KEMBRIDGE DR & KNIGHTHILL LA"}, {"id": "2022", "lat": 38.95832, "lon": -76.74247, "name": "KEMBRIDGE DR & KENHILL DR"}, {"id": "2023", "lat": 38.92189, "lon": -76.93103, "name": "KENILWORTH AVE & #2529"}, {"id": "2024", "lat": 38.92591, "lon": -76.92788, "name": "KENILWORTH AVE & LYDELL RD"}, {"id": "2025", "lat": 38.92975, "lon": -76.93152, "name": "KENILWORTH AVE & 52ND AVE"}, {"id": "2026", "lat": 38.93197, "lon": -76.93256, "name": "KENILWORTH AVE & LAWRENCE ST"}, {"id": "2027", "lat": 38.93356, "lon": -76.93395, "name": "KENILWORTH AVE & 49TH AVE"}, {"id": "2028", "lat": 38.93531, "lon": -76.93591, "name": "KENILWORTH AVE & KENILWORTH TOWERS"}, {"id": "2030", "lat": 38.94308, "lon": -76.93361, "name": "KENILWORTH AVE & UPSHUR ST"}, {"id": "2031", "lat": 38.94765, "lon": -76.92971, "name": "KENILWORTH AVE & DECATUR ST"}, {"id": "2035", "lat": 38.95497, "lon": -76.92297, "name": "KENILWORTH AVE & KENNEDY ST"}, {"id": "2037", "lat": 38.9579, "lon": -76.92113, "name": "KENILWORTH AVE & NICHOLSON ST"}, {"id": "2038", "lat": 38.96785, "lon": -76.918, "name": "KENILWORTH AVE & TENNYSON ST"}, {"id": "2039", "lat": 38.96148, "lon": -76.91986, "name": "KENILWORTH AVE & QUINTANA ST"}, {"id": "2040", "lat": 38.9637, "lon": -76.91913, "name": "KENILWORTH AVE & RITTENHOUSE ST"}, {"id": "2042", "lat": 38.96765, "lon": -76.91784, "name": "KENILWORTH AVE & TENNYSON ST"}, {"id": "2043", "lat": 38.96929, "lon": -76.91723, "name": "KENILWORTH AVE & SARVIS AVE"}, {"id": "2044", "lat": 38.92229, "lon": -76.93048, "name": "KENILWORTH AVE & FROLICH LN"}, {"id": "2045", "lat": 38.92586, "lon": -76.92822, "name": "KENILWORTH AVE & LYDELL RD"}, {"id": "2046", "lat": 38.93005, "lon": -76.93138, "name": "KENILWORTH AVE & 52ND AVE"}, {"id": "2047", "lat": 38.93231, "lon": -76.93326, "name": "KENILWORTH AVE & LAWRENCE ST"}, {"id": "2048", "lat": 38.93345, "lon": -76.93426, "name": "KENILWORTH AVE & 49TH AVE"}, {"id": "2049", "lat": 38.93592, "lon": -76.93604, "name": "KENILWORTH AVE & KENILWORTH TOWERS"}, {"id": "2050", "lat": 38.83646, "lon": -76.9547, "name": "25TH AVE & IVERSON ST"}, {"id": "2051", "lat": 38.94308, "lon": -76.93412, "name": "KENILWORTH AVE & UPSHUR ST"}, {"id": "2052", "lat": 38.9477, "lon": -76.92929, "name": "KENILWORTH AVE & DECATUR ST"}, {"id": "2055", "lat": 38.95413, "lon": -76.92359, "name": "KENILWORTH AVE & GREENWAY DR"}, {"id": "2056", "lat": 38.95549, "lon": -76.92304, "name": "KENILWORTH AVE & SPRING LN"}, {"id": "2057", "lat": 38.95615, "lon": -76.92233, "name": "KENILWORTH AVE & JEFFERSON ST"}, {"id": "2058", "lat": 38.95787, "lon": -76.92077, "name": "KENILWORTH AVE & NICHOLSON ST"}, {"id": "2059", "lat": 38.95987, "lon": -76.92009, "name": "KENILWORTH AVE & POWHATAN RD"}, {"id": "2060", "lat": 38.96168, "lon": -76.91951, "name": "KENILWORTH AVE & QUINTANA ST"}, {"id": "2061", "lat": 38.96337, "lon": -76.91886, "name": "KENILWORTH AVE & RITTENHOUSE ST"}, {"id": "2063", "lat": 38.96996, "lon": -76.91642, "name": "KENILWORTH AVE & SARVIS AVE"}, {"id": "2067", "lat": 38.82015, "lon": -76.98862, "name": "KENNEBEC ST & OWENS RD"}, {"id": "2068", "lat": 38.81969, "lon": -76.9922, "name": "GLASSMANOR DR & KENNEBEC ST"}, {"id": "2070", "lat": 38.79068, "lon": -77.06561, "name": "HUNTINGTON AVE & HUNTING CREEK RD"}, {"id": "2072", "lat": 38.84036, "lon": -76.91029, "name": "REGENCY PKWY & ROCK QUARRY TERR"}, {"id": "2078", "lat": 38.84344, "lon": -76.91026, "name": "HIL MAR DR & MONACCO CT"}, {"id": "2082", "lat": 38.84732, "lon": -76.90342, "name": "SURREY SQUARE LN & REGENCY PKY"}, {"id": "2084", "lat": 38.84754, "lon": -76.90362, "name": "SURREY SQUARE LN & REGENCY PKY"}, {"id": "2087", "lat": 38.89784, "lon": -76.80658, "name": "CENTRAL AVE & KETTERING DR"}, {"id": "2088", "lat": 38.88544, "lon": -76.81258, "name": "KETTERING DR & KETTERING CT"}, {"id": "2089", "lat": 38.88453, "lon": -76.81409, "name": "KETTERING DR & LARGO RD"}, {"id": "2110", "lat": 38.99605, "lon": -76.8868, "name": "LAKECREST DR & LEGION DR"}, {"id": "2111", "lat": 39.0027, "lon": -76.8725, "name": "RIDGE RD & #35 COURT"}, {"id": "2112", "lat": 38.9961, "lon": -76.88662, "name": "LAKECREST DR & LAKECREST CIR"}, {"id": "2113", "lat": 38.99853, "lon": -76.88508, "name": "LAKESIDE DR & WESTWAY"}, {"id": "2114", "lat": 38.99857, "lon": -76.88487, "name": "LAKESIDE DR & WESTWAY"}, {"id": "2115", "lat": 38.99808, "lon": -76.88596, "name": "LAKESIDE DR & LAKECREST DR"}, {"id": "2116", "lat": 38.96992, "lon": -76.88046, "name": "LAMONT DR & CARROLLTON PKWY"}, {"id": "2117", "lat": 38.97183, "lon": -76.88078, "name": "LAMONT DR & QUENTIN ST"}, {"id": "2118", "lat": 38.97429, "lon": -76.88212, "name": "LAMONT DR & LAMONT PL"}, {"id": "2119", "lat": 38.97202, "lon": -76.88097, "name": "LAMONT DR & QUENTIN ST"}, {"id": "2120", "lat": 38.97351, "lon": -76.881, "name": "LAMONT DR & FAIRBANKS ST"}, {"id": "2125", "lat": 38.93837, "lon": -76.92492, "name": "LANDOVER RD & ANNAPOLIS RD"}, {"id": "2127", "lat": 38.93734, "lon": -76.92183, "name": "LANDOVER RD & 56TH AVE"}, {"id": "2128", "lat": 38.93641, "lon": -76.92024, "name": "LANDOVER RD & 57TH AVE"}, {"id": "2129", "lat": 38.93556, "lon": -76.91831, "name": "LANDOVER RD & 58TH PL"}, {"id": "2140", "lat": 38.93883, "lon": -76.92464, "name": "ANNAPOLIS RD & LANDOVER RD"}, {"id": "2142", "lat": 38.93727, "lon": -76.92228, "name": "LANDOVER RD & 56TH AVE"}, {"id": "2144", "lat": 38.93602, "lon": -76.91869, "name": "LANDOVER RD & 58TH AVE"}, {"id": "2181", "lat": 38.87082, "lon": -76.92261, "name": "MARLBORO PIKE & LARCHMONT AVE"}, {"id": "2183", "lat": 38.87624, "lon": -76.92053, "name": "LARCHMONT AVE & FABLE ST"}, {"id": "2184", "lat": 38.87811, "lon": -76.91971, "name": "LARCHMONT AVE & EMO ST"}, {"id": "2186", "lat": 38.88059, "lon": -76.91828, "name": "LARCHMONT AVE & DOPPLER ST"}, {"id": "2187", "lat": 38.8828, "lon": -76.91713, "name": "LARCHMONT AVE & CUMBERLAND ST"}, {"id": "2189", "lat": 38.87145, "lon": -76.92317, "name": "LARCHMONT AVE & MARLBORO PIKE"}, {"id": "2191", "lat": 38.87649, "lon": -76.92056, "name": "LARCHMONT AVE & FABLE ST"}, {"id": "2194", "lat": 38.88088, "lon": -76.91829, "name": "LARCHMONT AVE & DOPPLER ST"}, {"id": "2195", "lat": 38.88282, "lon": -76.91729, "name": "LARCHMONT AVE & CUMBERLAND ST"}, {"id": "2196", "lat": 38.88452, "lon": -76.91638, "name": "LARCHMONT AVE & CLOVIS AVE"}, {"id": "2226", "lat": 38.96222, "lon": -77.08973, "name": "WILLARD AVE & FRIENDSHIP BLVD"}, {"id": "2231", "lat": 38.80091, "lon": -76.90598, "name": "ALLENTOWN WAY & OLD BRANCH AVE"}, {"id": "2232", "lat": 38.82035, "lon": -76.90614, "name": "AUTH RD & DUBLIN DR"}, {"id": "2233", "lat": 39.13259, "lon": -76.99351, "name": "NEW HAMPSHIRE AVE & #16825"}, {"id": "2234", "lat": 38.8296, "lon": -76.92996, "name": "OLD BRANCH AVE & OXFORD DR"}, {"id": "2235", "lat": 38.83248, "lon": -76.93749, "name": "OLD BRANCH AVE & APPLEGATE LN"}, {"id": "2238", "lat": 38.80443, "lon": -76.9077, "name": "OLD BRANCH AVE & ALLENTOWN RD"}, {"id": "2239", "lat": 38.82008, "lon": -76.9059, "name": "AUTH RD & DUBLIN DR"}, {"id": "2240", "lat": 38.82916, "lon": -76.92921, "name": "OLD BRANCH AVE & HARTFORD HILLS DR"}, {"id": "2241", "lat": 38.83228, "lon": -76.93697, "name": "OLD BRANCH AVE & APPLEGATE LN"}, {"id": "2242", "lat": 38.83571, "lon": -76.94051, "name": "ST BARNABAS RD & BEDFORD WAY"}, {"id": "2243", "lat": 38.86168, "lon": -76.88895, "name": "ATWOOD ST & ALPINE ST"}, {"id": "2247", "lat": 38.79581, "lon": -76.99136, "name": "LEYTE DR & SHELBY DR"}, {"id": "2251", "lat": 38.79324, "lon": -76.99214, "name": "LEYTE DR & LINDSAY RD"}, {"id": "2252", "lat": 38.79319, "lon": -76.98837, "name": "LINDSAY RD & JARRETT AVE"}, {"id": "2254", "lat": 38.79331, "lon": -76.98841, "name": "LINDSAY RD & JARRETT AVE"}, {"id": "2260", "lat": 38.80908, "lon": -76.99026, "name": "BIRCHWOOD DR & LIVINGSTON RD"}, {"id": "2261", "lat": 38.80743, "lon": -76.99043, "name": "LIVINGSTON RD & COMANCHE DR"}, {"id": "2262", "lat": 38.80315, "lon": -76.99149, "name": "OXON HILL RD & LIVINGSTON RD"}, {"id": "2263", "lat": 38.80489, "lon": -76.99047, "name": "LIVINGSTON RD & OXON HILL RD"}, {"id": "2264", "lat": 38.80115, "lon": -76.98535, "name": "BOCK RD & LIVINGSTON RD"}, {"id": "2267", "lat": 38.86988, "lon": -77.15425, "name": "LEESBURG PK & CASTLE RD"}, {"id": "2274", "lat": 38.78275, "lon": -76.99229, "name": "LIVINGSTON RD & HART RD"}, {"id": "2275", "lat": 38.81439, "lon": -76.99523, "name": "LIVINGSTON RD & SHAWNEE DR"}, {"id": "2276", "lat": 38.80752, "lon": -76.99064, "name": "LIVINGSTON RD & COMANCHE DR"}, {"id": "2278", "lat": 38.89932, "lon": -77.04163, "name": "18TH ST & PENNSYLVANIA AVE"}, {"id": "2280", "lat": 38.83603, "lon": -76.94017, "name": "ST BARNABAS RD & BEDFORD WAY"}, {"id": "2282", "lat": 38.79072, "lon": -76.98832, "name": "LIVINGSTON RD & WHITE OAK DR"}, {"id": "2283", "lat": 38.78587, "lon": -76.99085, "name": "LIVINGSTON RD & ELWIN RD"}, {"id": "2286", "lat": 38.98557, "lon": -76.75007, "name": "MILLSTREAM DR & MAYCHECK LN"}, {"id": "2287", "lat": 38.81565, "lon": -76.99595, "name": "LIVINGSTON TERR & LIVINGSTON RD"}, {"id": "2289", "lat": 39.0341, "lon": -76.99972, "name": "LOCKWOOD DR & MEADOWHILL RD"}, {"id": "2290", "lat": 39.03521, "lon": -76.99722, "name": "LOCKWOOD DR & BURNT MILLS AVE"}, {"id": "2291", "lat": 39.03666, "lon": -76.9959, "name": "LOCKWOOD DR & NORTHWEST DR"}, {"id": "2292", "lat": 39.03809, "lon": -76.99427, "name": "LOCKWOOD DR & OAK LEAF DR"}, {"id": "2298", "lat": 39.03792, "lon": -76.99424, "name": "LOCKWOOD DR & OAK LEAF DR"}, {"id": "2299", "lat": 39.03673, "lon": -76.99565, "name": "LOCKWOOD DR & NORTHWEST DR"}, {"id": "2300", "lat": 39.03533, "lon": -76.99732, "name": "LOCKWOOD DR & BURNT MILLS AVE"}, {"id": "2301", "lat": 39.03418, "lon": -76.9999, "name": "LOCKWOOD DR & MEADOWHILL RD"}, {"id": "2303", "lat": 38.94512, "lon": -77.11739, "name": "SANGAMORE RD & MACARTHUR BLVD"}, {"id": "2305", "lat": 38.94377, "lon": -77.11619, "name": "MACARTHUR BLVD & WINDWARD PL"}, {"id": "2310", "lat": 38.85553, "lon": -77.04926, "name": "CRYSTAL DR & 20TH ST"}, {"id": "2315", "lat": 38.81703, "lon": -76.99474, "name": "MARCY AVE & LEVERETT ST"}, {"id": "2316", "lat": 38.8171, "lon": -76.99358, "name": "MARCY AVE & NEPTUNE AVE"},