{"nodes": [{"id": "L1_PIN", "lat": 40.4722, "lon": -3.6771, "name": "Pinar de Chamart\u00edn"}, {"id": "L1_BAM", "lat": 40.4689, "lon": -3.6797, "name": "Bamb\u00fa"}, {"id": "L1_CHA", "lat": 40.4623, "lon": -3.6831, "name": "Chamart\u00edn"}, {"id": "L1_PLA", "lat": 40.4666, "lon": -3.6893, "name": "Plaza de Castilla"}, {"id": "L1_VAL", "lat": 40.4594, "lon": -3.6972, "name": "Valdeacederas"}, {"id": "L1_TET", "lat": 40.4577, "lon": -3.6971, "name": "Tetu\u00e1n"}, {"id": "L1_EST", "lat": 40.454, "lon": -3.6992, "name": "Estrecho"}, {"id": "L1_ALV", "lat": 40.4488, "lon": -3.7003, "name": "Alvarado"}, {"id": "L1_CUA", "lat": 40.4455, "lon": -3.7066, "name": "Cuatro Caminos"}, {"id": "L1_RIO", "lat": 40.4413, "lon": -3.7036, "name": "R\u00edos Rosas"}, {"id": "L1_IGL", "lat": 40.437, "lon": -3.7039, "name": "Iglesia"}, {"id": "L1_BIL", "lat": 40.4291, "lon": -3.7021, "name": "Bilbao"}, {"id": "L1_TRI", "lat": 40.4264, "lon": -3.7007, "name": "Tribunal"}, {"id": "L1_GCA", "lat": 40.42, "lon": -3.701, "name": "Gran V\u00eda"}, {"id": "L1_SOL", "lat": 40.4168, "lon": -3.7038, "name": "Sol"}, {"id": "L1_TIR", "lat": 40.4111, "lon": -3.7032, "name": "Tirso de Molina"}, {"id": "L1_ANT", "lat": 40.4101, "lon": -3.6994, "name": "Ant\u00f3n Mart\u00edn"}, {"id": "L1_ATO", "lat": 40.4077, "lon": -3.6927, "name": "Atocha"}, {"id": "L1_MEN", "lat": 40.4076, "lon": -3.6825, "name": "Men\u00e9ndez Pelayo"}, {"id": "L1_PAC", "lat": 40.402, "lon": -3.6719, "name": "Pac\u00edfico"}, {"id": "L1_PUE", "lat": 40.3972, "lon": -3.6693, "name": "Puente de Vallecas"}, {"id": "L1_NUE", "lat": 40.3892, "lon": -3.6619, "name": "Nueva Numancia"}, {"id": "L1_POR", "lat": 40.3833, "lon": -3.6586, "name": "Portazgo"}, {"id": "L1_BVA", "lat": 40.3767, "lon": -3.6551, "name": "Buenos Aires"}, {"id": "L1_ALT", "lat": 40.371, "lon": -3.6483, "name": "Alto del Arenal"}, {"id": "L1_MIG", "lat": 40.3646, "lon": -3.6371, "name": "Miguel Hern\u00e1ndez"}, {"id": "L1_SIE", "lat": 40.3581, "lon": -3.6235, "name": "Sierra de Guadalupe"}, {"id": "L1_VIL", "lat": 40.3508, "lon": -3.616, "name": "Villa de Vallecas"}, {"id": "L1_CON", "lat": 40.3449, "lon": -3.6027, "name": "Congosto"}, {"id": "L1_CAS", "lat": 40.3398, "lon": -3.5874, "name": "La Gavia"}, {"id": "L1_VAD", "lat": 40.3335, "lon": -3.5745, "name": "Valdecarros"}], "edges": [{"from": "L1_PIN", "to": "L1_BAM", "weight": 120}, {"from": "L1_BAM", "to": "L1_CHA", "weight": 120}, {"from": "L1_CHA", "to": "L1_PLA", "weight": 120}, {"from": "L1_PLA", "to": "L1_VAL", "weight": 120}, {"from": "L1_VAL", "to": "L1_TET", "weight": 120}, {"from": "L1_TET", "to": "L1_EST", "weight": 120}, {"from": "L1_EST", "to": "L1_ALV", "weight": 120}, {"from": "L1_ALV", "to": "L1_CUA", "weight": 120}, {"from": "L1_CUA", "to": "L1_RIO", "weight": 120}, {"from": "L1_RIO", "to": "L1_IGL", "weight": 120}, {"from": "L1_IGL", "to": "L1_BIL", "weight": 120}, {"from": "L1_BIL", "to": "L1_TRI", "weight": 120}, {"from": "L1_TRI", "to": "L1_GCA", "weight": 120}, {"from": "L1_GCA", "to": "L1_SOL", "weight": 120}, {"from": "L1_SOL", "to": "L1_TIR", "weight": 120}, {"from": "L1_TIR", "to": "L1_ANT", "weight": 120}, {"from": "L1_ANT", "to": "L1_ATO", "weight": 120}, {"from": "L1_ATO", "to": "L1_MEN", "weight": 120}, {"from": "L1_MEN", "to": "L1_PAC", "weight": 120}, {"from": "L1_PAC", "to": "L1_PUE", "weight": 120}, {"from": "L1_PUE", "to": "L1_NUE", "weight": 120}, {"from": "L1_NUE", "to": "L1_POR", "weight": 120}, {"from": "L1_POR", "to": "L1_BVA", "weight": 120}, {"from": "L1_BVA", "to": "L1_ALT", "weight": 120}, {"from": "L1_ALT", "to": "L1_MIG", "weight": 120}, {"from": "L1_MIG", "to": "L1_SIE", "weight": 120}, {"from": "L1_SIE", "to": "L1_VIL", "weight": 120}, {"from": "L1_VIL", "to": "L1_CON", "weight": 120}, {"from": "L1_CON", "to": "L1_CAS", "weight": 120}, {"from": "L1_CAS", "to": "L1_VAD", "weight": 120}]}