{"nodes": [{"id": "L1_PIN", "lat": 40.4725, "lon": -3.6647, "name": "Pinar de Chamart\u00edn"}, {"id": "L1_BAM", "lat": 40.4678, "lon": -3.6599, "name": "Bamb\u00fa"}, {"id": "L1_CHA", "lat": 40.4723, "lon": -3.6826, "name": "Chamart\u00edn"}, {"id": "L1_PLA", "lat": 40.4662, "lon": -3.689, "name": "Plaza de Castilla"}, {"id": "L1_VAL", "lat": 40.4605, "lon": -3.6951, "name": "Valdeacederas"}, {"id": "L1_TET", "lat": 40.4573, "lon": -3.6972, "name": "Tetu\u00e1n"}, {"id": "L1_EST", "lat": 40.45, "lon": -3.7021, "name": "Estrecho"}, {"id": "L1_ALV", "lat": 40.4437, "lon": -3.7019, "name": "Alvarado"}, {"id": "L1_CUA", "lat": 40.4453, "lon": -3.7066, "name": "Cuatro Caminos"}, {"id": "L1_RIO", "lat": 40.4404, "lon": -3.7012, "name": "R\u00edos Rosas"}, {"id": "L1_IGL", "lat": 40.4355, "lon": -3.6993, "name": "Iglesia"}, {"id": "L1_BIL", "lat": 40.4293, "lon": -3.7019, "name": "Bilbao"}, {"id": "L1_TRI", "lat": 40.4265, "lon": -3.7013, "name": "Tribunal"}, {"id": "L1_GRA", "lat": 40.42, "lon": -3.7016, "name": "Gran V\u00eda"}, {"id": "L1_SOL", "lat": 40.417, "lon": -3.7032, "name": "Sol"}, {"id": "L1_TIR", "lat": 40.4128, "lon": -3.703, "name": "Tirso de Molina"}, {"id": "L1_ANT", "lat": 40.411, "lon": -3.6998, "name": "Ant\u00f3n Mart\u00edn"}, {"id": "L1_ATO", "lat": 40.4076, "lon": -3.6902, "name": "Atocha"}, {"id": "L1_ATR", "lat": 40.4069, "lon": -3.6904, "name": "Atocha Renfe"}, {"id": "L1_MEN", "lat": 40.4083, "lon": -3.6811, "name": "Men\u00e9ndez Pelayo"}, {"id": "L1_NIN", "lat": 40.4103, "lon": -3.6747, "name": "Ni\u00f1o Jes\u00fas"}, {"id": "L1_IBI", "lat": 40.4152, "lon": -3.6741, "name": "Ibiza"}, {"id": "L1_SAI", "lat": 40.4191, "lon": -3.6687, "name": "Sainz de Baranda"}, {"id": "L1_OCO", "lat": 40.4245, "lon": -3.669, "name": "O'Donnell"}, {"id": "L1_PRI", "lat": 40.4295, "lon": -3.6759, "name": "Pr\u00edncipe de Vergara"}, {"id": "L1_GOY", "lat": 40.426, "lon": -3.6759, "name": "Goya"}, {"id": "L1_VEL", "lat": 40.4266, "lon": -3.6856, "name": "Vel\u00e1zquez"}, {"id": "L1_SER", "lat": 40.4263, "lon": -3.6878, "name": "Serrano"}, {"id": "L1_RET", "lat": 40.421, "lon": -3.687, "name": "Retiro"}, {"id": "L1_BAN", "lat": 40.4186, "lon": -3.6937, "name": "Banco de Espa\u00f1a"}, {"id": "L1_SEV", "lat": 40.4184, "lon": -3.6989, "name": "Sevilla"}, {"id": "L1_POR", "lat": 40.3855, "lon": -3.6619, "name": "Portazgo"}, {"id": "L1_BUE", "lat": 40.3787, "lon": -3.6661, "name": "Buenos Aires"}, {"id": "L1_ALT", "lat": 40.3722, "lon": -3.6697, "name": "Alto del Arenal"}, {"id": "L1_MIG", "lat": 40.3658, "lon": -3.672, "name": "Miguel Hern\u00e1ndez"}, {"id": "L1_SIE", "lat": 40.36, "lon": -3.6653, "name": "Sierra de Guadalupe"}, {"id": "L1_VIL", "lat": 40.354, "lon": -3.659, "name": "Villa de Vallecas"}, {"id": "L1_CON", "lat": 40.3476, "lon": -3.654, "name": "Congosto"}, {"id": "L1_LAE", "lat": 40.342, "lon": -3.6493, "name": "La Elipa"}, {"id": "L1_VAD", "lat": 40.3349, "lon": -3.6451, "name": "Valdecarros"}, {"id": "L2_ROS", "lat": 40.4344, "lon": -3.6115, "name": "Las Rosas"}, {"id": "L2_ESA", "lat": 40.4338, "lon": -3.6028, "name": "Las Suertes"}, {"id": "L2_ALM", "lat": 40.4329, "lon": -3.5925, "name": "Alsacia"}, {"id": "L2_ALC", "lat": 40.4363, "lon": -3.6212, "name": "La Almudena"}, {"id": "L2_ARC", "lat": 40.4375, "lon": -3.6292, "name": "Avenida de Guadalajara"}, {"id": "L2_PUE", "lat": 40.4358, "lon": -3.6379, "name": "Pueblo Nuevo"}, {"id": "L2_ASC", "lat": 40.4363, "lon": -3.6447, "name": "Ascao"}, {"id": "L2_GAR", "lat": 40.4375, "lon": -3.6518, "name": "Garc\u00eda Noblejas"}, {"id": "L2_CIU", "lat": 40.4389, "lon": -3.6578, "name": "Ciudad Lineal"}, {"id": "L2_QUI", "lat": 40.4362, "lon": -3.6635, "name": "Quintana"}, {"id": "L2_ELP", "lat": 40.4408, "lon": -3.6697, "name": "El Carmen"}, {"id": "L2_VEN", "lat": 40.4288, "lon": -3.665, "name": "Ventas"}, {"id": "L2_MAN", "lat": 40.4266, "lon": -3.6702, "name": "Manuel Becerra"}, {"id": "L2_GOY2", "lat": 40.426, "lon": -3.6759, "name": "Goya"}, {"id": "L2_PRI2", "lat": 40.4295, "lon": -3.6759, "name": "Pr\u00edncipe de Vergara"}, {"id": "L2_RET2", "lat": 40.421, "lon": -3.687, "name": "Retiro"}, {"id": "L2_BAN2", "lat": 40.4186, "lon": -3.6937, "name": "Banco de Espa\u00f1a"}, {"id": "L2_SEV2", "lat": 40.4184, "lon": -3.6989, "name": "Sevilla"}, {"id": "L2_SOL2", "lat": 40.417, "lon": -3.7032, "name": "Sol"}, {"id": "L2_OPE", "lat": 40.418, "lon": -3.709, "name": "\u00d3pera"}, {"id": "L2_SAN", "lat": 40.4208, "lon": -3.7085, "name": "Santo Domingo"}, {"id": "L2_NOV", "lat": 40.4255, "lon": -3.7088, "name": "Noviciado"}, {"id": "L2_SAB", "lat": 40.429, "lon": -3.7107, "name": "San Bernardo"}, {"id": "L2_QUE", "lat": 40.4335, "lon": -3.7018, "name": "Quevedo"}, {"id": "L2_CAN", "lat": 40.4378, "lon": -3.7047, "name": "Canal"}, {"id": "L2_CUA2", "lat": 40.4453, "lon": -3.7066, "name": "Cuatro Caminos"}, {"id": "L3_VIV", "lat": 40.3533, "lon": -3.7117, "name": "Villaverde Alto"}, {"id": "L3_SAN3", "lat": 40.3583, "lon": -3.7054, "name": "San Crist\u00f3bal"}, {"id": "L3_VIL3", "lat": 40.3607, "lon": -3.6993, "name": "Villaverde Bajo Cruce"}, {"id": "L3_CIU3", "lat": 40.3683, "lon": -3.6999, "name": "Ciudad de los \u00c1ngeles"}, {"id": "L3_SFE", "lat": 40.3772, "lon": -3.6896, "name": "San Ferm\u00edn Orcasur"}, {"id": "L3_HOS", "lat": 40.3756, "lon": -3.6976, "name": "Hospital 12 de Octubre"}, {"id": "L3_ALO", "lat": 40.382, "lon": -3.7028, "name": "Almendrales"}, {"id": "L3_LEG", "lat": 40.3881, "lon": -3.6962, "name": "Legazpi"}, {"id": "L3_DEL", "lat": 40.3961, "lon": -3.6928, "name": "Delicias"}, {"id": "L3_PAC", "lat": 40.3997, "lon": -3.6942, "name": "Palos de la Frontera"}, {"id": "L3_EMB", "lat": 40.4051, "lon": -3.7008, "name": "Embajadores"}, {"id": "L3_LAV", "lat": 40.4088, "lon": -3.701, "name": "Lavapi\u00e9s"}, {"id": "L3_SOL3", "lat": 40.417, "lon": -3.7032, "name": "Sol"}, {"id": "L3_CAL", "lat": 40.4203, "lon": -3.706, "name": "Callao"}, {"id": "L3_VEN3", "lat": 40.4253, "lon": -3.7121, "name": "Ventura Rodr\u00edguez"}, {"id": "L3_ARG", "lat": 40.4307, "lon": -3.7156, "name": "Arg\u00fcelles"}, {"id": "L3_MON", "lat": 40.4347, "lon": -3.7192, "name": "Moncloa"}, {"id": "L4_ARG4", "lat": 40.4307, "lon": -3.7156, "name": "Arg\u00fcelles"}, {"id": "L4_SAB4", "lat": 40.429, "lon": -3.7107, "name": "San Bernardo"}, {"id": "L4_BIL4", "lat": 40.4293, "lon": -3.7019, "name": "Bilbao"}, {"id": "L4_ALO4", "lat": 40.4269, "lon": -3.6947, "name": "Alonso Mart\u00ednez"}, {"id": "L4_COL", "lat": 40.4252, "lon": -3.6908, "name": "Col\u00f3n"}, {"id": "L4_SER4", "lat": 40.4263, "lon": -3.6878, "name": "Serrano"}, {"id": "L4_VEL4", "lat": 40.4266, "lon": -3.6856, "name": "Vel\u00e1zquez"}, {"id": "L4_GOY4", "lat": 40.426, "lon": -3.6759, "name": "Goya"}, {"id": "L4_LIS", "lat": 40.4303, "lon": -3.6783, "name": "Lista"}, {"id": "L4_DIE", "lat": 40.4387, "lon": -3.6764, "name": "Diego de Le\u00f3n"}, {"id": "L4_ALP", "lat": 40.44, "lon": -3.6709, "name": "Alfonso XIII"}, {"id": "L4_PMA", "lat": 40.4412, "lon": -3.6671, "name": "Prosperidad"}, {"id": "L4_AVA", "lat": 40.4394, "lon": -3.6627, "name": "Avenida de Am\u00e9rica"}, {"id": "L4_REP", "lat": 40.4482, "lon": -3.6773, "name": "Rep\u00fablica Argentina"}, {"id": "L4_NMI", "lat": 40.4464, "lon": -3.6925, "name": "Nuevos Ministerios"}, {"id": "L4_ACA", "lat": 40.3991, "lon": -3.7118, "name": "Acacias"}, {"id": "L4_PIR", "lat": 40.3974, "lon": -3.7112, "name": "Pir\u00e1mides"}, {"id": "L4_MAR", "lat": 40.3937, "lon": -3.7193, "name": "Marqu\u00e9s de Vadillo"}, {"id": "L4_URG", "lat": 40.3895, "lon": -3.7245, "name": "Urgel"}, {"id": "L4_OPO", "lat": 40.384, "lon": -3.7296, "name": "Oporto"}, {"id": "L4_VIS", "lat": 40.3829, "lon": -3.7383, "name": "Vista Alegre"}, {"id": "L4_CAR", "lat": 40.3803, "lon": -3.7431, "name": "Carabanchel"}, {"id": "L5_OSU", "lat": 40.4587, "lon": -3.5782, "name": "Alameda de Osuna"}, {"id": "L5_ELT", "lat": 40.4579, "lon": -3.5912, "name": "El Capricho"}, {"id": "L5_CAN5", "lat": 40.4503, "lon": -3.6045, "name": "Canillejas"}, {"id": "L5_TOR", "lat": 40.4498, "lon": -3.6134, "name": "Torre Arias"}, {"id": "L5_SUA", "lat": 40.4463, "lon": -3.6212, "name": "Suanzes"}, {"id": "L5_CIU5", "lat": 40.4389, "lon": -3.6578, "name": "Ciudad Lineal"}, {"id": "L5_PUE5", "lat": 40.4358, "lon": -3.6379, "name": "Pueblo Nuevo"}, {"id": "L5_QUI5", "lat": 40.4362, "lon": -3.6635, "name": "Quintana"}, {"id": "L5_ELI", "lat": 40.4408, "lon": -3.6697, "name": "El Carmen"}, {"id": "L5_VEN5", "lat": 40.4288, "lon": -3.665, "name": "Ventas"}, {"id": "L5_DIE5", "lat": 40.4387, "lon": -3.6764, "name": "Diego de Le\u00f3n"}, {"id": "L5_NMI5", "lat": 40.4313, "lon": -3.686, "name": "N\u00fa\u00f1ez de Balboa"}, {"id": "L5_RUB", "lat": 40.4354, "lon": -3.6907, "name": "Rub\u00e9n Dar\u00edo"}, {"id": "L5_ALO5", "lat": 40.4269, "lon": -3.6947, "name": "Alonso Mart\u00ednez"}, {"id": "L5_CHU", "lat": 40.4214, "lon": -3.6964, "name": "Chueca"}, {"id": "L5_GRA5", "lat": 40.42, "lon": -3.7016, "name": "Gran V\u00eda"}, {"id": "L5_CAL5", "lat": 40.4203, "lon": -3.706, "name": "Callao"}, {"id": "L5_OPE5", "lat": 40.418, "lon": -3.709, "name": "\u00d3pera"}, {"id": "L5_LAT", "lat": 40.4119, "lon": -3.7097, "name": "La Latina"}, {"id": "L5_PUA", "lat": 40.4067, "lon": -3.7105, "name": "Puerta de Toledo"}, {"id": "L5_ACA5", "lat": 40.3991, "lon": -3.7118, "name": "Acacias"}, {"id": "L5_PIR5", "lat": 40.3974, "lon": -3.7112, "name": "Pir\u00e1mides"}, {"id": "L5_MAR5", "lat": 40.3937, "lon": -3.7193, "name": "Marqu\u00e9s de Vadillo"}, {"id": "L5_URG5", "lat": 40.3895, "lon": -3.7245, "name": "Urgel"}, {"id": "L5_OPO5", "lat": 40.384, "lon": -3.7296, "name": "Oporto"}, {"id": "L5_VIS5", "lat": 40.3829, "lon": -3.7383, "name": "Vista Alegre"}, {"id": "L5_CAR5", "lat": 40.3803, "lon": -3.7431, "name": "Carabanchel"}, {"id": "L5_EUG", "lat": 40.3764, "lon": -3.7527, "name": "Eugenia de Montijo"}, {"id": "L5_ALU", "lat": 40.3846, "lon": -3.7583, "name": "Aluche"}, {"id": "L5_EMT", "lat": 40.3867, "lon": -3.7699, "name": "Empalme"}, {"id": "L5_CAM", "lat": 40.3857, "lon": -3.7833, "name": "Campamento"}, {"id": "L5_CAS", "lat": 40.4094, "lon": -3.7457, "name": "Casa de Campo"}, {"id": "L6_MET", "lat": 40.4456, "lon": -3.7277, "name": "Ciudad Universitaria"}, {"id": "L6_GUZ", "lat": 40.4394, "lon": -3.7171, "name": "Guzm\u00e1n el Bueno"}, {"id": "L6_VIC", "lat": 40.436, "lon": -3.7188, "name": "Vicente Aleixandre"}, {"id": "L6_MET6", "lat": 40.4561, "lon": -3.7183, "name": "Metropolitano"}, {"id": "L6_REP6", "lat": 40.4482, "lon": -3.6773, "name": "Rep\u00fablica Argentina"}, {"id": "L6_NMI6", "lat": 40.4464, "lon": -3.6925, "name": "Nuevos Ministerios"}, {"id": "L6_CUZ", "lat": 40.4504, "lon": -3.6887, "name": "Cuzco"}, {"id": "L6_SAN6", "lat": 40.4529, "lon": -3.6899, "name": "Santiago Bernab\u00e9u"}, {"id": "L6_AVA6", "lat": 40.4394, "lon": -3.6627, "name": "Avenida de Am\u00e9rica"}, {"id": "L6_DIE6", "lat": 40.4387, "lon": -3.6764, "name": "Diego de Le\u00f3n"}, {"id": "L6_MAN6", "lat": 40.4266, "lon": -3.6702, "name": "Manuel Becerra"}, {"id": "L6_CON6", "lat": 40.413, "lon": -3.6719, "name": "Conde de Casal"}, {"id": "L6_SAI6", "lat": 40.4191, "lon": -3.6687, "name": "Sainz de Baranda"}, {"id": "L6_PAC6", "lat": 40.4071, "lon": -3.6768, "name": "Pac\u00edfico"}, {"id": "L6_PCA", "lat": 40.3976, "lon": -3.6708, "name": "Puente de Vallecas"}, {"id": "L6_NVA", "lat": 40.3919, "lon": -3.6698, "name": "Nueva Numancia"}, {"id": "L6_POR6", "lat": 40.3855, "lon": -3.6619, "name": "Portazgo"}, {"id": "L6_BUE6", "lat": 40.3787, "lon": -3.6661, "name": "Buenos Aires"}, {"id": "L6_ALT6", "lat": 40.3722, "lon": -3.6697, "name": "Alto del Arenal"}, {"id": "L6_VAL6", "lat": 40.3862, "lon": -3.6742, "name": "Vallecas"}, {"id": "L6_SEG", "lat": 40.3847, "lon": -3.7059, "name": "Usera"}, {"id": "L6_LEG6", "lat": 40.3881, "lon": -3.6962, "name": "Legazpi"}, {"id": "L6_ARG6", "lat": 40.3929, "lon": -3.6944, "name": "Arganzuela-Planetario"}, {"id": "L6_MCA", "lat": 40.3972, "lon": -3.6878, "name": "M\u00e9ndez \u00c1lvaro"}, {"id": "L6_OCO6", "lat": 40.4245, "lon": -3.669, "name": "O'Donnell"}, {"id": "L6_LOZ", "lat": 40.3849, "lon": -3.7163, "name": "Plaza El\u00edptica"}, {"id": "L6_OPO6", "lat": 40.384, "lon": -3.7296, "name": "Oporto"}, {"id": "L6_LAG", "lat": 40.3917, "lon": -3.7385, "name": "Laguna"}, {"id": "L6_CAR6", "lat": 40.3929, "lon": -3.7499, "name": "Carpetana"}, {"id": "L6_ALU6", "lat": 40.3846, "lon": -3.7583, "name": "Aluche"}, {"id": "L6_LUC", "lat": 40.3861, "lon": -3.7694, "name": "Lucero"}, {"id": "L6_BAT", "lat": 40.4103, "lon": -3.7579, "name": "Bat\u00e1n"}, {"id": "L6_CAS6", "lat": 40.4094, "lon": -3.7457, "name": "Casa de Campo"}, {"id": "L6_PLA6", "lat": 40.4148, "lon": -3.7428, "name": "Lago"}, {"id": "L6_PRI6", "lat": 40.4217, "lon": -3.7201, "name": "Pr\u00edncipe P\u00edo"}, {"id": "L6_PUR", "lat": 40.4164, "lon": -3.7275, "name": "Puerta del \u00c1ngel"}, {"id": "L6_ALT66", "lat": 40.4189, "lon": -3.7339, "name": "Alto de Extremadura"}, {"id": "L6_MON6", "lat": 40.4347, "lon": -3.7192, "name": "Moncloa"}, {"id": "L7_HEN", "lat": 40.4387, "lon": -3.5182, "name": "Hospital del Henares"}, {"id": "L7_HEN2", "lat": 40.4426, "lon": -3.5353, "name": "Henares"}, {"id": "L7_COS", "lat": 40.4363, "lon": -3.5536, "name": "Coslada Central"}, {"id": "L7_LAR", "lat": 40.4348, "lon": -3.5658, "name": "La Rambla"}, {"id": "L7_SFN", "lat": 40.4377, "lon": -3.5781, "name": "San Fernando"}, {"id": "L7_JRN", "lat": 40.441, "lon": -3.5886, "name": "Jarama"}, {"id": "L7_OSU7", "lat": 40.4587, "lon": -3.5782, "name": "Alameda de Osuna"}, {"id": "L7_ELC", "lat": 40.4579, "lon": -3.5912, "name": "El Capricho"}, {"id": "L7_CAN7", "lat": 40.4503, "lon": -3.6045, "name": "Canillejas"}, {"id": "L7_TOR7", "lat": 40.4498, "lon": -3.6134, "name": "Torre Arias"}, {"id": "L7_SUA7", "lat": 40.4463, "lon": -3.6212, "name": "Suanzes"}, {"id": "L7_CIU7", "lat": 40.4389, "lon": -3.6578, "name": "Ciudad Lineal"}, {"id": "L7_PUE7", "lat": 40.4358, "lon": -3.6379, "name": "Pueblo Nuevo"}, {"id": "L7_ASC7", "lat": 40.4363, "lon": -3.6447, "name": "Ascao"}, {"id": "L7_GAR7", "lat": 40.4375, "lon": -3.6518, "name": "Garc\u00eda Noblejas"}, {"id": "L7_BRC", "lat": 40.4393, "lon": -3.6601, "name": "Barrio de la Concepci\u00f3n"}, {"id": "L7_PAR", "lat": 40.4428, "lon": -3.6621, "name": "Parque de las Avenidas"}, {"id": "L7_CAR7", "lat": 40.4434, "lon": -3.6683, "name": "Cartagena"}, {"id": "L7_AVA7", "lat": 40.4394, "lon": -3.6627, "name": "Avenida de Am\u00e9rica"}, {"id": "L7_CRU", "lat": 40.4493, "lon": -3.6816, "name": "Cruz del Rayo"}, {"id": "L7_NMI7", "lat": 40.4464, "lon": -3.6925, "name": "Nuevos Ministerios"}, {"id": "L7_GRE", "lat": 40.4404, "lon": -3.6958, "name": "Gregorio Mara\u00f1\u00f3n"}, {"id": "L7_ALO7", "lat": 40.438, "lon": -3.7003, "name": "Alonso Cano"}, {"id": "L7_CAN72", "lat": 40.4378, "lon": -3.7047, "name": "Canal"}, {"id": "L7_ISL", "lat": 40.4378, "lon": -3.7113, "name": "Islas Filipinas"}, {"id": "L7_GUZ7", "lat": 40.4394, "lon": -3.7171, "name": "Guzm\u00e1n el Bueno"}, {"id": "L7_VIC7", "lat": 40.436, "lon": -3.7188, "name": "Vicente Aleixandre"}, {"id": "L7_AVR", "lat": 40.4551, "lon": -3.7201, "name": "Valdezarza"}, {"id": "L7_ANT7", "lat": 40.4609, "lon": -3.7237, "name": "Antonio Machado"}, {"id": "L7_PER", "lat": 40.471, "lon": -3.7246, "name": "Pe\u00f1agrande"}, {"id": "L7_ARR", "lat": 40.4784, "lon": -3.7086, "name": "Avenida de la Ilustraci\u00f3n"}, {"id": "L7_LAC", "lat": 40.4816, "lon": -3.7078, "name": "Lacoma"}, {"id": "L7_PIT", "lat": 40.488, "lon": -3.7075, "name": "Pitis"}, {"id": "L8_NMI8", "lat": 40.4464, "lon": -3.6925, "name": "Nuevos Ministerios"}, {"id": "L8_COL8", "lat": 40.4531, "lon": -3.6765, "name": "Colombia"}, {"id": "L8_PIR8", "lat": 40.4635, "lon": -3.6618, "name": "Pinar del Rey"}, {"id": "L8_MAR8", "lat": 40.4708, "lon": -3.6494, "name": "Mar de Cristal"}, {"id": "L8_FER", "lat": 40.4649, "lon": -3.6217, "name": "Feria de Madrid"}, {"id": "L8_AER", "lat": 40.4689, "lon": -3.5705, "name": "Aeropuerto T1-T2-T3"}, {"id": "L8_BAR", "lat": 40.4762, "lon": -3.5755, "name": "Barajas"}, {"id": "L8_AET", "lat": 40.4919, "lon": -3.5933, "name": "Aeropuerto T4"}, {"id": "L9_PAC", "lat": 40.4855, "lon": -3.6854, "name": "Paco de Luc\u00eda"}, {"id": "L9_MIN", "lat": 40.4783, "lon": -3.6943, "name": "Mirasierra"}, {"id": "L9_HER", "lat": 40.4748, "lon": -3.7, "name": "Herrera Oria"}, {"id": "L9_BAR9", "lat": 40.4696, "lon": -3.6998, "name": "Barrio del Pilar"}, {"id": "L9_VNT", "lat": 40.4677, "lon": -3.6971, "name": "Ventilla"}, {"id": "L9_PLA9", "lat": 40.4662, "lon": -3.689, "name": "Plaza de Castilla"}, {"id": "L9_DUQ", "lat": 40.4547, "lon": -3.6772, "name": "Duque de Pastrana"}, {"id": "L9_PIR9", "lat": 40.4635, "lon": -3.6618, "name": "Pinar del Rey"}, {"id": "L9_MAR9", "lat": 40.4708, "lon": -3.6494, "name": "Mar de Cristal"}, {"id": "L9_CAM9", "lat": 40.4652, "lon": -3.6156, "name": "Campo de las Naciones"}, {"id": "L9_AVA9", "lat": 40.4394, "lon": -3.6627, "name": "Avenida de Am\u00e9rica"}, {"id": "L9_NMI9", "lat": 40.4313, "lon": -3.686, "name": "N\u00fa\u00f1ez de Balboa"}, {"id": "L9_PRI9", "lat": 40.4295, "lon": -3.6759, "name": "Pr\u00edncipe de Vergara"}, {"id": "L9_IBI9", "lat": 40.4152, "lon": -3.6741, "name": "Ibiza"}, {"id": "L9_SAI9", "lat": 40.4191, "lon": -3.6687, "name": "Sainz de Baranda"}, {"id": "L9_EST9", "lat": 40.4123, "lon": -3.6678, "name": "Estrella"}, {"id": "L9_VIN", "lat": 40.4073, "lon": -3.6628, "name": "Vinateros"}, {"id": "L9_ART", "lat": 40.4027, "lon": -3.6571, "name": "Artilleros"}, {"id": "L9_PAV", "lat": 40.396, "lon": -3.6512, "name": "Pavones"}, {"id": "L9_VAL9", "lat": 40.387, "lon": -3.6411, "name": "Valdebernardo"}, {"id": "L9_VIC9", "lat": 40.3793, "lon": -3.6106, "name": "Vic\u00e1lvaro"}, {"id": "L9_SAM", "lat": 40.3774, "lon": -3.5903, "name": "San Cipriano"}, {"id": "L9_RIV", "lat": 40.362, "lon": -3.5456, "name": "Rivas-Urbanizaciones"}, {"id": "L9_RIU", "lat": 40.3527, "lon": -3.5351, "name": "Rivas-Urbanizaciones"}, {"id": "L9_VRE", "lat": 40.3275, "lon": -3.4852, "name": "La Poveda"}, {"id": "L9_ARG", "lat": 40.3015, "lon": -3.4377, "name": "Arganda del Rey"}, {"id": "L10_HIS", "lat": 40.5628, "lon": -3.6111, "name": "Hospital Infanta Sof\u00eda"}, {"id": "L10_REY", "lat": 40.5437, "lon": -3.6111, "name": "Reyes Cat\u00f3licos"}, {"id": "L10_SSE", "lat": 40.5315, "lon": -3.6204, "name": "San Sebasti\u00e1n de los Reyes"}, {"id": "L10_BEG", "lat": 40.516, "lon": -3.6368, "name": "Baunatal"}, {"id": "L10_MVO", "lat": 40.5048, "lon": -3.65, "name": "La Moraleja"}, {"id": "L10_LGR", "lat": 40.4959, "lon": -3.6538, "name": "La Granja"}, {"id": "L10_RAQ", "lat": 40.4779, "lon": -3.6581, "name": "Ronda de la Comunicaci\u00f3n"}, {"id": "L10_LPS", "lat": 40.4729, "lon": -3.6669, "name": "Las Tablas"}, {"id": "L10_MTS", "lat": 40.4706, "lon": -3.6806, "name": "Montecarmelo"}, {"id": "L10_CHA10", "lat": 40.4723, "lon": -3.6826, "name": "Chamart\u00edn"}, {"id": "L10_PLA10", "lat": 40.4662, "lon": -3.689, "name": "Plaza de Castilla"}, {"id": "L10_CUZ10", "lat": 40.4504, "lon": -3.6887, "name": "Cuzco"}, {"id": "L10_SAN10", "lat": 40.4529, "lon": -3.6899, "name": "Santiago Bernab\u00e9u"}, {"id": "L10_NMI10", "lat": 40.4464, "lon": -3.6925, "name": "Nuevos Ministerios"}, {"id": "L10_GRE10", "lat": 40.4404, "lon": -3.6958, "name": "Gregorio Mara\u00f1\u00f3n"}, {"id": "L10_ALO10", "lat": 40.4269, "lon": -3.6947, "name": "Alonso Mart\u00ednez"}, {"id": "L10_TRI10", "lat": 40.4265, "lon": -3.7013, "name": "Tribunal"}, {"id": "L10_PLA102", "lat": 40.4236, "lon": -3.7113, "name": "Plaza de Espa\u00f1a"}, {"id": "L10_PRI10", "lat": 40.4217, "lon": -3.7201, "name": "Pr\u00edncipe P\u00edo"}, {"id": "L10_LAG10", "lat": 40.4148, "lon": -3.7428, "name": "Lago"}, {"id": "L10_CAS10", "lat": 40.4094, "lon": -3.7457, "name": "Casa de Campo"}, {"id": "L10_BAT10", "lat": 40.4103, "lon": -3.7579, "name": "Bat\u00e1n"}, {"id": "L10_CAM10", "lat": 40.3857, "lon": -3.7833, "name": "Campamento"}, {"id": "L10_COL10", "lat": 40.3803, "lon": -3.7814, "name": "Colonia Jard\u00edn"}, {"id": "L10_AVN", "lat": 40.375, "lon": -3.775, "name": "Aviaci\u00f3n Espa\u00f1ola"}, {"id": "L10_GET", "lat": 40.3086, "lon": -3.7262, "name": "Getafe Central"}, {"id": "L10_ALO102", "lat": 40.3073, "lon": -3.7195, "name": "Alonso de Mendoza"}, {"id": "L10_JUA", "lat": 40.3072, "lon": -3.708, "name": "Juan de la Cierva"}, {"id": "L10_CON10", "lat": 40.3122, "lon": -3.7021, "name": "Conservatorio"}, {"id": "L10_ELB", "lat": 40.326, "lon": -3.703, "name": "El Bercial"}, {"id": "L10_ELC10", "lat": 40.3386, "lon": -3.708, "name": "El Carrascal"}, {"id": "L10_PSU", "lat": 40.3477, "lon": -3.7113, "name": "Puerta del Sur"}, {"id": "L11_PLZ", "lat": 40.3849, "lon": -3.7163, "name": "Plaza El\u00edptica"}, {"id": "L11_ACA", "lat": 40.3853, "lon": -3.7247, "name": "Abrantes"}, {"id": "L11_PAN", "lat": 40.3853, "lon": -3.7328, "name": "Pan Bendito"}, {"id": "L11_PES", "lat": 40.3895, "lon": -3.7417, "name": "La Peseta"}, {"id": "L12_GET", "lat": 40.3086, "lon": -3.7262, "name": "Getafe Central"}, {"id": "L12_JUA12", "lat": 40.3072, "lon": -3.708, "name": "Juan de la Cierva"}, {"id": "L12_CON12", "lat": 40.3122, "lon": -3.7021, "name": "Conservatorio"}, {"id": "L12_ALO12", "lat": 40.3073, "lon": -3.7195, "name": "Alonso de Mendoza"}, {"id": "L12_PSU12", "lat": 40.3477, "lon": -3.7113, "name": "Puerta del Sur"}, {"id": "L12_PAR12", "lat": 40.3395, "lon": -3.7584, "name": "Parque Lisboa"}, {"id": "L12_ALO122", "lat": 40.345, "lon": -3.8309, "name": "Alcorc\u00f3n Central"}, {"id": "L12_PAB", "lat": 40.3503, "lon": -3.8368, "name": "Parque Oeste"}, {"id": "L12_LER", "lat": 40.3263, "lon": -3.76, "name": "Legan\u00e9s Central"}, {"id": "L12_SAN12", "lat": 40.3236, "lon": -3.7694, "name": "San Nicasio"}, {"id": "L12_CAS12", "lat": 40.32, "lon": -3.775, "name": "Casa del Reloj"}, {"id": "L12_HOS12", "lat": 40.3156, "lon": -3.78, "name": "Hospital Severo Ochoa"}, {"id": "L12_UNI", "lat": 40.3344, "lon": -3.8789, "name": "Universidad Rey Juan Carlos"}, {"id": "L12_MOS", "lat": 40.3225, "lon": -3.8764, "name": "M\u00f3stoles Central"}, {"id": "L12_PRM", "lat": 40.315, "lon": -3.875, "name": "Pradillo"}, {"id": "L12_HOR", "lat": 40.31, "lon": -3.87, "name": "Hospital de M\u00f3stoles"}, {"id": "L12_MAN12", "lat": 40.305, "lon": -3.865, "name": "Manuela Malasa\u00f1a"}, {"id": "L12_LOR", "lat": 40.292, "lon": -3.8294, "name": "Loranca"}, {"id": "L12_HOM", "lat": 40.285, "lon": -3.805, "name": "Hospital de Fuenlabrada"}, {"id": "L12_PAR122", "lat": 40.2774, "lon": -3.8, "name": "Parque Europa"}, {"id": "L12_FUE", "lat": 40.2848, "lon": -3.7897, "name": "Fuenlabrada Central"}, {"id": "L12_POL", "lat": 40.29, "lon": -3.77, "name": "Parque de los Estados"}, {"id": "L12_ARR12", "lat": 40.295, "lon": -3.755, "name": "Arroyo Culebro"}, {"id": "L12_ELB12", "lat": 40.326, "lon": -3.703, "name": "El Bercial"}, {"id": "L12_ELC12", "lat": 40.3386, "lon": -3.708, "name": "El Carrascal"}], "edges": [{"from": "L1_PIN", "to": "L1_BAM", "weight": 120}, {"from": "L1_BAM", "to": "L1_CHA", "weight": 120}, {"from": "L1_CHA", "to": "L1_PLA", "weight": 120}, {"from": "L1_PLA", "to": "L1_VAL", "weight": 120}, {"from": "L1_VAL", "to": "L1_TET", "weight": 120}, {"from": "L1_TET", "to": "L1_EST", "weight": 120}, {"from": "L1_EST", "to": "L1_ALV", "weight": 120}, {"from": "L1_ALV", "to": "L1_CUA", "weight": 120}, {"from": "L1_CUA", "to": "L1_RIO", "weight": 120}, {"from": "L1_RIO", "to": "L1_IGL", "weight": 120}, {"from": "L1_IGL", "to": "L1_BIL", "weight": 120}, {"from": "L1_BIL", "to": "L1_TRI", "weight": 120}, {"from": "L1_TRI", "to": "L1_GRA", "weight": 120}, {"from": "L1_GRA", "to": "L1_SOL", "weight": 120}, {"from": "L1_SOL", "to": "L1_TIR", "weight": 120}, {"from": "L1_TIR", "to": "L1_ANT", "weight": 120}, {"from": "L1_ANT", "to": "L1_ATO", "weight": 120}, {"from": "L1_ATO", "to": "L1_ATR", "weight": 120}, {"from": "L1_ATR", "to": "L1_MEN", "weight": 120}, {"from": "L1_MEN", "to": "L1_NIN", "weight": 120}, {"from": "L1_NIN", "to": "L1_IBI", "weight": 120}, {"from": "L1_IBI", "to": "L1_SAI", "weight": 120}, {"from": "L1_SAI", "to": "L1_OCO", "weight": 120}, {"from": "L1_OCO", "to": "L1_PRI", "weight": 120}, {"from": "L1_PRI", "to": "L1_GOY", "weight": 120}, {"from": "L1_GOY", "to": "L1_VEL", "weight": 120}, {"from": "L1_VEL", "to": "L1_SER", "weight": 120}, {"from": "L1_SER", "to": "L1_RET", "weight": 120}, {"from": "L1_RET", "to": "L1_BAN", "weight": 120}, {"from": "L1_BAN", "to": "L1_SEV", "weight": 120}, {"from": "L1_SEV", "to": "L1_POR", "weight": 120}, {"from": "L1_POR", "to": "L1_BUE", "weight": 120}, {"from": "L1_BUE", "to": "L1_ALT", "weight": 120}, {"from": "L1_ALT", "to": "L1_MIG", "weight": 120}, {"from": "L1_MIG", "to": "L1_SIE", "weight": 120}, {"from": "L1_SIE", "to": "L1_VIL", "weight": 120}, {"from": "L1_VIL", "to": "L1_CON", "weight": 120}, {"from": "L1_CON", "to": "L1_LAE", "weight": 120}, {"from": "L1_LAE", "to": "L1_VAD", "weight": 120}, {"from": "L2_ROS", "to": "L2_ESA", "weight": 120}, {"from": "L2_ESA", "to": "L2_ALM", "weight": 120}, {"from": "L2_ALM", "to": "L2_ALC", "weight": 120}, {"from": "L2_ALC", "to": "L2_ARC", "weight": 120}, {"from": "L2_ARC", "to": "L2_PUE", "weight": 120}, {"from": "L2_PUE", "to": "L2_ASC", "weight": 120}, {"from": "L2_ASC", "to": "L2_GAR", "weight": 120}, {"from": "L2_GAR", "to": "L2_CIU", "weight": 120}, {"from": "L2_CIU", "to": "L2_QUI", "weight": 120}, {"from": "L2_QUI", "to": "L2_ELP", "weight": 120}, {"from": "L2_ELP", "to": "L2_VEN", "weight": 120}, {"from": "L2_VEN", "to": "L2_MAN", "weight": 120}, {"from": "L2_MAN", "to": "L2_GOY2", "weight": 120}, {"from": "L2_GOY2", "to": "L2_PRI2", "weight": 120}, {"from": "L2_PRI2", "to": "L2_RET2", "weight": 120}, {"from": "L2_RET2", "to": "L2_BAN2", "weight": 120}, {"from": "L2_BAN2", "to": "L2_SEV2", "weight": 120}, {"from": "L2_SEV2", "to": "L2_SOL2", "weight": 120}, {"from": "L2_SOL2", "to": "L2_OPE", "weight": 120}, {"from": "L2_OPE", "to": "L2_SAN", "weight": 120}, {"from": "L2_SAN", "to": "L2_NOV", "weight": 120}, {"from": "L2_NOV", "to": "L2_SAB", "weight": 120}, {"from": "L2_SAB", "to": "L2_QUE", "weight": 120}, {"from": "L2_QUE", "to": "L2_CAN", "weight": 120}, {"from": "L2_CAN", "to": "L2_CUA2", "weight": 120}, {"from": "L3_VIV", "to": "L3_SAN3", "weight": 120}, {"from": "L3_SAN3", "to": "L3_VIL3", "weight": 120}, {"from": "L3_VIL3", "to": "L3_CIU3", "weight": 120}, {"from": "L3_CIU3", "to": "L3_SFE", "weight": 120}, {"from": "L3_SFE", "to": "L3_HOS", "weight": 120}, {"from": "L3_HOS", "to": "L3_ALO", "weight": 120}, {"from": "L3_ALO", "to": "L3_LEG", "weight": 120}, {"from": "L3_LEG", "to": "L3_DEL", "weight": 120}, {"from": "L3_DEL", "to": "L3_PAC", "weight": 120}, {"from": "L3_PAC", "to": "L3_EMB", "weight": 120}, {"from": "L3_EMB", "to": "L3_LAV", "weight": 120}, {"from": "L3_LAV", "to": "L3_SOL3", "weight": 120}, {"from": "L3_SOL3", "to": "L3_CAL", "weight": 120}, {"from": "L3_CAL", "to": "L3_VEN3", "weight": 120}, {"from": "L3_VEN3", "to": "L3_ARG", "weight": 120}, {"from": "L3_ARG", "to": "L3_MON", "weight": 120}, {"from": "L4_ARG4", "to": "L4_SAB4", "weight": 120}, {"from": "L4_SAB4", "to": "L4_BIL4", "weight": 120}, {"from": "L4_BIL4", "to": "L4_ALO4", "weight": 120}, {"from": "L4_ALO4", "to": "L4_COL", "weight": 120}, {"from": "L4_COL", "to": "L4_SER4", "weight": 120}, {"from": "L4_SER4", "to": "L4_VEL4", "weight": 120}, {"from": "L4_VEL4", "to": "L4_GOY4", "weight": 120}, {"from": "L4_GOY4", "to": "L4_LIS", "weight": 120}, {"from": "L4_LIS", "to": "L4_DIE", "weight": 120}, {"from": "L4_DIE", "to": "L4_ALP", "weight": 120}, {"from": "L4_ALP", "to": "L4_PMA", "weight": 120}, {"from": "L4_PMA", "to": "L4_AVA", "weight": 120}, {"from": "L4_AVA", "to": "L4_REP", "weight": 120}, {"from": "L4_REP", "to": "L4_NMI", "weight": 120}, {"from": "L5_OSU", "to": "L5_ELT", "weight": 120}, {"from": "L5_ELT", "to": "L5_CAN5", "weight": 120}, {"from": "L5_CAN5", "to": "L5_TOR", "weight": 120}, {"from": "L5_TOR", "to": "L5_SUA", "weight": 120}, {"from": "L5_SUA", "to": "L5_CIU5", "weight": 120}, {"from": "L5_CIU5", "to": "L5_PUE5", "weight": 120}, {"from": "L5_PUE5", "to": "L5_QUI5", "weight": 120}, {"from": "L5_QUI5", "to": "L5_ELI", "weight": 120}, {"from": "L5_ELI", "to": "L5_VEN5", "weight": 120}, {"from": "L5_VEN5", "to": "L5_DIE5", "weight": 120}, {"from": "L5_DIE5", "to": "L5_NMI5", "weight": 120}, {"from": "L5_NMI5", "to": "L5_RUB", "weight": 120}, {"from": "L5_RUB", "to": "L5_ALO5", "weight": 120}, {"from": "L5_ALO5", "to": "L5_CHU", "weight": 120}, {"from": "L5_CHU", "to": "L5_GRA5", "weight": 120}, {"from": "L5_GRA5", "to": "L5_CAL5", "weight": 120}, {"from": "L5_CAL5", "to": "L5_OPE5", "weight": 120}, {"from": "L5_OPE5", "to": "L5_LAT", "weight": 120}, {"from": "L5_LAT", "to": "L5_PUA", "weight": 120}, {"from": "L5_PUA", "to": "L5_ACA5", "weight": 120}, {"from": "L5_ACA5", "to": "L5_PIR5", "weight": 120}, {"from": "L5_PIR5", "to": "L5_MAR5", "weight": 120}, {"from": "L5_MAR5", "to": "L5_URG5", "weight": 120}, {"from": "L5_URG5", "to": "L5_OPO5", "weight": 120}, {"from": "L5_OPO5", "to": "L5_VIS5", "weight": 120}, {"from": "L5_VIS5", "to": "L5_CAR5", "weight": 120}, {"from": "L5_CAR5", "to": "L5_EUG", "weight": 120}, {"from": "L5_EUG", "to": "L5_ALU", "weight": 120}, {"from": "L5_ALU", "to": "L5_EMT", "weight": 120}, {"from": "L5_EMT", "to": "L5_CAM", "weight": 120}, {"from": "L5_CAM", "to": "L5_CAS", "weight": 120}, {"from": "L6_MET", "to": "L6_GUZ", "weight": 120}, {"from": "L6_GUZ", "to": "L6_VIC", "weight": 120}, {"from": "L6_VIC", "to": "L6_MET6", "weight": 120}, {"from": "L6_MET6", "to": "L6_REP6", "weight": 120}, {"from": "L6_REP6", "to": "L6_NMI6", "weight": 120}, {"from": "L6_NMI6", "to": "L6_CUZ", "weight": 120}, {"from": "L6_CUZ", "to": "L6_SAN6", "weight": 120}, {"from": "L6_SAN6", "to": "L6_AVA6", "weight": 120}, {"from": "L6_AVA6", "to": "L6_DIE6", "weight": 120}, {"from": "L6_DIE6", "to": "L6_MAN6", "weight": 120}, {"from": "L6_MAN6", "to": "L6_CON6", "weight": 120}, {"from": "L6_CON6", "to": "L6_SAI6", "weight": 120}, {"from": "L6_SAI6", "to": "L6_PAC6", "weight": 120}, {"from": "L6_PAC6", "to": "L6_PCA", "weight": 120}, {"from": "L6_PCA", "to": "L6_NVA", "weight": 120}, {"from": "L6_NVA", "to": "L6_POR6", "weight": 120}, {"from": "L6_POR6", "to": "L6_BUE6", "weight": 120}, {"from": "L6_BUE6", "to": "L6_ALT6", "weight": 120}, {"from": "L6_ALT6", "to": "L6_VAL6", "weight": 120}, {"from": "L6_VAL6", "to": "L6_SEG", "weight": 120}, {"from": "L6_SEG", "to": "L6_LEG6", "weight": 120}, {"from": "L6_LEG6", "to": "L6_ARG6", "weight": 120}, {"from": "L6_ARG6", "to": "L6_MCA", "weight": 120}, {"from": "L6_MCA", "to": "L6_OCO6", "weight": 120}, {"from": "L6_OCO6", "to": "L6_LOZ", "weight": 120}, {"from": "L6_LOZ", "to": "L6_OPO6", "weight": 120}, {"from": "L6_OPO6", "to": "L6_LAG", "weight": 120}, {"from": "L6_LAG", "to": "L6_CAR6", "weight": 120}, {"from": "L6_CAR6", "to": "L6_ALU6", "weight": 120}, {"from": "L6_ALU6", "to": "L6_LUC", "weight": 120}, {"from": "L6_LUC", "to": "L6_BAT", "weight": 120}, {"from": "L6_BAT", "to": "L6_CAS6", "weight": 120}, {"from": "L6_CAS6", "to": "L6_PLA6", "weight": 120}, {"from": "L6_PLA6", "to": "L6_PRI6", "weight": 120}, {"from": "L6_PRI6", "to": "L6_PUR", "weight": 120}, {"from": "L6_PUR", "to": "L6_ALT66", "weight": 120}, {"from": "L6_ALT66", "to": "L6_MON6", "weight": 120}, {"from": "L7_HEN", "to": "L7_HEN2", "weight": 120}, {"from": "L7_HEN2", "to": "L7_COS", "weight": 120}, {"from": "L7_COS", "to": "L7_LAR", "weight": 120}, {"from": "L7_LAR", "to": "L7_SFN", "weight": 120}, {"from": "L7_SFN", "to": "L7_JRN", "weight": 120}, {"from": "L7_JRN", "to": "L7_OSU7", "weight": 120}, {"from": "L7_OSU7", "to": "L7_ELC", "weight": 120}, {"from": "L7_ELC", "to": "L7_CAN7", "weight": 120}, {"from": "L7_CAN7", "to": "L7_TOR7", "weight": 120}, {"from": "L7_TOR7", "to": "L7_SUA7", "weight": 120}, {"from": "L7_SUA7", "to": "L7_CIU7", "weight": 120}, {"from": "L7_CIU7", "to": "L7_PUE7", "weight": 120}, {"from": "L7_PUE7", "to": "L7_ASC7", "weight": 120}, {"from": "L7_ASC7", "to": "L7_GAR7", "weight": 120}, {"from": "L7_GAR7", "to": "L7_BRC", "weight": 120}, {"from": "L7_BRC", "to": "L7_PAR", "weight": 120}, {"from": "L7_PAR", "to": "L7_CAR7", "weight": 120}, {"from": "L7_CAR7", "to": "L7_AVA7", "weight": 120}, {"from": "L7_AVA7", "to": "L7_CRU", "weight": 120}, {"from": "L7_CRU", "to": "L7_NMI7", "weight": 120}, {"from": "L7_NMI7", "to": "L7_GRE", "weight": 120}, {"from": "L7_GRE", "to": "L7_ALO7", "weight": 120}, {"from": "L7_ALO7", "to": "L7_CAN72", "weight": 120}, {"from": "L7_CAN72", "to": "L7_ISL", "weight": 120}, {"from": "L7_ISL", "to": "L7_GUZ7", "weight": 120}, {"from": "L7_GUZ7", "to": "L7_VIC7", "weight": 120}, {"from": "L7_VIC7", "to": "L7_AVR", "weight": 120}, {"from": "L7_AVR", "to": "L7_ANT7", "weight": 120}, {"from": "L7_ANT7", "to": "L7_PER", "weight": 120}, {"from": "L7_PER", "to": "L7_ARR", "weight": 120}, {"from": "L7_ARR", "to": "L7_LAC", "weight": 120}, {"from": "L7_LAC", "to": "L7_PIT", "weight": 120}, {"from": "L8_NMI8", "to": "L8_COL8", "weight": 120}, {"from": "L8_COL8", "to": "L8_PIR8", "weight": 120}, {"from": "L8_PIR8", "to": "L8_MAR8", "weight": 120}, {"from": "L8_MAR8", "to": "L8_FER", "weight": 120}, {"from": "L8_FER", "to": "L8_AER", "weight": 120}, {"from": "L8_AER", "to": "L8_BAR", "weight": 120}, {"from": "L8_BAR", "to": "L8_AET", "weight": 120}, {"from": "L9_PAC", "to": "L9_MIN", "weight": 120}, {"from": "L9_MIN", "to": "L9_HER", "weight": 120}, {"from": "L9_HER", "to": "L9_BAR9", "weight": 120}, {"from": "L9_BAR9", "to": "L9_VNT", "weight": 120}, {"from": "L9_VNT", "to": "L9_PLA9", "weight": 120}, {"from": "L9_PLA9", "to": "L9_DUQ", "weight": 120}, {"from": "L9_DUQ", "to": "L9_PIR9", "weight": 120}, {"from": "L9_PIR9", "to": "L9_MAR9", "weight": 120}, {"from": "L9_MAR9", "to": "L9_CAM9", "weight": 120}, {"from": "L9_CAM9", "to": "L9_AVA9", "weight": 120}, {"from": "L9_AVA9", "to": "L9_NMI9", "weight": 120}, {"from": "L9_NMI9", "to": "L9_PRI9", "weight": 120}, {"from": "L9_PRI9", "to": "L9_IBI9", "weight": 120}, {"from": "L9_IBI9", "to": "L9_SAI9", "weight": 120}, {"from": "L9_SAI9", "to": "L9_EST9", "weight": 120}, {"from": "L9_EST9", "to": "L9_VIN", "weight": 120}, {"from": "L9_VIN", "to": "L9_ART", "weight": 120}, {"from": "L9_ART", "to": "L9_PAV", "weight": 120}, {"from": "L9_PAV", "to": "L9_VAL9", "weight": 120}, {"from": "L9_VAL9", "to": "L9_VIC9", "weight": 120}, {"from": "L9_VIC9", "to": "L9_SAM", "weight": 120}, {"from": "L9_SAM", "to": "L9_RIV", "weight": 120}, {"from": "L9_RIV", "to": "L9_RIU", "weight": 120}, {"from": "L9_RIU", "to": "L9_VRE", "weight": 120}, {"from": "L9_VRE", "to": "L9_ARG", "weight": 120}, {"from": "L10_HIS", "to": "L10_REY", "weight": 120}, {"from": "L10_REY", "to": "L10_SSE", "weight": 120}, {"from": "L10_SSE", "to": "L10_BEG", "weight": 120}, {"from": "L10_BEG", "to": "L10_MVO", "weight": 120}, {"from": "L10_MVO", "to": "L10_LGR", "weight": 120}, {"from": "L10_LGR", "to": "L10_RAQ", "weight": 120}, {"from": "L10_RAQ", "to": "L10_LPS", "weight": 120}, {"from": "L10_LPS", "to": "L10_MTS", "weight": 120}, {"from": "L10_MTS", "to": "L10_CHA10", "weight": 120}, {"from": "L10_CHA10", "to": "L10_PLA10", "weight": 120}, {"from": "L10_PLA10", "to": "L10_CUZ10", "weight": 120}, {"from": "L10_CUZ10", "to": "L10_SAN10", "weight": 120}, {"from": "L10_SAN10", "to": "L10_NMI10", "weight": 120}, {"from": "L10_NMI10", "to": "L10_GRE10", "weight": 120}, {"from": "L10_GRE10", "to": "L10_ALO10", "weight": 120}, {"from": "L10_ALO10", "to": "L10_TRI10", "weight": 120}, {"from": "L10_TRI10", "to": "L10_PLA102", "weight": 120}, {"from": "L10_PLA102", "to": "L10_PRI10", "weight": 120}, {"from": "L10_PRI10", "to": "L10_LAG10", "weight": 120}, {"from": "L10_LAG10", "to": "L10_CAS10", "weight": 120}, {"from": "L10_CAS10", "to": "L10_BAT10", "weight": 120}, {"from": "L10_BAT10", "to": "L10_CAM10", "weight": 120}, {"from": "L10_CAM10", "to": "L10_COL10", "weight": 120}, {"from": "L10_COL10", "to": "L10_AVN", "weight": 120}, {"from": "L10_AVN", "to": "L10_GET", "weight": 120}, {"from": "L10_GET", "to": "L10_ALO102", "weight": 120}, {"from": "L10_ALO102", "to": "L10_JUA", "weight": 120}, {"from": "L10_JUA", "to": "L10_CON10", "weight": 120}, {"from": "L10_CON10", "to": "L10_ELB", "weight": 120}, {"from": "L10_ELB", "to": "L10_ELC10", "weight": 120}, {"from": "L10_ELC10", "to": "L10_PSU", "weight": 120}, {"from": "L11_PLZ", "to": "L11_ACA", "weight": 120}, {"from": "L11_ACA", "to": "L11_PAN", "weight": 120}, {"from": "L11_PAN", "to": "L11_PES", "weight": 120}, {"from": "L12_GET", "to": "L12_JUA12", "weight": 120}, {"from": "L12_JUA12", "to": "L12_CON12", "weight": 120}, {"from": "L12_CON12", "to": "L12_ALO12", "weight": 120}, {"from": "L12_ALO12", "to": "L12_PSU12", "weight": 120}, {"from": "L12_PSU12", "to": "L12_PAR12", "weight": 120}, {"from": "L12_PAR12", "to": "L12_ALO122", "weight": 120}, {"from": "L12_ALO122", "to": "L12_PAB", "weight": 120}, {"from": "L12_PAB", "to": "L12_LER", "weight": 120}, {"from": "L12_LER", "to": "L12_SAN12", "weight": 120}, {"from": "L12_SAN12", "to": "L12_CAS12", "weight": 120}, {"from": "L12_CAS12", "to": "L12_HOS12", "weight": 120}, {"from": "L12_HOS12", "to": "L12_UNI", "weight": 120}, {"from": "L12_UNI", "to": "L12_MOS", "weight": 120}, {"from": "L12_MOS", "to": "L12_PRM", "weight": 120}, {"from": "L12_PRM", "to": "L12_HOR", "weight": 120}, {"from": "L12_HOR", "to": "L12_MAN12", "weight": 120}, {"from": "L12_MAN12", "to": "L12_LOR", "weight": 120}, {"from": "L12_LOR", "to": "L12_HOM", "weight": 120}, {"from": "L12_HOM", "to": "L12_PAR122", "weight": 120}, {"from": "L12_PAR122", "to": "L12_FUE", "weight": 120}, {"from": "L12_FUE", "to": "L12_POL", "weight": 120}, {"from": "L12_POL", "to": "L12_ARR12", "weight": 120}, {"from": "L12_ARR12", "to": "L12_ELB12", "weight": 120}, {"from": "L12_ELB12", "to": "L12_ELC12", "weight": 120}]}