{"nodes": [{"id": "2190050", "lat": 59.92624, "lon": 10.61938, "name": "Jar"}, {"id": "2190051", "lat": 59.92524, "lon": 10.61745, "name": "Jar"}, {"id": "2190070", "lat": 59.94696, "lon": 10.62307, "name": "Eiksmarka"}, {"id": "2190080", "lat": 59.94098, "lon": 10.61651, "name": "Lijordet"}, {"id": "2190090", "lat": 59.93937, "lon": 10.60951, "name": "\u00d8ster\u00e5s"}, {"id": "2190120", "lat": 59.92013, "lon": 10.60436, "name": "Ringstabekk"}, {"id": "2190148", "lat": 59.9176, "lon": 10.59091, "name": "Bekkestua"}, {"id": "2190150", "lat": 59.91707, "lon": 10.58943, "name": "Bekkestua"}, {"id": "2190180", "lat": 59.91458, "lon": 10.58155, "name": "Gj\u00f8nnes"}, {"id": "2190220", "lat": 59.91494, "lon": 10.56184, "name": "Haslum"}, {"id": "2190280", "lat": 59.9131, "lon": 10.54836, "name": "Avl\u00f8s"}, {"id": "2190360", "lat": 59.90869, "lon": 10.53125, "name": "Gjettum"}, {"id": "2190440", "lat": 59.91095, "lon": 10.51058, "name": "Hauger"}, {"id": "2190450", "lat": 59.91483, "lon": 10.50093, "name": "Kols\u00e5s"}, {"id": "3010011", "lat": 59.91186, "lon": 10.7512, "name": "Jernbanetorget"}, {"id": "3010012", "lat": 59.91232, "lon": 10.75131, "name": "Jernbanetorget"}, {"id": "3010013", "lat": 59.91155, "lon": 10.75, "name": "Jernbanetorget"}, {"id": "3010019", "lat": 59.91053, "lon": 10.74698, "name": "Dronningens gate"}, {"id": "3010020", "lat": 59.91378, "lon": 10.74182, "name": "Stortinget"}, {"id": "3010021", "lat": 59.91182, "lon": 10.74168, "name": "\u00d8vre Slottsgate"}, {"id": "3010031", "lat": 59.91556, "lon": 10.73195, "name": "Nationaltheatret"}, {"id": "3010032", "lat": 59.91464, "lon": 10.73291, "name": "Nationaltheatret"}, {"id": "3010045", "lat": 59.91101, "lon": 10.72989, "name": "Aker brygge"}, {"id": "3010048", "lat": 59.91355, "lon": 10.74408, "name": "Stortorvet"}, {"id": "3010050", "lat": 59.91302, "lon": 10.74527, "name": "Stortorvet"}, {"id": "3010051", "lat": 59.91245, "lon": 10.74545, "name": "Stortorvet"}, {"id": "3010053", "lat": 59.91533, "lon": 10.74128, "name": "Tinghuset"}, {"id": "3010057", "lat": 59.9188, "lon": 10.7345, "name": "Holbergs plass"}, {"id": "3010065", "lat": 59.91442, "lon": 10.75334, "name": "Brugata"}, {"id": "3010077", "lat": 59.9109, "lon": 10.73579, "name": "Kontraskj\u00e6ret"}, {"id": "3010105", "lat": 59.91577, "lon": 10.72116, "name": "Inkognitogata"}, {"id": "3010110", "lat": 59.91485, "lon": 10.71898, "name": "Solli"}, {"id": "3010114", "lat": 59.91634, "lon": 10.71514, "name": "Niels Juels gate"}, {"id": "3010120", "lat": 59.91283, "lon": 10.71063, "name": "Skillebekk"}, {"id": "3010122", "lat": 59.91431, "lon": 10.70246, "name": "Skarpsno"}, {"id": "3010123", "lat": 59.91761, "lon": 10.69854, "name": "Nobels gate"}, {"id": "3010126", "lat": 59.91285, "lon": 10.72417, "name": "Rusel\u00f8kka"}, {"id": "3010131", "lat": 59.91949, "lon": 10.70874, "name": "Elisenberg"}, {"id": "3010134", "lat": 59.91814, "lon": 10.71178, "name": "Lille Frogner all\u00e9"}, {"id": "3010200", "lat": 59.93026, "lon": 10.71461, "name": "Majorstuen"}, {"id": "3010201", "lat": 59.92916, "lon": 10.71613, "name": "Majorstuen"}, {"id": "3010212", "lat": 59.92274, "lon": 10.72648, "name": "Homansbyen"}, {"id": "3010217", "lat": 59.92627, "lon": 10.72145, "name": "Bogstadveien"}, {"id": "3010220", "lat": 59.92222, "lon": 10.70484, "name": "Frogner plass"}, {"id": "3010221", "lat": 59.9247, "lon": 10.70838, "name": "Vigelandsparken"}, {"id": "3010222", "lat": 59.9272, "lon": 10.71255, "name": "Frogner stadion"}, {"id": "3010230", "lat": 59.92008, "lon": 10.718, "name": "Briskeby"}, {"id": "3010231", "lat": 59.92421, "lon": 10.72378, "name": "Rosenborg"}, {"id": "3010233", "lat": 59.91896, "lon": 10.72021, "name": "Riddervolds plass"}, {"id": "3010306", "lat": 59.92353, "lon": 10.7316, "name": "Dalsbergstien"}, {"id": "3010307", "lat": 59.92093, "lon": 10.73305, "name": "Frydenlund"}, {"id": "3010312", "lat": 59.92586, "lon": 10.73104, "name": "Bislett"}, {"id": "3010313", "lat": 59.92949, "lon": 10.73298, "name": "Stensgata"}, {"id": "3010314", "lat": 59.93262, "lon": 10.73474, "name": "Adamstuen"}, {"id": "3010341", "lat": 59.93623, "lon": 10.73197, "name": "Ullev\u00e5l sykehus"}, {"id": "3010350", "lat": 59.93984, "lon": 10.7291, "name": "John Colletts plass"}, {"id": "3010360", "lat": 59.94005, "lon": 10.71594, "name": "Blindern"}, {"id": "3010365", "lat": 59.94207, "lon": 10.7248, "name": "Universitetet Blindern"}, {"id": "3010370", "lat": 59.94363, "lon": 10.72069, "name": "Forskningsparken"}, {"id": "3010371", "lat": 59.94383, "lon": 10.7209, "name": "Forskningsparken"}, {"id": "3010430", "lat": 59.93512, "lon": 10.76476, "name": "Torshov"}, {"id": "3010440", "lat": 59.93909, "lon": 10.76892, "name": "Sandaker senter"}, {"id": "3010443", "lat": 59.94274, "lon": 10.77338, "name": "Grefsenveien"}, {"id": "3010510", "lat": 59.91641, "lon": 10.75765, "name": "Hausmanns gate"}, {"id": "3010511", "lat": 59.9202, "lon": 10.76069, "name": "Korsgata"}, {"id": "3010512", "lat": 59.92078, "lon": 10.75931, "name": "Schous plass"}, {"id": "3010513", "lat": 59.92308, "lon": 10.75923, "name": "Olaf Ryes plass"}, {"id": "3010520", "lat": 59.9272, "lon": 10.76019, "name": "Birkelunden"}, {"id": "3010527", "lat": 59.93045, "lon": 10.76111, "name": "Biermanns gate"}, {"id": "3010531", "lat": 59.91846, "lon": 10.7614, "name": "Heimdalsgata"}, {"id": "3010532", "lat": 59.92053, "lon": 10.76845, "name": "Lakkegata skole"}, {"id": "3010533", "lat": 59.92301, "lon": 10.77197, "name": "Sofienberg"}, {"id": "3010600", "lat": 59.91539, "lon": 10.77571, "name": "T\u00f8yen"}, {"id": "3010610", "lat": 59.91281, "lon": 10.76019, "name": "Gr\u00f8nland"}, {"id": "3010617", "lat": 59.91115, "lon": 10.75925, "name": "Bussterminalen Gr\u00f8nland"}, {"id": "3010620", "lat": 59.90611, "lon": 10.76785, "name": "St. Halvards plass"}, {"id": "3010625", "lat": 59.90831, "lon": 10.76793, "name": "Munkegata"}, {"id": "3010630", "lat": 59.90321, "lon": 10.7675, "name": "Oslo Hospital"}, {"id": "3010710", "lat": 59.89776, "lon": 10.75929, "name": "Ekebergparken"}, {"id": "3010730", "lat": 59.88607, "lon": 10.77408, "name": "Sportsplassen"}, {"id": "3010740", "lat": 59.88226, "lon": 10.78329, "name": "Holtet"}, {"id": "3010770", "lat": 59.88005, "lon": 10.80563, "name": "Karlsrud"}, {"id": "3010780", "lat": 59.88737, "lon": 10.80102, "name": "Brattlikollen"}, {"id": "3010830", "lat": 59.87491, "lon": 10.78713, "name": "S\u00f8rli"}, {"id": "3010840", "lat": 59.87107, "lon": 10.79037, "name": "Kastellet"}, {"id": "3010850", "lat": 59.86718, "lon": 10.79247, "name": "Br\u00e5ten"}, {"id": "3010860", "lat": 59.86168, "lon": 10.79851, "name": "S\u00e6ter"}, {"id": "3010870", "lat": 59.85356, "lon": 10.80088, "name": "Ljabru"}, {"id": "3010950", "lat": 59.84931, "lon": 10.82965, "name": "Mortensrud"}, {"id": "3011010", "lat": 59.8733, "lon": 10.81039, "name": "Lambertseter"}, {"id": "3011020", "lat": 59.86853, "lon": 10.81292, "name": "Munkelia"}, {"id": "3011030", "lat": 59.86712, "lon": 10.82127, "name": "Bergkrystallen"}, {"id": "3011110", "lat": 59.88957, "lon": 10.84944, "name": "Ulsrud"}, {"id": "3011120", "lat": 59.88417, "lon": 10.84508, "name": "B\u00f8ler"}, {"id": "3011130", "lat": 59.87572, "lon": 10.84197, "name": "Bogerud"}, {"id": "3011140", "lat": 59.86624, "lon": 10.84001, "name": "Skullerud"}, {"id": "3011200", "lat": 59.89582, "lon": 10.80563, "name": "Ryen"}, {"id": "3011210", "lat": 59.89778, "lon": 10.8123, "name": "Manglerud"}, {"id": "3011220", "lat": 59.90633, "lon": 10.81936, "name": "H\u00f8yenhall"}, {"id": "3011310", "lat": 59.90715, "lon": 10.83592, "name": "Godlia"}, {"id": "3011320", "lat": 59.8991, "lon": 10.83665, "name": "Sk\u00f8yen\u00e5sen"}, {"id": "3011330", "lat": 59.89264, "lon": 10.84051, "name": "Oppsal"}, {"id": "3011400", "lat": 59.9256, "lon": 10.77823, "name": "Carl Berners plass"}, {"id": "3011401", "lat": 59.92671, "lon": 10.7765, "name": "Carl Berners plass"}, {"id": "3011405", "lat": 59.93021, "lon": 10.7781, "name": "Rosenhoff"}, {"id": "3011407", "lat": 59.93417, "lon": 10.77917, "name": "Sinsenterrassen"}, {"id": "3011410", "lat": 59.92422, "lon": 10.79368, "name": "Hasle"}, {"id": "3011430", "lat": 59.91374, "lon": 10.78784, "name": "Ensj\u00f8"}, {"id": "3011440", "lat": 59.9128, "lon": 10.80151, "name": "Helsfyr"}, {"id": "3011450", "lat": 59.90913, "lon": 10.81293, "name": "Brynseng"}, {"id": "3011490", "lat": 59.93012, "lon": 10.78983, "name": "L\u00f8ren"}, {"id": "3011510", "lat": 59.91015, "lon": 10.83078, "name": "Hellerud"}, {"id": "3011520", "lat": 59.91386, "lon": 10.84163, "name": "Tveita"}, {"id": "3011530", "lat": 59.92255, "lon": 10.85492, "name": "Haugerud"}, {"id": "3011540", "lat": 59.9271, "lon": 10.8642, "name": "Trosterud"}, {"id": "3011610", "lat": 59.9329, "lon": 10.88215, "name": "Lindeberg"}, {"id": "3011620", "lat": 59.94145, "lon": 10.89704, "name": "Furuset"}, {"id": "3011630", "lat": 59.9365, "lon": 10.91663, "name": "Ellingsrud\u00e5sen"}, {"id": "3011710", "lat": 59.9621, "lon": 10.90951, "name": "Rommen"}, {"id": "3011720", "lat": 59.96227, "lon": 10.92331, "name": "Stovner"}, {"id": "3011730", "lat": 59.97206, "lon": 10.92944, "name": "Vestli"}, {"id": "3011810", "lat": 59.96229, "lon": 10.89071, "name": "Roms\u00e5s"}, {"id": "3011910", "lat": 59.95132, "lon": 10.85854, "name": "R\u00f8dtvet"}, {"id": "3011920", "lat": 59.95425, "lon": 10.86651, "name": "Kalbakken"}, {"id": "3011930", "lat": 59.95794, "lon": 10.87123, "name": "Ammerud"}, {"id": "3011940", "lat": 59.9614, "lon": 10.88203, "name": "Grorud"}, {"id": "3012000", "lat": 59.92823, "lon": 10.80564, "name": "\u00d8kern"}, {"id": "3012010", "lat": 59.93246, "lon": 10.82265, "name": "Risl\u00f8kka"}, {"id": "3012020", "lat": 59.93629, "lon": 10.83129, "name": "Vollebekk"}, {"id": "3012030", "lat": 59.94123, "lon": 10.839, "name": "Linderud"}, {"id": "3012040", "lat": 59.94441, "lon": 10.84667, "name": "Veitvet"}, {"id": "3012100", "lat": 59.9374, "lon": 10.7819, "name": "Sinsen"}, {"id": "3012105", "lat": 59.93912, "lon": 10.78339, "name": "Sinsenkrysset"}, {"id": "3012111", "lat": 59.94182, "lon": 10.78131, "name": "Grefsen stasjon"}, {"id": "3012120", "lat": 59.94466, "lon": 10.77851, "name": "Storo"}, {"id": "3012121", "lat": 59.94523, "lon": 10.77844, "name": "Storo"}, {"id": "3012130", "lat": 59.94908, "lon": 10.76697, "name": "Nydalen"}, {"id": "3012140", "lat": 59.94626, "lon": 10.78725, "name": "Disen"}, {"id": "3012145", "lat": 59.94991, "lon": 10.79009, "name": "Doktor Smiths vei"}, {"id": "3012146", "lat": 59.95246, "lon": 10.78536, "name": "Glads vei"}, {"id": "3012147", "lat": 59.95602, "lon": 10.78571, "name": "Grefsenplat\u00e5et"}, {"id": "3012162", "lat": 59.96429, "lon": 10.78497, "name": "Kjels\u00e5s"}, {"id": "3012163", "lat": 59.96314, "lon": 10.78418, "name": "Kjels\u00e5sall\u00e9en"}, {"id": "3012165", "lat": 59.9602, "lon": 10.78488, "name": "Grefsen stadion"}, {"id": "3012210", "lat": 59.9468, "lon": 10.73217, "name": "Ullev\u00e5l stadion"}, {"id": "3012220", "lat": 59.95123, "lon": 10.74491, "name": "Berg"}, {"id": "3012230", "lat": 59.95374, "lon": 10.75232, "name": "T\u00e5sen"}, {"id": "3012240", "lat": 59.95667, "lon": 10.75011, "name": "\u00d8sthorn"}, {"id": "3012260", "lat": 59.96054, "lon": 10.74051, "name": "Holstein"}, {"id": "3012270", "lat": 59.96381, "lon": 10.73488, "name": "Kringsj\u00e5"}, {"id": "3012280", "lat": 59.96715, "lon": 10.73396, "name": "Sognsvann"}, {"id": "3012305", "lat": 59.9346, "lon": 10.70927, "name": "Fr\u00f8en"}, {"id": "3012310", "lat": 59.93906, "lon": 10.70436, "name": "Steinerud"}, {"id": "3012315", "lat": 59.94244, "lon": 10.70469, "name": "Vinderen"}, {"id": "3012320", "lat": 59.94587, "lon": 10.71012, "name": "Gaustad"}, {"id": "3012323", "lat": 59.94571, "lon": 10.71759, "name": "Gaustadall\u00e9en"}, {"id": "3012324", "lat": 59.94767, "lon": 10.71603, "name": "Rikshospitalet"}, {"id": "3012325", "lat": 59.94805, "lon": 10.70453, "name": "Ris"}, {"id": "3012330", "lat": 59.95088, "lon": 10.69442, "name": "Slemdal"}, {"id": "3012340", "lat": 59.95499, "lon": 10.70151, "name": "Gr\u00e5kammen"}, {"id": "3012345", "lat": 59.95581, "lon": 10.69653, "name": "Guller\u00e5sen"}, {"id": "3012350", "lat": 59.9599, "lon": 10.6957, "name": "Vettakollen"}, {"id": "3012355", "lat": 59.96178, "lon": 10.69079, "name": "Sk\u00e5dalen"}, {"id": "3012360", "lat": 59.96132, "lon": 10.68301, "name": "Midtstuen"}, {"id": "3012365", "lat": 59.95783, "lon": 10.67382, "name": "Besserud"}, {"id": "3012370", "lat": 59.96029, "lon": 10.66311, "name": "Holmenkollen"}, {"id": "3012375", "lat": 59.96689, "lon": 10.65489, "name": "Voksenlia"}, {"id": "3012380", "lat": 59.97521, "lon": 10.6475, "name": "Skogen"}, {"id": "3012385", "lat": 59.98053, "lon": 10.65291, "name": "Lillevann"}, {"id": "3012390", "lat": 59.98006, "lon": 10.6653, "name": "Voksenkollen"}, {"id": "3012410", "lat": 59.94175, "lon": 10.67382, "name": "Makrellbekken"}, {"id": "3012420", "lat": 59.94586, "lon": 10.66776, "name": "Holmen"}, {"id": "3012430", "lat": 59.94638, "lon": 10.65493, "name": "Hovseter"}, {"id": "3012450", "lat": 59.94668, "lon": 10.64447, "name": "R\u00f8a"}, {"id": "3012460", "lat": 59.95028, "lon": 10.63713, "name": "Ekraveien"}, {"id": "3012505", "lat": 59.92343, "lon": 10.68134, "name": "Sk\u00f8yen"}, {"id": "3012507", "lat": 59.92159, "lon": 10.68801, "name": "Thune"}, {"id": "3012510", "lat": 59.92487, "lon": 10.67542, "name": "Hoff"}, {"id": "3012515", "lat": 59.9246, "lon": 10.66495, "name": "Abbediengen"}, {"id": "3012520", "lat": 59.92427, "lon": 10.65841, "name": "Ullern"}, {"id": "3012530", "lat": 59.92025, "lon": 10.65023, "name": "Furulund"}, {"id": "3012535", "lat": 59.92118, "lon": 10.64267, "name": "Sollerud"}, {"id": "3012540", "lat": 59.92079, "lon": 10.63576, "name": "Lilleaker"}, {"id": "3012545", "lat": 59.92512, "lon": 10.62968, "name": "\u00d8raker"}, {"id": "3012560", "lat": 59.93462, "lon": 10.69558, "name": "Borgen"}, {"id": "3012565", "lat": 59.93718, "lon": 10.68429, "name": "Smestad"}, {"id": "3012575", "lat": 59.93432, "lon": 10.66551, "name": "Montebello"}, {"id": "3012580", "lat": 59.93119, "lon": 10.65576, "name": "Ullern\u00e5sen"}, {"id": "3012585", "lat": 59.9288, "lon": 10.64664, "name": "\u00c5sjordet"}, {"id": "3012590", "lat": 59.92619, "lon": 10.63394, "name": "Bj\u00f8rnsletta"}, {"id": "3012630", "lat": 59.97909, "lon": 10.67622, "name": "Frognerseteren"}], "edges": [{"from": "3010201", "to": "3010217", "weight": 60}, {"from": "3010217", "to": "3010212", "weight": 120}, {"from": "3010212", "to": "3010057", "weight": 180}, {"from": "3010057", "to": "3010053", "weight": 120}, {"from": "3010053", "to": "3010050", "weight": 120}, {"from": "3010050", "to": "3010012", "weight": 120}, {"from": "3010012", "to": "3010065", "weight": 180}, {"from": "3010065", "to": "3010510", "weight": 60}, {"from": "3010510", "to": "3010512", "weight": 120}, {"from": "3010512", "to": "3010513", "weight": 60}, {"from": "3010513", "to": "3010520", "weight": 120}, {"from": "3010520", "to": "3010527", "weight": 60}, {"from": "3010527", "to": "3010430", "weight": 120}, {"from": "3010430", "to": "3010440", "weight": 60}, {"from": "3010440", "to": "3010443", "weight": 120}, {"from": "3010443", "to": "3012121", "weight": 120}, {"from": "3012121", "to": "3012140", "weight": 120}, {"from": "3012140", "to": "3012145", "weight": 60}, {"from": "3012145", "to": "3012146", "weight": 60}, {"from": "3012146", "to": "3012147", "weight": 60}, {"from": "3012147", "to": "3012165", "weight": 60}, {"from": "3012165", "to": "3012163", "weight": 60}, {"from": "3012163", "to": "3012162", "weight": 60}, {"from": "3012163", "to": "3012165", "weight": 60}, {"from": "3012165", "to": "3012147", "weight": 120}, {"from": "3012147", "to": "3012146", "weight": 60}, {"from": "3012146", "to": "3012145", "weight": 60}, {"from": "3012145", "to": "3012140", "weight": 60}, {"from": "3012140", "to": "3012121", "weight": 120}, {"from": "3012121", "to": "3010443", "weight": 60}, {"from": "3010443", "to": "3010440", "weight": 60}, {"from": "3010440", "to": "3010430", "weight": 60}, {"from": "3010430", "to": "3010527", "weight": 120}, {"from": "3010527", "to": "3010520", "weight": 120}, {"from": "3010520", "to": "3010513", "weight": 120}, {"from": "3010513", "to": "3010512", "weight": 60}, {"from": "3010512", "to": "3010510", "weight": 120}, {"from": "3010510", "to": "3010065", "weight": 60}, {"from": "3010065", "to": "3010012", "weight": 120}, {"from": "3010012", "to": "3010048", "weight": 120}, {"from": "3010048", "to": "3010053", "weight": 60}, {"from": "3010053", "to": "3010057", "weight": 240}, {"from": "3010057", "to": "3010307", "weight": 60}, {"from": "3010307", "to": "3010212", "weight": 120}, {"from": "3010212", "to": "3010217", "weight": 120}, {"from": "3010217", "to": "3010201", "weight": 120}, {"from": "3010051", "to": "3010048", "weight": 60}, {"from": "3012121", "to": "3012111", "weight": 120}, {"from": "3010222", "to": "3010221", "weight": 60}, {"from": "3010221", "to": "3010220", "weight": 120}, {"from": "3010220", "to": "3010131", "weight": 60}, {"from": "3010131", "to": "3010134", "weight": 60}, {"from": "3010134", "to": "3010114", "weight": 60}, {"from": "3010114", "to": "3010110", "weight": 120}, {"from": "3010110", "to": "3010126", "weight": 60}, {"from": "3010126", "to": "3010045", "weight": 120}, {"from": "3010045", "to": "3010077", "weight": 60}, {"from": "3010077", "to": "3010021", "weight": 120}, {"from": "3010021", "to": "3010019", "weight": 60}, {"from": "3010019", "to": "3010013", "weight": 180}, {"from": "3010013", "to": "3010065", "weight": 180}, {"from": "3010065", "to": "3010013", "weight": 120}, {"from": "3010013", "to": "3010019", "weight": 60}, {"from": "3010019", "to": "3010021", "weight": 120}, {"from": "3010021", "to": "3010077", "weight": 120}, {"from": "3010077", "to": "3010045", "weight": 180}, {"from": "3010045", "to": "3010126", "weight": 60}, {"from": "3010126", "to": "3010110", "weight": 120}, {"from": "3010110", "to": "3010114", "weight": 60}, {"from": "3010114", "to": "3010134", "weight": 60}, {"from": "3010134", "to": "3010131", "weight": 60}, {"from": "3010131", "to": "3010220", "weight": 60}, {"from": "3010220", "to": "3010221", "weight": 60}, {"from": "3010221", "to": "3010222", "weight": 120}, {"from": "3010222", "to": "3010201", "weight": 120}, {"from": "3010013", "to": "3010050", "weight": 240}, {"from": "3010051", "to": "3010013", "weight": 240}, {"from": "2190148", "to": "2190051", "weight": 180}, {"from": "2190051", "to": "3012545", "weight": 60}, {"from": "3012545", "to": "3012540", "weight": 180}, {"from": "3012540", "to": "3012535", "weight": 60}, {"from": "3012535", "to": "3012530", "weight": 60}, {"from": "3012530", "to": "3012520", "weight": 60}, {"from": "3012520", "to": "3012515", "weight": 60}, {"from": "3012515", "to": "3012510", "weight": 120}, {"from": "3012510", "to": "3012505", "weight": 120}, {"from": "3012505", "to": "3012507", "weight": 60}, {"from": "3012507", "to": "3010123", "weight": 120}, {"from": "3010123", "to": "3010122", "weight": 60}, {"from": "3010122", "to": "3010120", "weight": 60}, {"from": "3010120", "to": "3010110", "weight": 120}, {"from": "3010110", "to": "3010032", "weight": 120}, {"from": "3010032", "to": "3010021", "weight": 120}, {"from": "3012111", "to": "3012121", "weight": 120}, {"from": "3010021", "to": "3010032", "weight": 180}, {"from": "3010032", "to": "3010110", "weight": 180}, {"from": "3010110", "to": "3010120", "weight": 60}, {"from": "3010120", "to": "3010122", "weight": 60}, {"from": "3010122", "to": "3010123", "weight": 60}, {"from": "3010123", "to": "3012507", "weight": 120}, {"from": "3012507", "to": "3012505", "weight": 120}, {"from": "3012505", "to": "3012510", "weight": 60}, {"from": "3012510", "to": "3012515", "weight": 120}, {"from": "3012515", "to": "3012520", "weight": 60}, {"from": "3012520", "to": "3012530", "weight": 120}, {"from": "3012530", "to": "3012535", "weight": 60}, {"from": "3012535", "to": "3012540", "weight": 60}, {"from": "3012540", "to": "3012545", "weight": 60}, {"from": "3012545", "to": "2190051", "weight": 120}, {"from": "2190051", "to": "2190148", "weight": 240}, {"from": "3012111", "to": "3012105", "weight": 60}, {"from": "3012105", "to": "3011407", "weight": 60}, {"from": "3011407", "to": "3011405", "weight": 120}, {"from": "3011405", "to": "3011401", "weight": 60}, {"from": "3011401", "to": "3010533", "weight": 120}, {"from": "3010533", "to": "3010532", "weight": 60}, {"from": "3010532", "to": "3010531", "weight": 120}, {"from": "3010531", "to": "3010510", "weight": 60}, {"from": "3010307", "to": "3010306", "weight": 60}, {"from": "3010306", "to": "3010312", "weight": 60}, {"from": "3010312", "to": "3010313", "weight": 60}, {"from": "3010313", "to": "3010314", "weight": 60}, {"from": "3010314", "to": "3010341", "weight": 120}, {"from": "3010341", "to": "3010350", "weight": 60}, {"from": "3010350", "to": "3010365", "weight": 60}, {"from": "3010365", "to": "3010371", "weight": 60}, {"from": "3010371", "to": "3012323", "weight": 60}, {"from": "3012323", "to": "3012324", "weight": 60}, {"from": "3012324", "to": "3012323", "weight": 60}, {"from": "3012323", "to": "3010371", "weight": 60}, {"from": "3010371", "to": "3010365", "weight": 60}, {"from": "3010365", "to": "3010350", "weight": 60}, {"from": "3010350", "to": "3010341", "weight": 60}, {"from": "3010341", "to": "3010314", "weight": 120}, {"from": "3010314", "to": "3010313", "weight": 60}, {"from": "3010313", "to": "3010312", "weight": 60}, {"from": "3010312", "to": "3010306", "weight": 60}, {"from": "3010306", "to": "3010057", "weight": 180}, {"from": "3010510", "to": "3010531", "weight": 60}, {"from": "3010531", "to": "3010532", "weight": 120}, {"from": "3010532", "to": "3010533", "weight": 60}, {"from": "3010533", "to": "3011401", "weight": 120}, {"from": "3011401", "to": "3011405", "weight": 60}, {"from": "3011405", "to": "3011407", "weight": 60}, {"from": "3011407", "to": "3012105", "weight": 120}, {"from": "3012105", "to": "3012111", "weight": 120}, {"from": "3010870", "to": "3010860", "weight": 60}, {"from": "3010860", "to": "3010850", "weight": 120}, {"from": "3010850", "to": "3010840", "weight": 60}, {"from": "3010840", "to": "3010830", "weight": 60}, {"from": "3010830", "to": "3010740", "weight": 120}, {"from": "3010740", "to": "3010730", "weight": 60}, {"from": "3010730", "to": "3010710", "weight": 180}, {"from": "3010710", "to": "3010630", "weight": 120}, {"from": "3010630", "to": "3010620", "weight": 60}, {"from": "3010620", "to": "3010625", "weight": 60}, {"from": "3010625", "to": "3010617", "weight": 120}, {"from": "3010617", "to": "3010012", "weight": 180}, {"from": "3010012", "to": "3010617", "weight": 120}, {"from": "3010617", "to": "3010625", "weight": 60}, {"from": "3010625", "to": "3010620", "weight": 60}, {"from": "3010620", "to": "3010630", "weight": 120}, {"from": "3010630", "to": "3010710", "weight": 120}, {"from": "3010710", "to": "3010730", "weight": 180}, {"from": "3010730", "to": "3010740", "weight": 60}, {"from": "3010740", "to": "3010830", "weight": 120}, {"from": "3010830", "to": "3010840", "weight": 60}, {"from": "3010840", "to": "3010850", "weight": 60}, {"from": "3010850", "to": "3010860", "weight": 60}, {"from": "3010860", "to": "3010870", "weight": 120}, {"from": "3010617", "to": "3010013", "weight": 180}, {"from": "3010032", "to": "3010105", "weight": 120}, {"from": "3010105", "to": "3010233", "weight": 120}, {"from": "3010233", "to": "3010230", "weight": 60}, {"from": "3010230", "to": "3010231", "weight": 120}, {"from": "3010231", "to": "3010217", "weight": 60}, {"from": "3010217", "to": "3010231", "weight": 120}, {"from": "3010231", "to": "3010230", "weight": 60}, {"from": "3010230", "to": "3010233", "weight": 60}, {"from": "3010233", "to": "3010105", "weight": 60}, {"from": "3010105", "to": "3010032", "weight": 180}, {"from": "3010013", "to": "3010617", "weight": 60}, {"from": "3010313", "to": "3010341", "weight": 180}, {"from": "3010341", "to": "3010313", "weight": 180}, {"from": "3010512", "to": "3010511", "weight": 60}, {"from": "3012630", "to": "3012390", "weight": 60}, {"from": "3012390", "to": "3012385", "weight": 120}, {"from": "3012385", "to": "3012380", "weight": 180}, {"from": "3012380", "to": "3012375", "weight": 120}, {"from": "3012375", "to": "3012370", "weight": 180}, {"from": "3012370", "to": "3012365", "weight": 120}, {"from": "3012365", "to": "3012360", "weight": 120}, {"from": "3012360", "to": "3012355", "weight": 60}, {"from": "3012355", "to": "3012350", "weight": 60}, {"from": "3012350", "to": "3012340", "weight": 120}, {"from": "3012340", "to": "3012330", "weight": 120}, {"from": "3012330", "to": "3012325", "weight": 120}, {"from": "3012325", "to": "3012320", "weight": 60}, {"from": "3012320", "to": "3012315", "weight": 60}, {"from": "3012315", "to": "3012310", "weight": 120}, {"from": "3012310", "to": "3012305", "weight": 120}, {"from": "3012305", "to": "3010200", "weight": 120}, {"from": "3010200", "to": "3010031", "weight": 120}, {"from": "3010031", "to": "3010020", "weight": 120}, {"from": "3010020", "to": "3010011", "weight": 60}, {"from": "3010011", "to": "3010610", "weight": 60}, {"from": "3010610", "to": "3010600", "weight": 180}, {"from": "3010600", "to": "3011430", "weight": 60}, {"from": "3011430", "to": "3011440", "weight": 120}, {"from": "3011440", "to": "3011450", "weight": 120}, {"from": "3011450", "to": "3011220", "weight": 60}, {"from": "3011220", "to": "3011210", "weight": 120}, {"from": "3011210", "to": "3011200", "weight": 60}, {"from": "3011200", "to": "3010780", "weight": 120}, {"from": "3010780", "to": "3010770", "weight": 120}, {"from": "3010770", "to": "3011010", "weight": 120}, {"from": "3011010", "to": "3011020", "weight": 60}, {"from": "3011020", "to": "3011030", "weight": 60}, {"from": "3011030", "to": "3011020", "weight": 60}, {"from": "3011020", "to": "3011010", "weight": 60}, {"from": "3011010", "to": "3010770", "weight": 120}, {"from": "3010770", "to": "3010780", "weight": 60}, {"from": "3010780", "to": "3011200", "weight": 120}, {"from": "3011200", "to": "3011210", "weight": 60}, {"from": "3011210", "to": "3011220", "weight": 120}, {"from": "3011220", "to": "3011450", "weight": 60}, {"from": "3011450", "to": "3011440", "weight": 120}, {"from": "3011440", "to": "3011430", "weight": 120}, {"from": "3011430", "to": "3010600", "weight": 120}, {"from": "3010600", "to": "3010610", "weight": 120}, {"from": "3010610", "to": "3010011", "weight": 60}, {"from": "3010011", "to": "3010020", "weight": 60}, {"from": "3010020", "to": "3010031", "weight": 120}, {"from": "3010031", "to": "3010200", "weight": 180}, {"from": "3010200", "to": "3012305", "weight": 60}, {"from": "3012305", "to": "3012310", "weight": 120}, {"from": "3012310", "to": "3012315", "weight": 60}, {"from": "3012315", "to": "3012320", "weight": 60}, {"from": "3012320", "to": "3012325", "weight": 60}, {"from": "3012325", "to": "3012330", "weight": 120}, {"from": "3012330", "to": "3012340", "weight": 120}, {"from": "3012340", "to": "3012345", "weight": 60}, {"from": "3012345", "to": "3012350", "weight": 120}, {"from": "3012350", "to": "3012355", "weight": 60}, {"from": "3012355", "to": "3012360", "weight": 60}, {"from": "3012360", "to": "3012365", "weight": 120}, {"from": "3012365", "to": "3012370", "weight": 180}, {"from": "3012370", "to": "3012375", "weight": 120}, {"from": "3012375", "to": "3012380", "weight": 180}, {"from": "3012380", "to": "3012385", "weight": 120}, {"from": "3012385", "to": "3012390", "weight": 120}, {"from": "3012390", "to": "3012630", "weight": 120}, {"from": "2190080", "to": "2190090", "weight": 60}, {"from": "3011610", "to": "3011620", "weight": 120}, {"from": "3011620", "to": "3011630", "weight": 120}, {"from": "3012430", "to": "3012450", "weight": 60}, {"from": "3012450", "to": "3012460", "weight": 60}, {"from": "3012460", "to": "2190070", "weight": 120}, {"from": "2190070", "to": "2190080", "weight": 120}, {"from": "3011450", "to": "3011510", "weight": 120}, {"from": "3011510", "to": "3011520", "weight": 60}, {"from": "3011520", "to": "3011530", "weight": 120}, {"from": "3011530", "to": "3011540", "weight": 120}, {"from": "3011540", "to": "3011610", "weight": 120}, {"from": "3010200", "to": "3012560", "weight": 120}, {"from": "3012560", "to": "3012565", "weight": 120}, {"from": "3012565", "to": "3012410", "weight": 60}, {"from": "3012410", "to": "3012420", "weight": 60}, {"from": "3012420", "to": "3012430", "weight": 120}, {"from": "3012560", "to": "3010200", "weight": 180}, {"from": "3011510", "to": "3011450", "weight": 120}, {"from": "3012420", "to": "3012410", "weight": 60}, {"from": "3012410", "to": "3012565", "weight": 120}, {"from": "3012565", "to": "3012560", "weight": 60}, {"from": "3011540", "to": "3011530", "weight": 120}, {"from": "3011530", "to": "3011520", "weight": 60}, {"from": "3011520", "to": "3011510", "weight": 180}, {"from": "2190090", "to": "2190080", "weight": 60}, {"from": "2190080", "to": "2190070", "weight": 60}, {"from": "2190070", "to": "3012460", "weight": 120}, {"from": "3012460", "to": "3012450", "weight": 60}, {"from": "3012450", "to": "3012430", "weight": 120}, {"from": "3012430", "to": "3012420", "weight": 120}, {"from": "3011630", "to": "3011620", "weight": 120}, {"from": "3011620", "to": "3011610", "weight": 60}, {"from": "3011610", "to": "3011540", "weight": 120}, {"from": "3011140", "to": "3010950", "weight": 240}, {"from": "3011330", "to": "3011110", "weight": 60}, {"from": "3011110", "to": "3011120", "weight": 120}, {"from": "3011120", "to": "3011130", "weight": 60}, {"from": "3011130", "to": "3011140", "weight": 120}, {"from": "2190050", "to": "2190120", "weight": 120}, {"from": "2190120", "to": "2190150", "weight": 120}, {"from": "2190150", "to": "2190180", "weight": 60}, {"from": "2190180", "to": "2190220", "weight": 120}, {"from": "2190220", "to": "2190280", "weight": 120}, {"from": "2190280", "to": "2190360", "weight": 120}, {"from": "2190360", "to": "2190440", "weight": 120}, {"from": "2190440", "to": "2190450", "weight": 60}, {"from": "3011510", "to": "3011310", "weight": 60}, {"from": "3011310", "to": "3011320", "weight": 120}, {"from": "3011320", "to": "3011330", "weight": 60}, {"from": "3012565", "to": "3012575", "weight": 120}, {"from": "3012575", "to": "3012580", "weight": 120}, {"from": "3012580", "to": "3012585", "weight": 60}, {"from": "3012585", "to": "3012590", "weight": 60}, {"from": "3012590", "to": "2190050", "weight": 120}, {"from": "3012585", "to": "3012580", "weight": 60}, {"from": "3012580", "to": "3012575", "weight": 120}, {"from": "3012575", "to": "3012565", "weight": 180}, {"from": "3011310", "to": "3011510", "weight": 60}, {"from": "3011120", "to": "3011110", "weight": 60}, {"from": "3011110", "to": "3011330", "weight": 120}, {"from": "3011330", "to": "3011320", "weight": 60}, {"from": "3011320", "to": "3011310", "weight": 120}, {"from": "2190440", "to": "2190360", "weight": 120}, {"from": "2190360", "to": "2190280", "weight": 120}, {"from": "2190280", "to": "2190220", "weight": 60}, {"from": "2190220", "to": "2190180", "weight": 120}, {"from": "2190180", "to": "2190150", "weight": 60}, {"from": "2190150", "to": "2190120", "weight": 60}, {"from": "2190120", "to": "2190050", "weight": 120}, {"from": "2190050", "to": "3012590", "weight": 180}, {"from": "3012590", "to": "3012585", "weight": 60}, {"from": "3010950", "to": "3011140", "weight": 180}, {"from": "3011140", "to": "3011130", "weight": 60}, {"from": "3011130", "to": "3011120", "weight": 120}, {"from": "2190450", "to": "2190440", "weight": 60}, {"from": "3010200", "to": "3010360", "weight": 120}, {"from": "3010360", "to": "3010370", "weight": 60}, {"from": "3010370", "to": "3012210", "weight": 120}, {"from": "3012210", "to": "3012130", "weight": 180}, {"from": "3012130", "to": "3012120", "weight": 60}, {"from": "3012120", "to": "3012100", "weight": 120}, {"from": "3012100", "to": "3011490", "weight": 60}, {"from": "3011490", "to": "3012000", "weight": 180}, {"from": "3012000", "to": "3012010", "weight": 120}, {"from": "3012010", "to": "3012020", "weight": 60}, {"from": "3012020", "to": "3012030", "weight": 60}, {"from": "3012030", "to": "3012040", "weight": 60}, {"from": "3012040", "to": "3011910", "weight": 180}, {"from": "3011910", "to": "3011920", "weight": 60}, {"from": "3011920", "to": "3011930", "weight": 60}, {"from": "3011930", "to": "3011940", "weight": 60}, {"from": "3011940", "to": "3011810", "weight": 60}, {"from": "3011810", "to": "3011710", "weight": 120}, {"from": "3011710", "to": "3011720", "weight": 60}, {"from": "3011720", "to": "3011730", "weight": 180}, {"from": "3011730", "to": "3011720", "weight": 120}, {"from": "3011720", "to": "3011710", "weight": 60}, {"from": "3011710", "to": "3011810", "weight": 60}, {"from": "3011810", "to": "3011940", "weight": 60}, {"from": "3011940", "to": "3011930", "weight": 60}, {"from": "3011930", "to": "3011920", "weight": 60}, {"from": "3011920", "to": "3011910", "weight": 120}, {"from": "3011910", "to": "3012040", "weight": 120}, {"from": "3012040", "to": "3012030", "weight": 60}, {"from": "3012030", "to": "3012020", "weight": 60}, {"from": "3012020", "to": "3012010", "weight": 60}, {"from": "3012010", "to": "3012000", "weight": 120}, {"from": "3012000", "to": "3011490", "weight": 120}, {"from": "3011490", "to": "3012100", "weight": 120}, {"from": "3012100", "to": "3012120", "weight": 120}, {"from": "3012120", "to": "3012130", "weight": 60}, {"from": "3012130", "to": "3012210", "weight": 180}, {"from": "3012210", "to": "3010370", "weight": 120}, {"from": "3010370", "to": "3010360", "weight": 60}, {"from": "3010360", "to": "3010200", "weight": 180}, {"from": "3012280", "to": "3012270", "weight": 60}, {"from": "3012270", "to": "3012260", "weight": 60}, {"from": "3012260", "to": "3012240", "weight": 120}, {"from": "3012240", "to": "3012230", "weight": 60}, {"from": "3012230", "to": "3012220", "weight": 60}, {"from": "3012220", "to": "3012210", "weight": 60}, {"from": "3010600", "to": "3011400", "weight": 120}, {"from": "3011400", "to": "3012100", "weight": 180}, {"from": "3011400", "to": "3011410", "weight": 120}, {"from": "3011410", "to": "3012000", "weight": 120}, {"from": "3012000", "to": "3011410", "weight": 120}, {"from": "3011410", "to": "3011400", "weight": 120}, {"from": "3011400", "to": "3010600", "weight": 180}, {"from": "3012100", "to": "3011400", "weight": 180}, {"from": "3012210", "to": "3012220", "weight": 120}, {"from": "3012220", "to": "3012230", "weight": 60}, {"from": "3012230", "to": "3012240", "weight": 60}, {"from": "3012240", "to": "3012260", "weight": 120}, {"from": "3012260", "to": "3012270", "weight": 60}, {"from": "3012270", "to": "3012280", "weight": 60}]}