{"nodes": [{"id": "5614", "lat": 37.73562, "lon": -122.4247, "name": "Mission St & Richland Ave"}, {"id": "5615", "lat": 37.72147, "lon": -122.43712, "name": "Mission St & Russia Ave"}, {"id": "5616", "lat": 37.72326, "lon": -122.43597, "name": "Mission St & Ruth St"}, {"id": "5619", "lat": 37.70866, "lon": -122.45332, "name": "Mission St & Sickles Ave"}, {"id": "5620", "lat": 37.72872, "lon": -122.43132, "name": "Mission St & Silver Ave"}, {"id": "5621", "lat": 37.72872, "lon": -122.43135, "name": "Mission St & Silver Ave"}, {"id": "5623", "lat": 37.79239, "lon": -122.39435, "name": "Mission St & Spear St"}, {"id": "5624", "lat": 37.73066, "lon": -122.42927, "name": "Mission St & Trumbull St"}, {"id": "5625", "lat": 37.73045, "lon": -122.42971, "name": "Mission St & Trumbull St"}, {"id": "5626", "lat": 37.74508, "lon": -122.4203, "name": "Mission St & Valencia St"}, {"id": "5627", "lat": 37.71048, "lon": -122.44834, "name": "Mission St & Whittier St"}, {"id": "5628", "lat": 37.71022, "lon": -122.44845, "name": "Mission St & Whittier St"}, {"id": "5630", "lat": 37.71094, "lon": -122.43543, "name": "Munich St & Cordova Ave"}, {"id": "5631", "lat": 37.71293, "lon": -122.43295, "name": "Munich St & Geneva Ave"}, {"id": "5632", "lat": 37.71115, "lon": -122.43824, "name": "Munich St & Naples St"}, {"id": "5633", "lat": 37.72879, "lon": -122.36703, "name": "Galvez Ave & Robinson Ave"}, {"id": "5634", "lat": 37.73683, "lon": -122.43219, "name": "33 Moffitt St"}, {"id": "5638", "lat": 37.79048, "lon": -122.39972, "name": "Market St & 1st St"}, {"id": "5639", "lat": 37.78935, "lon": -122.40131, "name": "Market St & 2nd St"}, {"id": "5640", "lat": 37.78753, "lon": -122.40352, "name": "Market St & 3rd St"}, {"id": "5641", "lat": 37.78767, "lon": -122.40336, "name": "Market St & 3rd St"}, {"id": "5642", "lat": 37.7866, "lon": -122.40459, "name": "Market St Between 4th & 3rd St"}, {"id": "5643", "lat": 37.78571, "lon": -122.40585, "name": "Market St & 4th St"}, {"id": "5644", "lat": 37.78484, "lon": -122.40683, "name": "Market St Between 5th & 4th St"}, {"id": "5645", "lat": 37.78389, "lon": -122.40814, "name": "Market St & 5th St"}, {"id": "5646", "lat": 37.78339, "lon": -122.40866, "name": "Market St & 5th St"}, {"id": "5647", "lat": 37.7821, "lon": -122.4104, "name": "Market St & 6th St"}, {"id": "5648", "lat": 37.78129, "lon": -122.41133, "name": "Market St & 6th St"}, {"id": "5649", "lat": 37.77981, "lon": -122.41319, "name": "Market St & 7th St"}, {"id": "5650", "lat": 37.78036, "lon": -122.41261, "name": "Market St & 7th St"}, {"id": "5651", "lat": 37.77861, "lon": -122.41483, "name": "Market St & 8th St"}, {"id": "5652", "lat": 37.77741, "lon": -122.41634, "name": "Market St & 9th St"}, {"id": "5653", "lat": 37.76569, "lon": -122.4314, "name": "Market St & 15th St"}, {"id": "5654", "lat": 37.76391, "lon": -122.43366, "name": "Market St & 16th St"}, {"id": "5655", "lat": 37.78408, "lon": -122.40799, "name": "Market St & 5th  St"}, {"id": "5656", "lat": 37.78057, "lon": -122.41244, "name": "Market St & 7th St"}, {"id": "5657", "lat": 37.79111, "lon": -122.39907, "name": "Market St & Battery St"}, {"id": "5658", "lat": 37.79257, "lon": -122.39702, "name": "Market St & Beale St"}, {"id": "5659", "lat": 37.76979, "lon": -122.42615, "name": "Market St & Buchanan St"}, {"id": "5661", "lat": 37.7677, "lon": -122.42878, "name": "Market St & Church St"}, {"id": "5662", "lat": 37.76725, "lon": -122.42921, "name": "Market St & Church St"}, {"id": "5663", "lat": 37.75841, "lon": -122.44406, "name": "Market St & Clayton St"}, {"id": "5665", "lat": 37.76292, "lon": -122.43461, "name": "Market St & Castro St"}, {"id": "5667", "lat": 37.76302, "lon": -122.43498, "name": "Market St & 17th St"}, {"id": "5668", "lat": 37.76888, "lon": -122.4271, "name": "Market St & Dolores St"}, {"id": "5669", "lat": 37.79347, "lon": -122.39618, "name": "Market St & Drumm St"}, {"id": "5671", "lat": 37.79192, "lon": -122.39815, "name": "Market St & Front St"}, {"id": "5672", "lat": 37.77327, "lon": -122.42177, "name": "Market St & Gough St"}, {"id": "5673", "lat": 37.77287, "lon": -122.42199, "name": "Market St & Gough St"}, {"id": "5674", "lat": 37.78639, "lon": -122.40516, "name": "Market St & Grant Ave"}, {"id": "5675", "lat": 37.77057, "lon": -122.42497, "name": "Market St & Guerrero St"}, {"id": "5676", "lat": 37.77911, "lon": -122.41438, "name": "Market St & Hyde St"}, {"id": "5678", "lat": 37.78773, "lon": -122.40337, "name": "Market St & Kearny St"}, {"id": "5680", "lat": 37.7776, "lon": -122.41624, "name": "Market St & Larkin St"}, {"id": "5681", "lat": 37.77095, "lon": -122.42467, "name": "Market St & Laguna St"}, {"id": "5683", "lat": 37.78285, "lon": -122.40964, "name": "Market St & Mason St"}, {"id": "5684", "lat": 37.78849, "lon": -122.40248, "name": "Market St & Montgomery St"}, {"id": "5685", "lat": 37.78861, "lon": -122.40216, "name": "Market St & New Montgomery St"}, {"id": "5687", "lat": 37.76396, "lon": -122.43332, "name": "Market St & Noe St"}, {"id": "5688", "lat": 37.78447, "lon": -122.40754, "name": "Market St & Powell St"}, {"id": "5689", "lat": 37.79001, "lon": -122.40049, "name": "Market St & Sansome St"}, {"id": "5690", "lat": 37.76619, "lon": -122.43071, "name": "Market St & Sanchez St"}, {"id": "5691", "lat": 37.76569, "lon": -122.43114, "name": "Market St & Sanchez St"}, {"id": "5692", "lat": 37.77506, "lon": -122.41932, "name": "Market St & South Van Ness Ave"}, {"id": "5693", "lat": 37.79426, "lon": -122.39491, "name": "Market St & Steuart St"}, {"id": "5694", "lat": 37.78578, "lon": -122.40586, "name": "Market St & Stockton St"}, {"id": "5695", "lat": 37.78232, "lon": -122.41023, "name": "Market St & Taylor St"}, {"id": "5696", "lat": 37.7752, "lon": -122.41925, "name": "Market St & Van Ness Ave"}, {"id": "5697", "lat": 37.75362, "lon": -122.45054, "name": "Marview Way & Panorama Dr"}, {"id": "5698", "lat": 37.72136, "lon": -122.42762, "name": "Moscow St & Brazil Ave"}, {"id": "5699", "lat": 37.7229, "lon": -122.42647, "name": "Moscow St & Excelsior Ave"}, {"id": "5700", "lat": 37.71669, "lon": -122.43113, "name": "Moscow St & France Ave"}, {"id": "5702", "lat": 37.71513, "lon": -122.4323, "name": "Moscow St & Italy Ave"}, {"id": "5703", "lat": 37.71982, "lon": -122.42876, "name": "Moscow St & Persia Ave"}, {"id": "5704", "lat": 37.76751, "lon": -122.44485, "name": "Masonic Ave & Frederick St"}, {"id": "5705", "lat": 37.77558, "lon": -122.44655, "name": "Masonic Ave & Fulton St"}, {"id": "5706", "lat": 37.77571, "lon": -122.44636, "name": "Masonic Ave & Fulton St"}, {"id": "5709", "lat": 37.78216, "lon": -122.44736, "name": "Masonic Ave & Geary Blvd"}, {"id": "5710", "lat": 37.78214, "lon": -122.44757, "name": "Masonic Ave & Geary Blvd"}, {"id": "5807", "lat": 37.72995, "lon": -122.46948, "name": "Ocean Ave & San Leandro Way"}, {"id": "5808", "lat": 37.72603, "lon": -122.46434, "name": "Ocean Ave & Victoria St"}, {"id": "5809", "lat": 37.7272, "lon": -122.46648, "name": "Ocean Ave & Westgate Dr"}, {"id": "5810", "lat": 37.78664, "lon": -122.40563, "name": "O'Farrell St & Grant Ave"}, {"id": "5813", "lat": 37.78514, "lon": -122.4177, "name": "O'Farrell St & Larkin St"}, {"id": "5814", "lat": 37.78554, "lon": -122.41445, "name": "O'Farrell St & Leavenworth St"}, {"id": "5817", "lat": 37.78632, "lon": -122.40814, "name": "O'Farrell St & Powell St"}, {"id": "5818", "lat": 37.78466, "lon": -122.42141, "name": "O'Farrell St & Van Ness Ave"}, {"id": "5820", "lat": 37.7553, "lon": -122.45541, "name": "Oakpark Dr & Forest Knolls Dr"}, {"id": "5821", "lat": 37.75149, "lon": -122.45622, "name": "Olympia Way & Clarendon Ave"}, {"id": "5822", "lat": 37.75134, "lon": -122.45439, "name": "Olympia Way & Dellbrook Ave"}, {"id": "5823", "lat": 37.75128, "lon": -122.45307, "name": "Olympia Way & Dellbrook Ave"}, {"id": "5824", "lat": 37.7513, "lon": -122.45227, "name": "Olympia Way & Panorama Dr"}, {"id": "5826", "lat": 37.75278, "lon": -122.46563, "name": "Ortega St & 9th Ave"}, {"id": "5827", "lat": 37.75288, "lon": -122.46648, "name": "Ortega St & 10th Ave"}, {"id": "5828", "lat": 37.75098, "lon": -122.5075, "name": "Ortega St & 48th Ave"}, {"id": "5829", "lat": 37.74448, "lon": -122.45068, "name": "100 O'Shaughnessy Blvd"}, {"id": "5830", "lat": 37.74139, "lon": -122.44603, "name": "O'Shaughnessy Blvd & Del Vale Ave"}, {"id": "5831", "lat": 37.74108, "lon": -122.44597, "name": "O'Shaughnessy Blvd & Del Vale Ave"}, {"id": "5832", "lat": 37.73661, "lon": -122.4433, "name": "O'Shaughnessy Blvd & Malta Dr"}, {"id": "5833", "lat": 37.73648, "lon": -122.44378, "name": "O'Shaughnessy Blvd & Malta Dr"}, {"id": "5834", "lat": 37.745, "lon": -122.45131, "name": "O'Shaughnessy Blvd & Portola Dr"}, {"id": "5835", "lat": 37.77159, "lon": -122.42042, "name": "150 Otis St"}, {"id": "5836", "lat": 37.77281, "lon": -122.41917, "name": "Otis St & 12th St"}, {"id": "5837", "lat": 37.79698, "lon": -122.40673, "name": "Pacific Ave & Grant Ave"}, {"id": "5838", "lat": 37.79555, "lon": -122.4182, "name": "Pacific Ave & Hyde St"}, {"id": "5839", "lat": 37.79538, "lon": -122.4184, "name": "Pacific Ave & Hyde St"}, {"id": "5840", "lat": 37.79596, "lon": -122.41491, "name": "Pacific Ave & Jones St"}, {"id": "5841", "lat": 37.79579, "lon": -122.4151, "name": "Pacific Ave & Jones St"}, {"id": "5842", "lat": 37.79717, "lon": -122.40522, "name": "Pacific Ave & Kearny St"}, {"id": "5843", "lat": 37.79533, "lon": -122.41986, "name": "Pacific Ave & Larkin St"}, {"id": "5844", "lat": 37.79515, "lon": -122.42003, "name": "Pacific Ave & Larkin St"}, {"id": "5845", "lat": 37.79575, "lon": -122.41655, "name": "Pacific Ave & Leavenworth St"}, {"id": "5846", "lat": 37.79559, "lon": -122.41674, "name": "Pacific Ave & Leavenworth St"}, {"id": "5847", "lat": 37.79638, "lon": -122.41162, "name": "Pacific Ave & Mason St"}, {"id": "5848", "lat": 37.79621, "lon": -122.41181, "name": "Pacific Ave & Mason St"}, {"id": "5849", "lat": 37.79739, "lon": -122.40358, "name": "Pacific Ave & Montgomery St"}, {"id": "5850", "lat": 37.79511, "lon": -122.42148, "name": "Pacific Ave & Polk St"}, {"id": "5851", "lat": 37.795, "lon": -122.42125, "name": "Pacific Ave & Polk St"}, {"id": "5852", "lat": 37.79656, "lon": -122.40999, "name": "Pacific Ave & Powell St"}, {"id": "5853", "lat": 37.79641, "lon": -122.41017, "name": "Pacific Ave & Powell St"}, {"id": "5854", "lat": 37.79754, "lon": -122.40237, "name": "Pacific Ave & Sansome St"}, {"id": "5856", "lat": 37.79617, "lon": -122.41327, "name": "Pacific Ave & Taylor St"}, {"id": "5857", "lat": 37.79599, "lon": -122.41347, "name": "Pacific Ave & Taylor St"}, {"id": "5859", "lat": 37.79478, "lon": -122.4229, "name": "Pacific Ave & Van Ness Ave"}, {"id": "5863", "lat": 37.73402, "lon": -122.39083, "name": "Palou Ave & 3rd St"}, {"id": "5864", "lat": 37.73385, "lon": -122.39086, "name": "Palou Ave & 3rd St"}, {"id": "5865", "lat": 37.72798, "lon": -122.38019, "name": "Palou Ave & Crespi Dr"}, {"id": "5866", "lat": 37.72868, "lon": -122.38142, "name": "Palou Ave & Hawes St"}, {"id": "5867", "lat": 37.73953, "lon": -122.40055, "name": "Palou Ave & Industrial St"}, {"id": "5868", "lat": 37.72942, "lon": -122.38273, "name": "Palou Ave & Ingalls St"}, {"id": "5869", "lat": 37.72973, "lon": -122.38358, "name": "Palou Ave & Ingalls St"}, {"id": "5870", "lat": 37.7308, "lon": -122.38515, "name": "Palou Ave & Jennings St"}, {"id": "5871", "lat": 37.73082, "lon": -122.38542, "name": "Palou Ave & Jennings St"}, {"id": "5872", "lat": 37.73186, "lon": -122.38705, "name": "Palou Ave & Keith St"}, {"id": "5873", "lat": 37.73206, "lon": -122.38737, "name": "Palou Ave & Keith St"}, {"id": "5874", "lat": 37.73185, "lon": -122.38731, "name": "Palou Ave & Keith St"}, {"id": "5875", "lat": 37.73292, "lon": -122.38889, "name": "Palou Ave & Lane St"}, {"id": "5876", "lat": 37.73291, "lon": -122.38918, "name": "Palou Ave & Lane St"}, {"id": "5877", "lat": 37.73503, "lon": -122.39292, "name": "Palou Ave & Newhall St"}, {"id": "5878", "lat": 37.73503, "lon": -122.39266, "name": "Palou Ave & Newhall St"}, {"id": "5879", "lat": 37.7361, "lon": -122.39454, "name": "Palou Ave & Phelps St"}, {"id": "5880", "lat": 37.7361, "lon": -122.39481, "name": "Palou Ave & Phelps St"}, {"id": "5881", "lat": 37.73716, "lon": -122.39637, "name": "Palou Ave & Quint St"}, {"id": "5882", "lat": 37.73722, "lon": -122.39672, "name": "Palou Ave & Quint St"}, {"id": "5883", "lat": 37.73821, "lon": -122.39824, "name": "Palou Ave & Rankin St"}, {"id": "5884", "lat": 37.73825, "lon": -122.39853, "name": "Palou Ave & Rankin St"}, {"id": "5885", "lat": 37.76273, "lon": -122.46074, "name": "Parnassus Ave & 4th Ave"}, {"id": "5887", "lat": 37.76331, "lon": -122.45875, "name": "500 Parnassus Ave"}, {"id": "5889", "lat": 37.7649, "lon": -122.45008, "name": "Parnassus Ave & Cole St"}, {"id": "5890", "lat": 37.76479, "lon": -122.44985, "name": "Parnassus Ave & Cole St"}, {"id": "5891", "lat": 37.76381, "lon": -122.45697, "name": "Parnassus Ave & Hillway Ave"}, {"id": "5892", "lat": 37.76372, "lon": -122.45674, "name": "Parnassus Ave & Hillway Ave"}, {"id": "5893", "lat": 37.76477, "lon": -122.4511, "name": "Parnassus Ave & Shrader St"}, {"id": "5894", "lat": 37.7646, "lon": -122.4513, "name": "Parnassus Ave & Shrader St"}, {"id": "5895", "lat": 37.76455, "lon": -122.45288, "name": "Parnassus Ave & Stanyan St"}, {"id": "5896", "lat": 37.76443, "lon": -122.45265, "name": "Parnassus Ave & Stanyan St"}, {"id": "5897", "lat": 37.76435, "lon": -122.45453, "name": "Parnassus Ave & Willard St"}, {"id": "5898", "lat": 37.76424, "lon": -122.4543, "name": "Parnassus Ave & Willard St"}, {"id": "5899", "lat": 37.72365, "lon": -122.40059, "name": "Paul Ave & Bay Shore Blvd"}, {"id": "5900", "lat": 37.72248, "lon": -122.39634, "name": "Paul Ave & Carr St"}, {"id": "5901", "lat": 37.72329, "lon": -122.39908, "name": "Paul Ave & Crane St"}, {"id": "5902", "lat": 37.72301, "lon": -122.39795, "name": "Paul Ave & Gould St"}, {"id": "5999", "lat": 37.79174, "lon": -122.42083, "name": "Polk St & Sacramento St"}, {"id": "6000", "lat": 37.79193, "lon": -122.42106, "name": "Polk St & Sacramento St"}, {"id": "6002", "lat": 37.78766, "lon": -122.42021, "name": "Polk St & Sutter St"}, {"id": "6003", "lat": 37.79901, "lon": -122.42233, "name": "Polk St & Union St"}, {"id": "6004", "lat": 37.79893, "lon": -122.42247, "name": "Polk St & Union St"}, {"id": "6006", "lat": 37.7935, "lon": -122.42119, "name": "Polk St & Washington St"}, {"id": "6007", "lat": 37.79369, "lon": -122.42141, "name": "Polk St & Washington St"}, {"id": "6008", "lat": 37.74995, "lon": -122.44348, "name": "6 Portola Dr"}, {"id": "6009", "lat": 37.74897, "lon": -122.44396, "name": "120 Portola Dr"}, {"id": "6010", "lat": 37.74703, "lon": -122.44487, "name": "Portola Dr & Burnett Ave"}, {"id": "6011", "lat": 37.73969, "lon": -122.46512, "name": "Portola Dr & Clarendon Ave"}, {"id": "6012", "lat": 37.74715, "lon": -122.4442, "name": "Portola Dr & Clipper St"}, {"id": "6013", "lat": 37.74197, "lon": -122.45578, "name": "Portola Dr & Del Sur Ave"}, {"id": "6014", "lat": 37.7401, "lon": -122.46344, "name": "Portola Dr & Dorchester Way"}, {"id": "6015", "lat": 37.74646, "lon": -122.44792, "name": "Portola Dr & Glenview Dr"}, {"id": "6016", "lat": 37.78705, "lon": -122.41772, "name": "Post St & Larkin St"}, {"id": "6017", "lat": 37.78745, "lon": -122.41459, "name": "Post St & Leavenworth St"}, {"id": "6018", "lat": 37.78577, "lon": -122.42767, "name": "Post St & Laguna St"}, {"id": "6019", "lat": 37.78901, "lon": -122.40249, "name": "Post St & Montgomery St"}, {"id": "6020", "lat": 37.78591, "lon": -122.42665, "name": "Post St & Octavia St"}, {"id": "6021", "lat": 37.7868, "lon": -122.41956, "name": "Post St & Polk St"}, {"id": "6022", "lat": 37.7883, "lon": -122.40793, "name": "Post St & Powell St"}, {"id": "6023", "lat": 37.78788, "lon": -122.41132, "name": "Post St & Taylor St"}, {"id": "6024", "lat": 37.78657, "lon": -122.42145, "name": "Post St & Van Ness Ave"}, {"id": "6026", "lat": 37.76603, "lon": -122.40747, "name": "Potrero Ave & 16th St"}, {"id": "6027", "lat": 37.76549, "lon": -122.40769, "name": "Potrero Ave & 16th St"}, {"id": "6034", "lat": 37.7575, "lon": -122.40694, "name": "Potrero Ave & 21st St"}, {"id": "6037", "lat": 37.75506, "lon": -122.4067, "name": "Potrero Ave & 23rd St"}, {"id": "6038", "lat": 37.75342, "lon": -122.40625, "name": "Potrero Ave & 24th St"}, {"id": "6039", "lat": 37.75267, "lon": -122.40649, "name": "Potrero Ave & 24th St"}, {"id": "6040", "lat": 37.75164, "lon": -122.40608, "name": "Potrero Ave & 25th St"}, {"id": "6043", "lat": 37.76826, "lon": -122.40797, "name": "Potrero Ave & Alameda St"}, {"id": "6045", "lat": 37.80574, "lon": -122.41183, "name": "Powell St & Bay St"}, {"id": "6046", "lat": 37.80803, "lon": -122.41251, "name": "Powell St & Beach St"}, {"id": "6054", "lat": 37.80131, "lon": -122.4111, "name": "Powell St & Filbert St"}, {"id": "6055", "lat": 37.80506, "lon": -122.41191, "name": "Powell St & Francisco St"}, {"id": "6056", "lat": 37.80477, "lon": -122.41166, "name": "Powell St & Francisco St"}, {"id": "6058", "lat": 37.78727, "lon": -122.40813, "name": "Powell St & Geary St"}, {"id": "6059", "lat": 37.79541, "lon": -122.40976, "name": "Powell St & Jackson St"}, {"id": "6060", "lat": 37.80295, "lon": -122.41127, "name": "Powell St & Lombard St"}, {"id": "6061", "lat": 37.80281, "lon": -122.41146, "name": "Powell St & Lombard St"}, {"id": "6065", "lat": 37.80667, "lon": -122.41204, "name": "Powell St & North Point St"}, {"id": "6066", "lat": 37.8065, "lon": -122.41218, "name": "Powell St & North Point St"}, {"id": "6068", "lat": 37.78632, "lon": -122.40793, "name": "Powell St & O'Farrell St"}, {"id": "6072", "lat": 37.7882, "lon": -122.4083, "name": "Powell St & Post St"}, {"id": "6075", "lat": 37.78913, "lon": -122.40849, "name": "Powell St & Sutter St"}, {"id": "6080", "lat": 37.71016, "lon": -122.43507, "name": "Prague St & Cordova Ave"}, {"id": "6081", "lat": 37.70997, "lon": -122.4368, "name": "Prague St & Drake St"}, {"id": "6082", "lat": 37.71903, "lon": -122.42718, "name": "Prague St & Persia Ave"}, {"id": "6083", "lat": 37.71884, "lon": -122.42722, "name": "Prague St & Persia Ave"}, {"id": "6084", "lat": 37.71756, "lon": -122.4282, "name": "Prague St & Russia Ave"}, {"id": "6085", "lat": 37.71748, "lon": -122.42835, "name": "Prague St & Russia Ave"}, {"id": "6086", "lat": 37.75041, "lon": -122.44578, "name": "Parkridge Dr & Burnett Ave"}, {"id": "6087", "lat": 37.75235, "lon": -122.44608, "name": "Parkridge Dr & Crestline Dr"}, {"id": "6088", "lat": 37.78738, "lon": -122.44674, "name": "Presidio Ave & California St"}, {"id": "6089", "lat": 37.78768, "lon": -122.44697, "name": "Presidio Ave & California St"}, {"id": "6090", "lat": 37.78918, "lon": -122.44726, "name": "Presidio Ave & Clay St"}, {"id": "6091", "lat": 37.78897, "lon": -122.44704, "name": "Presidio Ave & Clay St"}, {"id": "6092", "lat": 37.78271, "lon": -122.4458, "name": "Presidio Ave & Geary Blvd"}, {"id": "6093", "lat": 37.78267, "lon": -122.44593, "name": "Presidio Ave & Geary Blvd"}, {"id": "6094", "lat": 37.79091, "lon": -122.44761, "name": "Presidio Ave & Jackson St"}, {"id": "6095", "lat": 37.79071, "lon": -122.4474, "name": "Presidio Ave & Jackson St"}, {"id": "6191", "lat": 37.76489, "lon": -122.40271, "name": "Rhode Island St & 17th St"}, {"id": "6192", "lat": 37.76199, "lon": -122.4024, "name": "Rhode Island St & 18th St"}, {"id": "6193", "lat": 37.76088, "lon": -122.40233, "name": "Rhode Island St & 19th St"}, {"id": "6195", "lat": 37.75943, "lon": -122.40218, "name": "Rhode Island St & 20th St"}, {"id": "6196", "lat": 37.75688, "lon": -122.40191, "name": "Rhode Island St & 22nd St"}, {"id": "6197", "lat": 37.75433, "lon": -122.40167, "name": "Rhode Island St & 23rd St"}, {"id": "6198", "lat": 37.75352, "lon": -122.40161, "name": "Rhode Island St & 24th St"}, {"id": "6199", "lat": 37.75211, "lon": -122.40147, "name": "Rhode Island St & 25th St"}, {"id": "6200", "lat": 37.75073, "lon": -122.40134, "name": "Rhode Island St & 26th St"}, {"id": "6201", "lat": 37.76878, "lon": -122.40307, "name": "Rhode Island St & Alameda St"}, {"id": "6202", "lat": 37.76857, "lon": -122.40284, "name": "Rhode Island St & Alameda St"}, {"id": "6203", "lat": 37.76327, "lon": -122.40256, "name": "Rhode Island St & Mariposa St"}, {"id": "6204", "lat": 37.7585, "lon": -122.40207, "name": "Rhode Island St & Southern Heights Ave"}, {"id": "6208", "lat": 37.74437, "lon": -122.41047, "name": "Ripley St & Alabama St"}, {"id": "6209", "lat": 37.74428, "lon": -122.41051, "name": "Ripley St & Alabama St"}, {"id": "6210", "lat": 37.74418, "lon": -122.41315, "name": "Ripley St & Folsom St"}, {"id": "6211", "lat": 37.74414, "lon": -122.41301, "name": "Ripley St & Folsom St"}, {"id": "6212", "lat": 37.7314, "lon": -122.42965, "name": "Rousseau St & Cayuga Ave"}, {"id": "6228", "lat": 37.7402, "lon": -122.45061, "name": "Reposa Way & Myra Way"}, {"id": "6229", "lat": 37.74082, "lon": -122.44936, "name": "Reposa Way & Teresita Blvd"}, {"id": "6230", "lat": 37.76449, "lon": -122.4433, "name": "414 Roosevelt Way"}, {"id": "6231", "lat": 37.76449, "lon": -122.44314, "name": "415 Roosevelt Way"}, {"id": "6232", "lat": 37.76716, "lon": -122.43722, "name": "Roosevelt Way & 14th St"}, {"id": "6233", "lat": 37.76649, "lon": -122.4395, "name": "Roosevelt Way & 15th St"}, {"id": "6234", "lat": 37.76197, "lon": -122.44537, "name": "Roosevelt Way & 17th St"}, {"id": "6235", "lat": 37.76195, "lon": -122.44521, "name": "Roosevelt Way & 17th St"}, {"id": "6236", "lat": 37.76373, "lon": -122.44291, "name": "Roosevelt Way & Clifford Ter"}, {"id": "6237", "lat": 37.76373, "lon": -122.44301, "name": "Roosevelt Way & Clifford Ter"}, {"id": "6238", "lat": 37.76342, "lon": -122.4437, "name": "Roosevelt Way & Lower Ter"}, {"id": "6239", "lat": 37.76324, "lon": -122.44379, "name": "Roosevelt Way & Lower Ter"}, {"id": "6240", "lat": 37.76536, "lon": -122.44102, "name": "Roosevelt Way & Museum Way"}, {"id": "6241", "lat": 37.71814, "lon": -122.42985, "name": "Russia Ave & Moscow St"}, {"id": "6243", "lat": 37.71245, "lon": -122.40739, "name": "Rutland St & Leland Ave"}, {"id": "6245", "lat": 37.74585, "lon": -122.49536, "name": "Rivera St & 37th Ave"}, {"id": "6246", "lat": 37.74543, "lon": -122.50504, "name": "Rivera St & 46th Ave"}, {"id": "6247", "lat": 37.74535, "lon": -122.5067, "name": "Rivera St & 48th Ave"}, {"id": "6248", "lat": 37.73241, "lon": -122.39135, "name": "Revere Ave & 3rd St"}, {"id": "6249", "lat": 37.7322, "lon": -122.39123, "name": "Revere Ave & 3rd St"}, {"id": "6250", "lat": 37.7285, "lon": -122.38469, "name": "Revere Ave & Ingalls St"}, {"id": "6251", "lat": 37.72953, "lon": -122.3863, "name": "Revere Ave & Jennings St"}, {"id": "6252", "lat": 37.72956, "lon": -122.38656, "name": "Revere Ave & Jennings St"}, {"id": "6253", "lat": 37.73165, "lon": -122.39004, "name": "Revere Ave & Lane St"}, {"id": "6254", "lat": 37.73169, "lon": -122.39029, "name": "Revere Ave & Lane St"}, {"id": "6260", "lat": 37.72083, "lon": -122.44647, "name": "San Jose Ave & Geneva Ave"}, {"id": "913", "lat": 37.71919, "lon": -122.4258, "name": "Dublin St & La Grande Ave"}, {"id": "3016", "lat": 37.77262, "lon": -122.38979, "name": "3rd St & 4th St"}, {"id": "3018", "lat": 37.72786, "lon": -122.40299, "name": "Bacon St & San Bruno Ave"}, {"id": "3019", "lat": 37.72765, "lon": -122.40327, "name": "Bacon St & San Bruno Ave"}, {"id": "3020", "lat": 37.72667, "lon": -122.40746, "name": "Bacon St & Somerset St"}, {"id": "3021", "lat": 37.72654, "lon": -122.40766, "name": "Bacon St & Somerset St"}, {"id": "3023", "lat": 37.79025, "lon": -122.48226, "name": "Baker Beach Parking Lot SW"}, {"id": "3024", "lat": 37.79761, "lon": -122.44569, "name": "Baker St & Greenwich St"}, {"id": "3031", "lat": 37.80609, "lon": -122.40916, "name": "Bay St & Midway St"}, {"id": "3032", "lat": 37.7774, "lon": -122.46175, "name": "Balboa St & 4th Ave"}, {"id": "3033", "lat": 37.77726, "lon": -122.46197, "name": "Balboa St & 4th Ave"}, {"id": "3034", "lat": 37.77729, "lon": -122.46416, "name": "Balboa St & 6th Ave"}, {"id": "3035", "lat": 37.77717, "lon": -122.46385, "name": "Balboa St & 6th Ave"}, {"id": "3036", "lat": 37.7772, "lon": -122.46604, "name": "Balboa St & 8th Ave"}, {"id": "3037", "lat": 37.77707, "lon": -122.46626, "name": "Balboa St & 8th Ave"}, {"id": "3038", "lat": 37.7771, "lon": -122.46817, "name": "Balboa St & 10th Ave"}, {"id": "3039", "lat": 37.77697, "lon": -122.46839, "name": "Balboa St & 10th Ave"}, {"id": "3040", "lat": 37.777, "lon": -122.47031, "name": "Balboa St & 12th Ave"}, {"id": "3041", "lat": 37.77687, "lon": -122.47053, "name": "Balboa St & 12th Ave"}, {"id": "3043", "lat": 37.77676, "lon": -122.47577, "name": "Balboa St & 17th Ave"}, {"id": "3044", "lat": 37.77663, "lon": -122.47599, "name": "Balboa St & 17th Ave"}, {"id": "3045", "lat": 37.77666, "lon": -122.47791, "name": "Balboa St & 19th Ave"}, {"id": "3046", "lat": 37.77653, "lon": -122.47813, "name": "Balboa St & 19th Ave"}, {"id": "3047", "lat": 37.77656, "lon": -122.48006, "name": "Balboa St & 21st Ave"}, {"id": "3048", "lat": 37.77643, "lon": -122.48027, "name": "Balboa St & 21st Ave"}, {"id": "3049", "lat": 37.77647, "lon": -122.48219, "name": "Balboa St & 23rd Ave"}, {"id": "3050", "lat": 37.77633, "lon": -122.48242, "name": "Balboa St & 23rd Ave"}, {"id": "3051", "lat": 37.77636, "lon": -122.48461, "name": "Balboa St & 25th Ave"}, {"id": "3052", "lat": 37.77624, "lon": -122.4843, "name": "Balboa St & 25th Ave"}, {"id": "3053", "lat": 37.77622, "lon": -122.48755, "name": "Balboa St & 28th Ave"}, {"id": "3054", "lat": 37.77609, "lon": -122.48777, "name": "Balboa St & 28th Ave"}, {"id": "3161", "lat": 37.78553, "lon": -122.40568, "name": "4th St & Market St"}, {"id": "3164", "lat": 37.77689, "lon": -122.3949, "name": "4th St & Townsend St"}, {"id": "3168", "lat": 37.78031, "lon": -122.40357, "name": "5th St & Folsom St"}, {"id": "3173", "lat": 37.7826, "lon": -122.40648, "name": "5th St & Mission St"}, {"id": "3177", "lat": 37.77715, "lon": -122.46392, "name": "6th Ave & Balboa St"}, {"id": "3178", "lat": 37.77699, "lon": -122.46409, "name": "6th Ave & Balboa St"}, {"id": "3180", "lat": 37.78305, "lon": -122.46438, "name": "6th Ave & Clement St"}, {"id": "3181", "lat": 37.78303, "lon": -122.46453, "name": "6th Ave & Clement St"}, {"id": "3183", "lat": 37.77381, "lon": -122.46375, "name": "6th Ave & Fulton St"}, {"id": "3184", "lat": 37.78088, "lon": -122.46418, "name": "6th Ave & Geary Blvd"}, {"id": "3185", "lat": 37.78077, "lon": -122.46435, "name": "6th Ave & Geary Blvd"}, {"id": "3188", "lat": 37.7566, "lon": -122.46374, "name": "1697 7th Ave"}, {"id": "3189", "lat": 37.75677, "lon": -122.46357, "name": "1697 7th Ave"}, {"id": "3191", "lat": 37.77327, "lon": -122.40337, "name": "7th St & Brannan St"}, {"id": "3192", "lat": 37.77686, "lon": -122.4079, "name": "7th St & Folsom St"}, {"id": "3193", "lat": 37.77573, "lon": -122.40646, "name": "7th St & Harrison St"}, {"id": "3194", "lat": 37.77793, "lon": -122.40922, "name": "7th St & Howard St"}, {"id": "3195", "lat": 37.77933, "lon": -122.41103, "name": "7th St & Mission St"}, {"id": "3196", "lat": 37.78031, "lon": -122.4124, "name": "7th St & Market St"}, {"id": "3201", "lat": 37.77364, "lon": -122.46581, "name": "8th Ave & Fulton St"}, {"id": "3202", "lat": 37.77348, "lon": -122.46598, "name": "8th Ave & Fulton St"}, {"id": "3203", "lat": 37.77118, "lon": -122.40539, "name": "8th St & Brannan St"}, {"id": "3204", "lat": 37.77245, "lon": -122.40693, "name": "8th St & Bryant St"}, {"id": "3205", "lat": 37.77477, "lon": -122.40992, "name": "8th St & Folsom St"}, {"id": "3206", "lat": 37.77354, "lon": -122.40838, "name": "8th St & Harrison St"}, {"id": "3208", "lat": 37.77724, "lon": -122.41303, "name": "8th St & Mission St"}, {"id": "3209", "lat": 37.7785, "lon": -122.4146, "name": "8th St & Market St"}, {"id": "3211", "lat": 37.76429, "lon": -122.46624, "name": "9th Ave & Irving St"}, {"id": "3213", "lat": 37.7638, "lon": -122.46639, "name": "9th Ave & Irving St"}, {"id": "3214", "lat": 37.76209, "lon": -122.46608, "name": "9th Ave & Judah St"}, {"id": "3215", "lat": 37.76204, "lon": -122.46624, "name": "9th Ave & Judah St"}, {"id": "3216", "lat": 37.76041, "lon": -122.46615, "name": "9th Ave & Kirkham St"}, {"id": "3217", "lat": 37.76024, "lon": -122.46595, "name": "9th Ave & Kirkham St"}, {"id": "3218", "lat": 37.75853, "lon": -122.46602, "name": "9th Ave & Lawton St"}, {"id": "3219", "lat": 37.75836, "lon": -122.46583, "name": "9th Ave & Lawton St"}, {"id": "3220", "lat": 37.76585, "lon": -122.46635, "name": "9th Ave & Lincoln Way"}, {"id": "3221", "lat": 37.76569, "lon": -122.46652, "name": "9th Ave & Lincoln Way"}, {"id": "3222", "lat": 37.75668, "lon": -122.46588, "name": "9th Ave & Moraga St"}, {"id": "3223", "lat": 37.75651, "lon": -122.46569, "name": "9th Ave & Moraga St"}, {"id": "3224", "lat": 37.7548, "lon": -122.46576, "name": "9th Ave & Noriega St"}, {"id": "3225", "lat": 37.75463, "lon": -122.46555, "name": "9th Ave & Noriega St"}, {"id": "3226", "lat": 37.75294, "lon": -122.46563, "name": "9th Ave & Ortega St"}, {"id": "3229", "lat": 37.8252, "lon": -122.37006, "name": "9th St & Avenue H"}, {"id": "3230", "lat": 37.75272, "lon": -122.4665, "name": "10th Ave & Ortega St"}, {"id": "3231", "lat": 37.75086, "lon": -122.46638, "name": "10th Ave & Pacheco St"}, {"id": "3232", "lat": 37.7507, "lon": -122.46655, "name": "10th Ave & Pacheco St"}, {"id": "3233", "lat": 37.74932, "lon": -122.46626, "name": "10th Ave & Quintara St"}, {"id": "3234", "lat": 37.74916, "lon": -122.46643, "name": "10th Ave & Quintara St"}, {"id": "3235", "lat": 37.76981, "lon": -122.4113, "name": "11th St & Bryant St"}, {"id": "3238", "lat": 37.77069, "lon": -122.41253, "name": "11th St & Harrison St"}, {"id": "3239", "lat": 37.77056, "lon": -122.41249, "name": "11th St & Harrison St"}, {"id": "3240", "lat": 37.77333, "lon": -122.41573, "name": "11th St & Howard St"}, {"id": "3241", "lat": 37.77283, "lon": -122.41538, "name": "11th St & Howard St"}, {"id": "3243", "lat": 37.77404, "lon": -122.41689, "name": "11th St & Mission St"}, {"id": "3244", "lat": 37.7755, "lon": -122.41852, "name": "11th St & Market St"}, {"id": "3245", "lat": 37.77537, "lon": -122.41858, "name": "11th St & Market St"}, {"id": "3247", "lat": 37.74888, "lon": -122.47071, "name": "14th Ave & Quintara St"}, {"id": "3248", "lat": 37.74503, "lon": -122.4703, "name": "14th Ave & Santiago St"}, {"id": "3249", "lat": 37.7434, "lon": -122.4703, "name": "14th Ave & Taraval St"}, {"id": "3250", "lat": 37.74317, "lon": -122.47017, "name": "14th Ave & Taraval St"}, {"id": "3251", "lat": 37.7416, "lon": -122.47004, "name": "14th Ave & Ulloa St"}, {"id": "3252", "lat": 37.74153, "lon": -122.47018, "name": "14th Ave & Ulloa St"}, {"id": "3253", "lat": 37.7673, "lon": -122.43721, "name": "14th St & Alpine Ter"}, {"id": "3254", "lat": 37.76777, "lon": -122.42909, "name": "14th St & Church St"}, {"id": "3255", "lat": 37.76767, "lon": -122.42913, "name": "14th St & Church St"}, {"id": "3256", "lat": 37.76738, "lon": -122.43584, "name": "14th St & Castro St"}, {"id": "3257", "lat": 37.76728, "lon": -122.43578, "name": "14th St & Castro St"}, {"id": "3258", "lat": 37.76751, "lon": -122.43327, "name": "14th St & Noe St"}, {"id": "3259", "lat": 37.7674, "lon": -122.43356, "name": "14th St & Noe St"}, {"id": "3260", "lat": 37.76767, "lon": -122.43111, "name": "14th St & Sanchez St"}, {"id": "3261", "lat": 37.76754, "lon": -122.43128, "name": "14th St & Sanchez St"}, {"id": "3262", "lat": 37.75411, "lon": -122.47217, "name": "15th Ave & Noriega St"}, {"id": "3365", "lat": 37.7614, "lon": -122.47711, "name": "19th Ave & Judah St"}, {"id": "3368", "lat": 37.75808, "lon": -122.47663, "name": "19th Ave & Lawton St"}, {"id": "3369", "lat": 37.75789, "lon": -122.47678, "name": "19th Ave & Lawton St"}, {"id": "3371", "lat": 37.76537, "lon": -122.4774, "name": "19th Ave & Lincoln Way"}, {"id": "3374", "lat": 37.75432, "lon": -122.47637, "name": "19th Ave & Noriega St"}, {"id": "3375", "lat": 37.75392, "lon": -122.47653, "name": "19th Ave & Noriega St"}, {"id": "3379", "lat": 37.75272, "lon": -122.47619, "name": "19th Ave & Ortega St"}, {"id": "3380", "lat": 37.75206, "lon": -122.4764, "name": "19th Ave & Ortega St"}, {"id": "3383", "lat": 37.74853, "lon": -122.4759, "name": "19th Ave & Quintara St"}, {"id": "3384", "lat": 37.7483, "lon": -122.47614, "name": "19th Ave & Quintara St"}, {"id": "3388", "lat": 37.74715, "lon": -122.47583, "name": "19th Ave & Rivera St"}, {"id": "3389", "lat": 37.74647, "lon": -122.47601, "name": "19th Ave & Rivera St"}, {"id": "3390", "lat": 37.73456, "lon": -122.4752, "name": "19th Ave & Sloat Blvd"}, {"id": "3391", "lat": 37.73472, "lon": -122.47497, "name": "19th Ave & Sloat Blvd"}, {"id": "3394", "lat": 37.74331, "lon": -122.47554, "name": "19th Ave & Taraval St"}, {"id": "3395", "lat": 37.74259, "lon": -122.47574, "name": "19th Ave & Taraval St"}, {"id": "3398", "lat": 37.73955, "lon": -122.47531, "name": "19th Ave & Vicente St"}, {"id": "3399", "lat": 37.73901, "lon": -122.47553, "name": "19th Ave & Vicente St"}, {"id": "3402", "lat": 37.72719, "lon": -122.47468, "name": "19th Ave & Winston Dr"}, {"id": "3404", "lat": 37.73042, "lon": -122.47588, "name": "20th Ave & Buckingham Way"}, {"id": "3405", "lat": 37.73, "lon": -122.47605, "name": "20th Ave & Buckingham Way"}, {"id": "3406", "lat": 37.72887, "lon": -122.47568, "name": "20th Av/Macy's Stonestown"}, {"id": "3408", "lat": 37.72687, "lon": -122.47594, "name": "20th Ave & Winston Dr"}, {"id": "3409", "lat": 37.72634, "lon": -122.47613, "name": "20th Ave & Winston Dr"}, {"id": "3410", "lat": 37.76054, "lon": -122.38871, "name": "20th St & 3rd St"}, {"id": "3414", "lat": 37.75768, "lon": -122.43597, "name": "20th St & Collingwood St"}, {"id": "3415", "lat": 37.75756, "lon": -122.43787, "name": "20th St & Eureka St"}, {"id": "3424", "lat": 37.75536, "lon": -122.43901, "name": "21st St & Douglass St"}, {"id": "3425", "lat": 37.76368, "lon": -122.48027, "name": "22nd Ave & Irving St"}, {"id": "3426", "lat": 37.76146, "lon": -122.48011, "name": "22nd Ave & Judah St"}, {"id": "3427", "lat": 37.75959, "lon": -122.47998, "name": "22nd Ave & Kirkham St"}, {"id": "3428", "lat": 37.75775, "lon": -122.47985, "name": "22nd Ave & Lawton St"}, {"id": "3429", "lat": 37.76519, "lon": -122.48037, "name": "22nd Ave & Lincoln Way"}, {"id": "3430", "lat": 37.7559, "lon": -122.47971, "name": "22nd Ave & Moraga St"}, {"id": "3431", "lat": 37.75434, "lon": -122.47961, "name": "22nd Ave & Noriega St"}, {"id": "3435", "lat": 37.75775, "lon": -122.39227, "name": "22nd St & Iowa St"}, {"id": "3436", "lat": 37.75787, "lon": -122.39008, "name": "22nd St & Minnesota St"}, {"id": "3437", "lat": 37.75781, "lon": -122.39027, "name": "22nd St & Minnesota St"}, {"id": "3439", "lat": 37.75767, "lon": -122.39231, "name": "22nd St & Pennsylvania Ave"}, {"id": "3441", "lat": 37.76313, "lon": -122.48148, "name": "23rd Ave & Irving St"}, {"id": "3442", "lat": 37.76161, "lon": -122.48138, "name": "23rd Ave & Judah St"}, {"id": "3443", "lat": 37.75973, "lon": -122.48124, "name": "23rd Ave & Kirkham St"}, {"id": "3444", "lat": 37.75787, "lon": -122.48111, "name": "23rd Ave & Lawton St"}, {"id": "3445", "lat": 37.76503, "lon": -122.48161, "name": "23rd Ave & Lincoln Way"}, {"id": "3446", "lat": 37.75601, "lon": -122.48099, "name": "23rd Ave & Moraga St"}, {"id": "3447", "lat": 37.75414, "lon": -122.48086, "name": "23rd Ave & Noriega St"}, {"id": "3450", "lat": 37.75445, "lon": -122.40267, "name": "23rd St & Kansas St"}, {"id": "3452", "lat": 37.75451, "lon": -122.40169, "name": "23rd St & Rhode Island St"}, {"id": "3453", "lat": 37.75442, "lon": -122.40494, "name": "23rd St & Utah St"}, {"id": "3454", "lat": 37.7543, "lon": -122.4053, "name": "23rd St & Utah St"}, {"id": "3455", "lat": 37.75448, "lon": -122.40391, "name": "23rd St & Vermont St"}, {"id": "3456", "lat": 37.7544, "lon": -122.40363, "name": "23rd St & Vermont St"}, {"id": "3458", "lat": 37.75285, "lon": -122.40928, "name": "24th St & Bryant St"}, {"id": "3459", "lat": 37.75276, "lon": -122.40897, "name": "24th St & Bryant St"}, {"id": "3460", "lat": 37.75178, "lon": -122.42733, "name": "24th St & Church St"}, {"id": "3461", "lat": 37.75164, "lon": -122.42754, "name": "24th St & Church St"}, {"id": "3462", "lat": 37.75136, "lon": -122.43425, "name": "24th St & Castro St"}, {"id": "3463", "lat": 37.75126, "lon": -122.43394, "name": "24th St & Castro St"}, {"id": "3465", "lat": 37.75109, "lon": -122.4364, "name": "24th St & Diamond St"}, {"id": "3466", "lat": 37.7519, "lon": -122.42531, "name": "24th St & Dolores St"}, {"id": "3467", "lat": 37.75179, "lon": -122.42526, "name": "24th St & Dolores St"}, {"id": "3570", "lat": 37.77524, "lon": -122.5058, "name": "45th Ave & Balboa St"}, {"id": "3571", "lat": 37.77521, "lon": -122.50596, "name": "45th Ave & Balboa St"}, {"id": "3572", "lat": 37.77357, "lon": -122.50567, "name": "45th Ave & Cabrillo St"}, {"id": "3573", "lat": 37.77354, "lon": -122.50583, "name": "45th Ave & Cabrillo St"}, {"id": "3574", "lat": 37.76237, "lon": -122.50614, "name": "46th Ave & Irving St"}, {"id": "3575", "lat": 37.76221, "lon": -122.50597, "name": "46th Ave & Irving St"}, {"id": "3576", "lat": 37.76052, "lon": -122.50602, "name": "46th Ave & Judah St"}, {"id": "3577", "lat": 37.7604, "lon": -122.5059, "name": "46th Ave & Judah St"}, {"id": "3578", "lat": 37.75865, "lon": -122.50589, "name": "46th Ave & Kirkham St"}, {"id": "3579", "lat": 37.75849, "lon": -122.50572, "name": "46th Ave & Kirkham St"}, {"id": "3580", "lat": 37.75678, "lon": -122.50575, "name": "46th Ave & Lawton St"}, {"id": "3581", "lat": 37.75661, "lon": -122.50558, "name": "46th Ave & Lawton St"}, {"id": "3582", "lat": 37.76403, "lon": -122.50611, "name": "46th Ave & Lincoln Way"}, {"id": "3583", "lat": 37.76405, "lon": -122.50627, "name": "46th Ave & Lincoln Way"}, {"id": "3584", "lat": 37.75493, "lon": -122.50562, "name": "46th Ave & Moraga St"}, {"id": "3585", "lat": 37.75476, "lon": -122.50545, "name": "46th Ave & Moraga St"}, {"id": "3586", "lat": 37.75283, "lon": -122.50532, "name": "46th Ave & Noriega St"}, {"id": "3587", "lat": 37.75284, "lon": -122.50548, "name": "46th Ave & Noriega St"}, {"id": "3588", "lat": 37.75119, "lon": -122.50537, "name": "46th Ave & Ortega St"}, {"id": "3589", "lat": 37.75102, "lon": -122.50519, "name": "46th Ave & Ortega St"}, {"id": "3590", "lat": 37.74933, "lon": -122.50524, "name": "46th Ave & Pacheco St"}, {"id": "3591", "lat": 37.74916, "lon": -122.50507, "name": "46th Ave & Pacheco St"}, {"id": "3592", "lat": 37.74746, "lon": -122.5051, "name": "46th Ave & Quintara St"}, {"id": "3593", "lat": 37.74729, "lon": -122.50493, "name": "46th Ave & Quintara St"}, {"id": "3594", "lat": 37.74559, "lon": -122.50497, "name": "46th Ave & Rivera St"}, {"id": "3595", "lat": 37.74542, "lon": -122.5048, "name": "46th Ave & Rivera St"}, {"id": "3596", "lat": 37.74374, "lon": -122.50483, "name": "46th Ave & Santiago St"}, {"id": "3597", "lat": 37.74357, "lon": -122.50466, "name": "46th Ave & Santiago St"}, {"id": "3598", "lat": 37.74185, "lon": -122.50471, "name": "46th Ave & Taraval St"}, {"id": "3599", "lat": 37.74168, "lon": -122.50453, "name": "46th Ave & Taraval St"}, {"id": "3600", "lat": 37.74, "lon": -122.50458, "name": "46th Ave & Ulloa St"}, {"id": "3601", "lat": 37.73983, "lon": -122.50441, "name": "46th Ave & Ulloa St"}, {"id": "3602", "lat": 37.73814, "lon": -122.50444, "name": "46th Ave & Vicente St"}, {"id": "3603", "lat": 37.73797, "lon": -122.50427, "name": "46th Ave & Vicente St"}, {"id": "3604", "lat": 37.73611, "lon": -122.50414, "name": "46th Ave & Wawona St"}, {"id": "3605", "lat": 37.75278, "lon": -122.50636, "name": "47th Ave & Noriega St"}, {"id": "3606", "lat": 37.73602, "lon": -122.50537, "name": "47th Ave & Wawona St"}, {"id": "3608", "lat": 37.77902, "lon": -122.50941, "name": "48th Ave & Point Lobos Ave"}, {"id": "3612", "lat": 37.78401, "lon": -122.40821, "name": "Cyril Magnin St & Market St"}, {"id": "3613", "lat": 37.73774, "lon": -122.43101, "name": "46 Addison St"}, {"id": "3614", "lat": 37.73817, "lon": -122.43281, "name": "164 Addison  St"}, {"id": "3615", "lat": 37.74004, "lon": -122.43572, "name": "Addison St & Diamond Heights Blvd"}, {"id": "3616", "lat": 37.74, "lon": -122.43361, "name": "Addison  St & Digby St"}, {"id": "3617", "lat": 37.74019, "lon": -122.43422, "name": "Addison  St & Farnum St"}, {"id": "3618", "lat": 37.74005, "lon": -122.43443, "name": "Addison  St & Farnum St"}, {"id": "3619", "lat": 37.70898, "lon": -122.39422, "name": "Alana Way & Executive Park Blvd"}, {"id": "3621", "lat": 37.71163, "lon": -122.4669, "name": "Alemany Blvd & Arch St"}, {"id": "3622", "lat": 37.71142, "lon": -122.46717, "name": "Alemany Blvd & Arch St"}, {"id": "3628", "lat": 37.71036, "lon": -122.46946, "name": "Alemany Blvd & St Charles Ave"}, {"id": "3630", "lat": 37.71183, "lon": -122.46507, "name": "Alemany Blvd & Victoria St"}, {"id": "3631", "lat": 37.7117, "lon": -122.46519, "name": "Alemany Blvd & Victoria St"}, {"id": "3641", "lat": 37.71166, "lon": -122.46711, "name": "Arch St & Alemany Blvd"}, {"id": "3642", "lat": 37.77708, "lon": -122.45865, "name": "Arguello Blvd & Balboa St"}, {"id": "3643", "lat": 37.7856, "lon": -122.45909, "name": "Arguello Blvd & California St"}, {"id": "3644", "lat": 37.78556, "lon": -122.45925, "name": "Arguello Blvd & California St"}, {"id": "3645", "lat": 37.78307, "lon": -122.45907, "name": "Arguello Blvd & Clement St"}, {"id": "3647", "lat": 37.78374, "lon": -122.45896, "name": "Arguello Blvd & Euclid Ave"}, {"id": "3648", "lat": 37.77443, "lon": -122.4583, "name": "Arguello Blvd & Fulton St"}, {"id": "3649", "lat": 37.78143, "lon": -122.45896, "name": "Arguello Blvd & Geary Blvd"}, {"id": "3650", "lat": 37.78108, "lon": -122.45876, "name": "Arguello Blvd & Geary Blvd"}, {"id": "3651", "lat": 37.77748, "lon": -122.45852, "name": "Arguello Blvd & Turk St"}, {"id": "3656", "lat": 37.76428, "lon": -122.44595, "name": "Ashbury St & Clifford Ter"}, {"id": "3657", "lat": 37.7643, "lon": -122.44609, "name": "Ashbury St & Clifford Ter"}, {"id": "3659", "lat": 37.76298, "lon": -122.4468, "name": "Ashbury St & Clayton St"}, {"id": "3661", "lat": 37.76715, "lon": -122.44628, "name": "Ashbury St & Frederick St"}, {"id": "3662", "lat": 37.76994, "lon": -122.44685, "name": "Ashbury St & Haight St"}, {"id": "3663", "lat": 37.7653, "lon": -122.44607, "name": "Ashbury St & Piedmont St"}, {"id": "3664", "lat": 37.76515, "lon": -122.44588, "name": "Ashbury St & Piedmont St"}, {"id": "3665", "lat": 37.76916, "lon": -122.44685, "name": "Ashbury St & Waller St"}, {"id": "3666", "lat": 37.76901, "lon": -122.44666, "name": "Ashbury St & Waller St"}, {"id": "3768", "lat": 37.74472, "lon": -122.40443, "name": "228 Bayshore Blvd"}, {"id": "3771", "lat": 37.73773, "lon": -122.407, "name": "Bayshore Blvd & Alemany Blvd"}, {"id": "3772", "lat": 37.71221, "lon": -122.40252, "name": "Bayshore Blvd & Arleta Ave"}, {"id": "3773", "lat": 37.73425, "lon": -122.40558, "name": "Bayshore Blvd & Augusta St"}, {"id": "3775", "lat": 37.73488, "lon": -122.40588, "name": "Bayshore Blvd & Boutwell St"}, {"id": "3778", "lat": 37.73986, "lon": -122.40677, "name": "Bayshore Blvd & Cortland Ave"}, {"id": "3779", "lat": 37.73946, "lon": -122.40712, "name": "Bayshore Blvd & Cortland Ave"}, {"id": "3781", "lat": 37.71355, "lon": -122.40007, "name": "Bayshore Blvd & Hester Ave"}, {"id": "3783", "lat": 37.71114, "lon": -122.40378, "name": "Bayshore Blvd & Leland Ave"}, {"id": "3788", "lat": 37.73321, "lon": -122.40472, "name": "Bayshore Blvd & Silver Ave"}, {"id": "3789", "lat": 37.73296, "lon": -122.40479, "name": "Bayshore Blvd & Silver Ave"}, {"id": "3792", "lat": 37.7129, "lon": -122.40102, "name": "Bayshore Blvd & Tunnel Ave"}, {"id": "3793", "lat": 37.71062, "lon": -122.40389, "name": "Bayshore Blvd & Visitacion Ave"}, {"id": "6343", "lat": 37.70849, "lon": -122.41993, "name": "Santos St & Geneva Ave"}, {"id": "6344", "lat": 37.7086, "lon": -122.42007, "name": "Santos St & Geneva Ave"}, {"id": "6345", "lat": 37.70982, "lon": -122.41935, "name": "Santos St & Velasco Ave"}, {"id": "6346", "lat": 37.71003, "lon": -122.41943, "name": "Santos St & Velasco Ave"}, {"id": "6348", "lat": 37.71479, "lon": -122.40061, "name": "3800 San Bruno Ave"}, {"id": "6350", "lat": 37.71482, "lon": -122.39994, "name": "3801 San Bruno Ave"}, {"id": "6352", "lat": 37.71246, "lon": -122.4023, "name": "San Bruno Ave & Arleta Ave"}, {"id": "6355", "lat": 37.72797, "lon": -122.40367, "name": "San Bruno Ave & Bacon St"}, {"id": "6357", "lat": 37.72754, "lon": -122.40368, "name": "San Bruno Ave & Bacon St"}, {"id": "6358", "lat": 37.7241, "lon": -122.40226, "name": "San Bruno Ave & Dwight St"}, {"id": "6360", "lat": 37.7211, "lon": -122.40083, "name": "San Bruno Ave & Mansell St"}, {"id": "6361", "lat": 37.72175, "lon": -122.40127, "name": "San Bruno Ave & Mansell St"}, {"id": "6362", "lat": 37.72418, "lon": -122.4021, "name": "San Bruno Ave & Paul Ave"}, {"id": "6363", "lat": 37.72365, "lon": -122.40186, "name": "San Bruno Ave & Paul Ave"}, {"id": "6364", "lat": 37.73202, "lon": -122.40535, "name": "San Bruno Ave & Silver Ave"}, {"id": "6365", "lat": 37.73223, "lon": -122.40563, "name": "San Bruno Ave & Silver Ave"}, {"id": "6366", "lat": 37.71385, "lon": -122.40216, "name": "San Bruno Ave & Somerset St"}, {"id": "6367", "lat": 37.73026, "lon": -122.40462, "name": "San Bruno Ave & Thornton Ave"}, {"id": "6369", "lat": 37.71907, "lon": -122.40054, "name": "San Bruno Ave & Ward St"}, {"id": "6371", "lat": 37.71677, "lon": -122.39995, "name": "San Bruno Ave & Wilde Ave"}, {"id": "6372", "lat": 37.72531, "lon": -122.40275, "name": "San Bruno Ave & Woolsey St"}, {"id": "6373", "lat": 37.72637, "lon": -122.40301, "name": "San Bruno Ave & Wayland St"}, {"id": "6374", "lat": 37.7332, "lon": -122.4658, "name": "Santa Clara Ave & Monterey Blvd"}, {"id": "6375", "lat": 37.73486, "lon": -122.46615, "name": "Santa Clara Ave & Saint Francis Blvd"}, {"id": "6382", "lat": 37.70934, "lon": -122.41204, "name": "Schwerin St & Garrison Ave"}, {"id": "6383", "lat": 37.70916, "lon": -122.41193, "name": "Schwerin St & Garrison Ave"}, {"id": "6384", "lat": 37.70657, "lon": -122.41326, "name": "Schwerin St & Geneva Ave"}, {"id": "6385", "lat": 37.7069, "lon": -122.41294, "name": "Schwerin St & Macdonald Ave"}, {"id": "6386", "lat": 37.71049, "lon": -122.41136, "name": "Schwerin St & Sunnydale Ave"}, {"id": "6387", "lat": 37.71034, "lon": -122.4116, "name": "Schwerin St & Sunnydale Ave"}, {"id": "6388", "lat": 37.70826, "lon": -122.41234, "name": "Schwerin St & Velasco Ave"}, {"id": "6389", "lat": 37.70815, "lon": -122.41257, "name": "Schwerin St & Velasco Ave"}, {"id": "6393", "lat": 37.72979, "lon": -122.43326, "name": "Silver Ave & Alemany Blvd"}, {"id": "6394", "lat": 37.72959, "lon": -122.43318, "name": "Silver Ave & Alemany Blvd"}, {"id": "6395", "lat": 37.73433, "lon": -122.40257, "name": "Silver Ave & Augusta St"}, {"id": "6396", "lat": 37.73091, "lon": -122.41084, "name": "Silver Ave & Boylston St"}, {"id": "6397", "lat": 37.73305, "lon": -122.40436, "name": "Silver Ave & Bay Shore Blvd"}, {"id": "6398", "lat": 37.72913, "lon": -122.4194, "name": "Silver Ave & Cambridge St"}, {"id": "6399", "lat": 37.72901, "lon": -122.41917, "name": "Silver Ave & Cambridge St"}, {"id": "6400", "lat": 37.73327, "lon": -122.4043, "name": "Silver Ave & Charter Oak Ave"}, {"id": "6401", "lat": 37.72871, "lon": -122.42587, "name": "Silver Ave & Congdon St"}, {"id": "6402", "lat": 37.72856, "lon": -122.42609, "name": "Silver Ave & Congdon St"}, {"id": "6404", "lat": 37.72993, "lon": -122.41298, "name": "Silver Ave & Dartmouth St"}, {"id": "6405", "lat": 37.72984, "lon": -122.41361, "name": "Silver Ave & Dartmouth St"}, {"id": "6406", "lat": 37.7289, "lon": -122.42257, "name": "Silver Ave & Gambier St"}, {"id": "6407", "lat": 37.72875, "lon": -122.42279, "name": "Silver Ave & Gambier St"}, {"id": "6408", "lat": 37.73097, "lon": -122.4102, "name": "Silver Ave & Holyoke St"}, {"id": "6410", "lat": 37.72847, "lon": -122.42879, "name": "Silver Ave & Lisbon St"}, {"id": "6411", "lat": 37.7315, "lon": -122.40885, "name": "Silver Ave & Merrill St"}, {"id": "6507", "lat": 37.73486, "lon": -122.46958, "name": "Saint Francis Blvd & San Fernando Way"}, {"id": "6508", "lat": 37.73471, "lon": -122.4698, "name": "Saint Francis Blvd & San Fernando Way"}, {"id": "6509", "lat": 37.73184, "lon": -122.43132, "name": "Still St & Lyell St"}, {"id": "6511", "lat": 37.79381, "lon": -122.40779, "name": "Stockton St & Clay St"}, {"id": "6512", "lat": 37.79913, "lon": -122.40887, "name": "Stockton St & Columbus Ave"}, {"id": "6513", "lat": 37.79928, "lon": -122.40905, "name": "Stockton St & Columbus Ave"}, {"id": "6515", "lat": 37.80142, "lon": -122.40946, "name": "Stockton St & Filbert St"}, {"id": "6516", "lat": 37.7877, "lon": -122.40673, "name": "Stockton St & Geary St"}, {"id": "6517", "lat": 37.80235, "lon": -122.40966, "name": "Stockton St & Greenwich St"}, {"id": "6518", "lat": 37.80221, "lon": -122.4095, "name": "Stockton St & Greenwich St"}, {"id": "6519", "lat": 37.80313, "lon": -122.40969, "name": "Stockton St & Lombard St"}, {"id": "6520", "lat": 37.79631, "lon": -122.40829, "name": "Stockton St & Pacific Ave"}, {"id": "6521", "lat": 37.79716, "lon": -122.40862, "name": "Stockton St & Pacific Ave"}, {"id": "6522", "lat": 37.79348, "lon": -122.40788, "name": "Stockton St & Sacramento St"}, {"id": "6523", "lat": 37.79013, "lon": -122.40705, "name": "Stockton St & Sutter St"}, {"id": "6524", "lat": 37.78997, "lon": -122.40716, "name": "Stockton St & Sutter St"}, {"id": "6525", "lat": 37.80054, "lon": -122.40928, "name": "Stockton St & Union St"}, {"id": "6526", "lat": 37.79471, "lon": -122.40811, "name": "Stockton St & Washington St"}, {"id": "6529", "lat": 37.76101, "lon": -122.49585, "name": "Sunset Blvd & Judah St"}, {"id": "6530", "lat": 37.76076, "lon": -122.49566, "name": "Sunset Blvd & Judah St"}, {"id": "6533", "lat": 37.73034, "lon": -122.49352, "name": "Sunset Blvd & Lake Merced Blvd"}, {"id": "6534", "lat": 37.73035, "lon": -122.49378, "name": "Sunset Blvd & Lake Merced Blvd"}, {"id": "6535", "lat": 37.75727, "lon": -122.49559, "name": "Sunset Blvd & Lawton St"}, {"id": "6536", "lat": 37.75703, "lon": -122.49539, "name": "Sunset Blvd & Lawton St"}, {"id": "6539", "lat": 37.75354, "lon": -122.49532, "name": "Sunset Blvd & Noriega St"}, {"id": "6540", "lat": 37.7533, "lon": -122.49512, "name": "Sunset Blvd & Noriega St"}, {"id": "6541", "lat": 37.73203, "lon": -122.49386, "name": "Sunset Blvd & Ocean Ave"}, {"id": "6542", "lat": 37.73183, "lon": -122.49362, "name": "Sunset Blvd & Ocean Ave"}, {"id": "6543", "lat": 37.7518, "lon": -122.49502, "name": "Sunset Blvd & Ortega St"}, {"id": "6544", "lat": 37.75131, "lon": -122.49517, "name": "Sunset Blvd & Ortega St"}, {"id": "6547", "lat": 37.74807, "lon": -122.49477, "name": "Sunset Blvd & Quintara St"}, {"id": "6548", "lat": 37.74758, "lon": -122.49492, "name": "Sunset Blvd & Quintara St"}, {"id": "6549", "lat": 37.74608, "lon": -122.4948, "name": "Sunset Blvd & Rivera St"}, {"id": "6550", "lat": 37.74584, "lon": -122.4946, "name": "Sunset Blvd & Rivera St"}, {"id": "6555", "lat": 37.74235, "lon": -122.49455, "name": "Sunset Blvd & Taraval St"}, {"id": "6556", "lat": 37.74211, "lon": -122.49435, "name": "Sunset Blvd & Taraval St"}, {"id": "6559", "lat": 37.73862, "lon": -122.49428, "name": "Sunset Blvd & Vicente St"}, {"id": "6560", "lat": 37.73838, "lon": -122.49408, "name": "Sunset Blvd & Vicente St"}, {"id": "6563", "lat": 37.73485, "lon": -122.49378, "name": "Sunset Blvd & Yorba St"}, {"id": "6564", "lat": 37.73478, "lon": -122.49406, "name": "Sunset Blvd & Yorba St"}, {"id": "6565", "lat": 37.71277, "lon": -122.41957, "name": "1725 Sunnydale Ave"}, {"id": "6566", "lat": 37.71297, "lon": -122.41995, "name": "1800 Sunnydale Ave"}, {"id": "6567", "lat": 37.7134, "lon": -122.42138, "name": "1900 Sunnydale Ave"}, {"id": "6568", "lat": 37.71322, "lon": -122.42115, "name": "1901 Sunnydale Ave"}, {"id": "6569", "lat": 37.70901, "lon": -122.40545, "name": "Sunnydale Ave & Bay Shore Blvd"}, {"id": "6570", "lat": 37.70996, "lon": -122.40937, "name": "Sunnydale Ave & Cora St"}, {"id": "6571", "lat": 37.7102, "lon": -122.40961, "name": "Sunnydale Ave & Cora St"}, {"id": "6573", "lat": 37.71098, "lon": -122.41302, "name": "Sunnydale Ave & Garrison Ave"}, {"id": "6574", "lat": 37.71413, "lon": -122.42367, "name": "Sunnydale Ave / McLaren School"}, {"id": "6575", "lat": 37.7141, "lon": -122.4241, "name": "Sunnydale Ave / McLaren School"}, {"id": "6576", "lat": 37.70986, "lon": -122.40851, "name": "Sunnydale Ave & Rutland St"}, {"id": "6580", "lat": 37.71163, "lon": -122.41521, "name": "Sunnydale Ave & Sawyer St"}, {"id": "6582", "lat": 37.71059, "lon": -122.4115, "name": "Sunnydale Ave & Schwerin St"}, {"id": "6583", "lat": 37.70935, "lon": -122.40669, "name": "Sunnydale Ave & Talbert St"}, {"id": "6584", "lat": 37.70935, "lon": -122.407, "name": "Sunnydale Ave & Talbert St"}, {"id": "6585", "lat": 37.78489, "lon": -122.44307, "name": "Sutter St & Baker St"}, {"id": "6586", "lat": 37.78477, "lon": -122.44331, "name": "Sutter St & Baker St"}, {"id": "6587", "lat": 37.78658, "lon": -122.42986, "name": "Sutter St & Buchanan St"}, {"id": "6588", "lat": 37.7865, "lon": -122.42961, "name": "Sutter St & Buchanan St"}, {"id": "6589", "lat": 37.78531, "lon": -122.43973, "name": "Sutter St & Divisadero St"}, {"id": "6590", "lat": 37.78526, "lon": -122.43943, "name": "Sutter St & Divisadero St"}, {"id": "6591", "lat": 37.78616, "lon": -122.43315, "name": "Sutter St & Fillmore St"}, {"id": "6592", "lat": 37.78609, "lon": -122.43283, "name": "Sutter St & Fillmore St"}, {"id": "6593", "lat": 37.78721, "lon": -122.42492, "name": "Sutter St & Gough St"}, {"id": "6594", "lat": 37.78822, "lon": -122.41691, "name": "Sutter St & Hyde St"}, {"id": "6595", "lat": 37.78864, "lon": -122.41362, "name": "Sutter St & Jones St"}, {"id": "6596", "lat": 37.78982, "lon": -122.40438, "name": "Sutter St & Kearny St"}, {"id": "6597", "lat": 37.78801, "lon": -122.41854, "name": "Sutter St & Larkin St"}, {"id": "6598", "lat": 37.78843, "lon": -122.41527, "name": "Sutter St & Leavenworth St"}, {"id": "6599", "lat": 37.78672, "lon": -122.42871, "name": "Sutter St & Laguna St"}, {"id": "6600", "lat": 37.78665, "lon": -122.42846, "name": "Sutter St & Laguna St"}, {"id": "6601", "lat": 37.78906, "lon": -122.41032, "name": "Sutter St & Mason St"}, {"id": "6702", "lat": 37.7333, "lon": -122.39762, "name": "Topeka Ave & Bridge View Dr"}, {"id": "6703", "lat": 37.7318, "lon": -122.39555, "name": "Topeka Ave & Newhall St"}, {"id": "6704", "lat": 37.73117, "lon": -122.39527, "name": "Topeka Ave & Thornton Ave"}, {"id": "6705", "lat": 37.73201, "lon": -122.39592, "name": "Topeka Ave & Venus St"}, {"id": "6709", "lat": 37.77715, "lon": -122.45818, "name": "Turk St & Arguello Blvd"}, {"id": "6710", "lat": 37.77929, "lon": -122.44217, "name": "Turk St & Baker St"}, {"id": "6711", "lat": 37.77916, "lon": -122.44215, "name": "Turk St & Baker St"}, {"id": "6712", "lat": 37.77951, "lon": -122.4403, "name": "Turk St & Broderick St"}, {"id": "6713", "lat": 37.77936, "lon": -122.44049, "name": "Turk St & Broderick St"}, {"id": "6714", "lat": 37.77809, "lon": -122.4517, "name": "Turk St & Chabot Ter"}, {"id": "6715", "lat": 37.77801, "lon": -122.45137, "name": "Turk St & Chabot Ter"}, {"id": "6716", "lat": 37.77891, "lon": -122.44525, "name": "Turk St & Central Ave"}, {"id": "6717", "lat": 37.77876, "lon": -122.44544, "name": "Turk St & Central Ave"}, {"id": "6718", "lat": 37.78262, "lon": -122.41586, "name": "Turk St & Hyde St"}, {"id": "6719", "lat": 37.78304, "lon": -122.41258, "name": "Turk St & Jones St"}, {"id": "6720", "lat": 37.78246, "lon": -122.4172, "name": "Turk St & Larkin St"}, {"id": "6721", "lat": 37.78283, "lon": -122.41422, "name": "Turk St & Leavenworth St"}, {"id": "6722", "lat": 37.77911, "lon": -122.4436, "name": "Turk St & Lyon St"}, {"id": "6723", "lat": 37.77896, "lon": -122.44379, "name": "Turk St & Lyon St"}, {"id": "6724", "lat": 37.77866, "lon": -122.44721, "name": "Turk St & Masonic Ave"}, {"id": "6725", "lat": 37.77855, "lon": -122.44714, "name": "Turk St & Masonic Ave"}, {"id": "6727", "lat": 37.7779, "lon": -122.45328, "name": "Turk St & Parker Ave"}, {"id": "6728", "lat": 37.77775, "lon": -122.45348, "name": "Turk St & Parker Ave"}, {"id": "6729", "lat": 37.77824, "lon": -122.44959, "name": "Turk St & Roselyn Ter"}, {"id": "6730", "lat": 37.77834, "lon": -122.44992, "name": "Turk St & Roselyn Ter"}, {"id": "6731", "lat": 37.77764, "lon": -122.45537, "name": "Turk St & Stanyan St"}, {"id": "6732", "lat": 37.77756, "lon": -122.45503, "name": "Turk St & Stanyan St"}, {"id": "6733", "lat": 37.78348, "lon": -122.40938, "name": "Turk St & Taylor St"}, {"id": "6735", "lat": 37.74072, "lon": -122.48722, "name": "Ulloa St & 30th Ave"}, {"id": "6736", "lat": 37.74153, "lon": -122.46847, "name": "Ulloa St & Forest Side Ave"}, {"id": "6737", "lat": 37.74144, "lon": -122.4688, "name": "Ulloa St & Forest Side Ave"}, {"id": "6738", "lat": 37.74112, "lon": -122.46616, "name": "Ulloa St & Lenox Way"}, {"id": "6744", "lat": 37.74101, "lon": -122.46617, "name": "Ulloa St & West Portal Ave"}, {"id": "6745", "lat": 37.7959, "lon": -122.44531, "name": "Union St & Baker St"}, {"id": "6746", "lat": 37.79575, "lon": -122.44551, "name": "Union St & Baker St"}, {"id": "6748", "lat": 37.79743, "lon": -122.4323, "name": "Union St & Buchanan St"}, {"id": "6750", "lat": 37.80041, "lon": -122.41008, "name": "Union St & Columbus Ave"}, {"id": "6751", "lat": 37.80028, "lon": -122.41031, "name": "Union St & Columbus Ave"}, {"id": "6752", "lat": 37.79632, "lon": -122.44199, "name": "Union St & Divisadero St"}, {"id": "6753", "lat": 37.79617, "lon": -122.44218, "name": "Union St & Divisadero St"}, {"id": "6754", "lat": 37.79712, "lon": -122.43566, "name": "Union St & Fillmore St"}, {"id": "6755", "lat": 37.79704, "lon": -122.43533, "name": "Union St & Fillmore St"}, {"id": "6756", "lat": 37.79821, "lon": -122.42718, "name": "Union St & Gough St"}, {"id": "6757", "lat": 37.79806, "lon": -122.42737, "name": "Union St & Gough St"}, {"id": "6758", "lat": 37.80068, "lon": -122.4075, "name": "Union St & Grant Ave"}, {"id": "6759", "lat": 37.8006, "lon": -122.40769, "name": "Union St & Grant Ave"}, {"id": "6760", "lat": 37.79927, "lon": -122.41896, "name": "Union St & Hyde St"}, {"id": "6761", "lat": 37.79912, "lon": -122.41915, "name": "Union St & Hyde St"}, {"id": "6762", "lat": 37.79969, "lon": -122.41567, "name": "Union St & Jones St"}, {"id": "6763", "lat": 37.79954, "lon": -122.41586, "name": "Union St & Jones St"}, {"id": "6764", "lat": 37.80091, "lon": -122.40596, "name": "Union St & Kearny St"}, {"id": "6765", "lat": 37.80076, "lon": -122.4061, "name": "Union St & Kearny St"}, {"id": "6766", "lat": 37.79907, "lon": -122.42061, "name": "Union St & Larkin St"}, {"id": "6767", "lat": 37.79895, "lon": -122.42053, "name": "Union St & Larkin St"}, {"id": "6768", "lat": 37.79945, "lon": -122.41755, "name": "Union St & Leavenworth St"}, {"id": "6769", "lat": 37.79932, "lon": -122.41751, "name": "Union St & Leavenworth St"}, {"id": "6770", "lat": 37.79779, "lon": -122.43046, "name": "Union St & Laguna St"}, {"id": "6771", "lat": 37.79764, "lon": -122.43065, "name": "Union St & Laguna St"}, {"id": "6773", "lat": 37.80011, "lon": -122.41237, "name": "Union St & Mason St"}, {"id": "6774", "lat": 37.79996, "lon": -122.41257, "name": "Union St & Mason St"}, {"id": "6775", "lat": 37.80109, "lon": -122.40447, "name": "Union St & Montgomery St"}, {"id": "6776", "lat": 37.80096, "lon": -122.40451, "name": "Union St & Montgomery St"}, {"id": "6777", "lat": 37.79674, "lon": -122.43869, "name": "Union St & Pierce St"}, {"id": "6778", "lat": 37.79659, "lon": -122.43888, "name": "Union St & Pierce St"}, {"id": "6779", "lat": 37.7988, "lon": -122.4225, "name": "Union St & Polk St"}, {"id": "6780", "lat": 37.79868, "lon": -122.42243, "name": "Union St & Polk St"}, {"id": "6782", "lat": 37.80037, "lon": -122.40927, "name": "Union St & Stockton St"}, {"id": "6783", "lat": 37.79989, "lon": -122.41402, "name": "Union St & Taylor St"}, {"id": "6785", "lat": 37.79974, "lon": -122.41422, "name": "Union St & Taylor St"}, {"id": "6786", "lat": 37.79859, "lon": -122.42424, "name": "Union St & Van Ness Ave"}, {"id": "6787", "lat": 37.79847, "lon": -122.42415, "name": "Union St & Van Ness Ave"}, {"id": "6788", "lat": 37.72514, "lon": -122.41354, "name": "University St & Bacon St"}, {"id": "6789", "lat": 37.72499, "lon": -122.41339, "name": "University St & Bacon St"}, {"id": "6792", "lat": 37.72739, "lon": -122.41439, "name": "University St & Felton St"}, {"id": "6793", "lat": 37.72273, "lon": -122.41253, "name": "University St & Woolsey St"}, {"id": "6796", "lat": 37.76582, "lon": -122.4428, "name": "Upper Ter & Buena Vista Ave West"}, {"id": "6896", "lat": 37.73785, "lon": -122.46914, "name": "West Portal Ave & 14th Ave"}, {"id": "6898", "lat": 37.73786, "lon": -122.46904, "name": "West Portal Ave & 14th Ave"}, {"id": "6899", "lat": 37.73649, "lon": -122.47052, "name": "West Portal Ave & 15th Ave"}, {"id": "6904", "lat": 37.73984, "lon": -122.46698, "name": "West Portal Ave & Vicente St"}, {"id": "6907", "lat": 37.75368, "lon": -122.45798, "name": "117 Warren Dr"}, {"id": "6908", "lat": 37.7554, "lon": -122.46131, "name": "345 Warren Dr E"}, {"id": "6909", "lat": 37.75691, "lon": -122.46148, "name": "400 Warren Dr E"}, {"id": "6910", "lat": 37.75772, "lon": -122.4619, "name": "455 Warren Dr"}, {"id": "6911", "lat": 37.75376, "lon": -122.45997, "name": "Warren Dr & Christopher Dr"}, {"id": "6912", "lat": 37.75447, "lon": -122.46108, "name": "Warren Dr & Devonshire Way"}, {"id": "6913", "lat": 37.75869, "lon": -122.46313, "name": "Warren Dr & Locksley Ave"}, {"id": "6914", "lat": 37.75534, "lon": -122.45635, "name": "Warren Dr & Oakpark Dr"}, {"id": "6921", "lat": 37.79341, "lon": -122.4198, "name": "Washington St & Larkin St"}, {"id": "6931", "lat": 37.79172, "lon": -122.43284, "name": "Washington St & Webster St"}, {"id": "6932", "lat": 37.73613, "lon": -122.50435, "name": "Wawona/46th Ave /SF Zoo"}, {"id": "6933", "lat": 37.74649, "lon": -122.45644, "name": "Woodside Ave & Balceta Ave"}, {"id": "6934", "lat": 37.74638, "lon": -122.45535, "name": "Woodside Ave & Hernandez Ave"}, {"id": "6935", "lat": 37.74628, "lon": -122.45559, "name": "Woodside Ave & Hernandez Ave"}, {"id": "6937", "lat": 37.74577, "lon": -122.45243, "name": "Woodside Ave & Portola Dr"}, {"id": "6938", "lat": 37.74562, "lon": -122.45222, "name": "Woodside Ave & Portola Dr"}, {"id": "6939", "lat": 37.74577, "lon": -122.45383, "name": "Woodside Ave & Ulloa St"}, {"id": "6940", "lat": 37.74569, "lon": -122.45406, "name": "Woodside Ave & Ulloa St"}, {"id": "6942", "lat": 37.71705, "lon": -122.40438, "name": "356 Wilde Ave"}, {"id": "6944", "lat": 37.71636, "lon": -122.40124, "name": "Wilde Ave & Brussels St"}, {"id": "6945", "lat": 37.71782, "lon": -122.40718, "name": "Wilde Ave & Delta St"}, {"id": "6946", "lat": 37.71661, "lon": -122.40025, "name": "Wilde Ave & Girard St"}, {"id": "6949", "lat": 37.71629, "lon": -122.4023, "name": "Wilde Ave & Goettingen St"}, {"id": "6950", "lat": 37.72702, "lon": -122.47592, "name": "Winston Dr & 20th Ave"}, {"id": "6951", "lat": 37.72688, "lon": -122.47574, "name": "Winston Dr & 20th Ave"}, {"id": "6952", "lat": 37.72806, "lon": -122.47849, "name": "Winston Dr & Buckingham Way"}, {"id": "6953", "lat": 37.72795, "lon": -122.47876, "name": "Winston Dr & Buckingham Way"}, {"id": "6954", "lat": 37.72712, "lon": -122.4833, "name": "Winston Dr & Lake Merced Blvd"}, {"id": "6955", "lat": 37.72698, "lon": -122.48331, "name": "Winston Dr & Lake Merced Blvd"}, {"id": "6961", "lat": 37.75229, "lon": -122.39856, "name": "Wisconsin St & 25th St"}, {"id": "6964", "lat": 37.75345, "lon": -122.39867, "name": "Wisconsin St & Connecticut St"}, {"id": "6968", "lat": 37.72938, "lon": -122.39295, "name": "Williams Ave & 3rd St"}, {"id": "6969", "lat": 37.72925, "lon": -122.39285, "name": "Williams Ave & 3rd St"}, {"id": "6970", "lat": 37.72973, "lon": -122.39525, "name": "Williams Ave & Reddy St"}, {"id": "6971", "lat": 37.72349, "lon": -122.40941, "name": "Woolsey St & Bowdoin St"}, {"id": "6972", "lat": 37.72338, "lon": -122.40961, "name": "Woolsey St & Bowdoin St"}, {"id": "6978", "lat": 37.72374, "lon": -122.40841, "name": "Woolsey St & Hamilton St"}, {"id": "6979", "lat": 37.72362, "lon": -122.40864, "name": "Woolsey St & Hamilton St"}, {"id": "6980", "lat": 37.72271, "lon": -122.41238, "name": "Woolsey St & University St"}, {"id": "6981", "lat": 37.7389, "lon": -122.42749, "name": "Whitney St & Fairmount Street"}, {"id": "6982", "lat": 37.73334, "lon": -122.38332, "name": "Whitney Young Cir & Progress St"}, {"id": "6983", "lat": 37.73325, "lon": -122.38308, "name": "Whitney Young Cir & Progress St"}, {"id": "6984", "lat": 37.77235, "lon": -122.48408, "name": "Cross Over Dr & Fulton St"}, {"id": "6985", "lat": 37.7336, "lon": -122.45896, "name": "Yerba Buena Ave & Brentwood Ave"}, {"id": "6986", "lat": 37.7337, "lon": -122.45919, "name": "Yerba Buena Ave & Brentwood Ave"}, {"id": "7099", "lat": 37.70637, "lon": -122.45998, "name": "Mission St & San Jose Ave"}, {"id": "7125", "lat": 37.73806, "lon": -122.46898, "name": "West Portal Ave & 14th Ave"}, {"id": "7127", "lat": 37.70714, "lon": -122.41571, "name": "Geneva Ave & Rio Verde St"}, {"id": "7128", "lat": 37.7166, "lon": -122.40572, "name": "Tioga Ave & Rutland St"}, {"id": "7129", "lat": 37.77935, "lon": -122.41051, "name": "Mission St & 7th St"}, {"id": "7149", "lat": 37.79805, "lon": -122.45013, "name": "Letterman Dr & Lombard St"}, {"id": "7151", "lat": 37.73985, "lon": -122.46504, "name": "Portola Ave & Claremont Ave"}, {"id": "7160", "lat": 37.78479, "lon": -122.46682, "name": "California St & 8th Ave"}, {"id": "7171", "lat": 37.72226, "lon": -122.39584, "name": "3rd St & Paul Ave"}, {"id": "7185", "lat": 37.79785, "lon": -122.40734, "name": "Broadway & Grant Ave"}, {"id": "7186", "lat": 37.76544, "lon": -122.47721, "name": "Lincoln Way & 19th Ave"}, {"id": "7187", "lat": 37.73439, "lon": -122.37936, "name": "Middle Point Rd & Hare St"}, {"id": "7191", "lat": 37.71339, "lon": -122.40199, "name": "San Bruno Ave & Somerset St"}, {"id": "7193", "lat": 37.7201, "lon": -122.45703, "name": "Grafton Ave & Plymouth Ave"}, {"id": "7194", "lat": 37.7201, "lon": -122.45907, "name": "Grafton Ave & Capitol Ave"}, {"id": "7195", "lat": 37.7201, "lon": -122.46111, "name": "Grafton Ave & Jules Ave"}, {"id": "7196", "lat": 37.71976, "lon": -122.46523, "name": "Garfield St & Victoria St"}, {"id": "3794", "lat": 37.80343, "lon": -122.43334, "name": "Buchanan St & Bay St"}, {"id": "3797", "lat": 37.72599, "lon": -122.47687, "name": "90 Buckingham Way"}, {"id": "3798", "lat": 37.72597, "lon": -122.47714, "name": "91 Buckingham Way"}, {"id": "3799", "lat": 37.72594, "lon": -122.47889, "name": "170 Buckingham Way"}, {"id": "3800", "lat": 37.72587, "lon": -122.47879, "name": "190 Buckingham Way"}, {"id": "3801", "lat": 37.72691, "lon": -122.48004, "name": "280 Buckingham Way"}, {"id": "3802", "lat": 37.72748, "lon": -122.48004, "name": "281 Buckingham Way"}, {"id": "3803", "lat": 37.72803, "lon": -122.47913, "name": "Buckingham Way & Winston Dr"}, {"id": "3911", "lat": 37.76575, "lon": -122.45013, "name": "Carl St & Cole St"}, {"id": "3912", "lat": 37.765, "lon": -122.45656, "name": "Carl St & Hillway Ave"}, {"id": "3913", "lat": 37.76493, "lon": -122.45651, "name": "Carl St & Hillway Ave"}, {"id": "3914", "lat": 37.7655, "lon": -122.45259, "name": "Carl St & Stanyan St"}, {"id": "3915", "lat": 37.76537, "lon": -122.45293, "name": "Carl St & Stanyan St"}, {"id": "3920", "lat": 37.73573, "lon": -122.38354, "name": "Cashmere St & Hudson Ave"}, {"id": "3921", "lat": 37.73585, "lon": -122.38695, "name": "Cashmere St & La Salle Ave"}, {"id": "3922", "lat": 37.7366, "lon": -122.38588, "name": "Cashmere St & Whitney Young Cir"}, {"id": "3924", "lat": 37.77342, "lon": -122.50777, "name": "Cabrillo St & 47th Ave"}, {"id": "3925", "lat": 37.77329, "lon": -122.50799, "name": "Cabrillo St & 47th Ave"}, {"id": "3927", "lat": 37.77356, "lon": -122.50998, "name": "Cabrillo St & La Playa St"}, {"id": "3930", "lat": 37.74823, "lon": -122.40976, "name": "Cesar Chavez St & Florida St"}, {"id": "3931", "lat": 37.74834, "lon": -122.41398, "name": "Cesar Chavez St & Folsom St"}, {"id": "3932", "lat": 37.74815, "lon": -122.41382, "name": "Cesar Chavez St & Folsom St"}, {"id": "3934", "lat": 37.7482, "lon": -122.41163, "name": "Cesar Chavez St & Harrison St"}, {"id": "3935", "lat": 37.74823, "lon": -122.41837, "name": "Cesar Chavez St & Mission St"}, {"id": "3936", "lat": 37.74831, "lon": -122.41576, "name": "Cesar Chavez St & South Van Ness Ave"}, {"id": "3940", "lat": 37.80005, "lon": -122.44275, "name": "Chestnut St & Divisadero St"}, {"id": "3941", "lat": 37.80085, "lon": -122.43624, "name": "Chestnut St & Fillmore St"}, {"id": "3942", "lat": 37.80074, "lon": -122.43637, "name": "Chestnut St & Fillmore St"}, {"id": "3947", "lat": 37.80149, "lon": -122.43148, "name": "Chestnut St & Laguna St"}, {"id": "3948", "lat": 37.80137, "lon": -122.43141, "name": "Chestnut St & Laguna St"}, {"id": "3952", "lat": 37.80051, "lon": -122.43935, "name": "Chestnut St & Pierce St"}, {"id": "3953", "lat": 37.80031, "lon": -122.43962, "name": "Chestnut St & Pierce St"}, {"id": "3957", "lat": 37.8022, "lon": -122.42489, "name": "Chestnut St & Van Ness Ave"}, {"id": "3958", "lat": 37.8011, "lon": -122.4345, "name": "Chestnut St & Webster St"}, {"id": "3959", "lat": 37.80095, "lon": -122.4347, "name": "Chestnut St & Webster St"}, {"id": "3960", "lat": 37.70887, "lon": -122.43422, "name": "Chicago Way & Cordova Ave"}, {"id": "3961", "lat": 37.70897, "lon": -122.43434, "name": "Chicago Way & Cordova Ave"}, {"id": "3962", "lat": 37.70983, "lon": -122.43243, "name": "Chicago Way & Naylor St"}, {"id": "3963", "lat": 37.70963, "lon": -122.4325, "name": "Chicago Way & Naylor St"}, {"id": "3964", "lat": 37.71057, "lon": -122.43138, "name": "Chicago Way & South Hill Blvd"}, {"id": "3965", "lat": 37.74202, "lon": -122.42575, "name": "Chenery St & 30th St"}, {"id": "3966", "lat": 37.74191, "lon": -122.42582, "name": "Chenery St & 30th St"}, {"id": "3967", "lat": 37.7346, "lon": -122.43233, "name": "Chenery St & Castro St"}, {"id": "3968", "lat": 37.7389, "lon": -122.42579, "name": "Chenery St & Fairmount St"}, {"id": "3969", "lat": 37.73646, "lon": -122.42894, "name": "Chenery St & Mateo St"}, {"id": "3970", "lat": 37.73633, "lon": -122.429, "name": "Chenery St & Mateo St"}, {"id": "3971", "lat": 37.73714, "lon": -122.42775, "name": "Chenery St & Miguel St"}, {"id": "3972", "lat": 37.73711, "lon": -122.42792, "name": "Chenery St & Miguel St"}, {"id": "3973", "lat": 37.73458, "lon": -122.43191, "name": "Chenery St & Natick St"}, {"id": "3974", "lat": 37.73993, "lon": -122.42569, "name": "Chenery St & Randall St"}, {"id": "3975", "lat": 37.73962, "lon": -122.4255, "name": "Chenery St & Randall St"}, {"id": "3976", "lat": 37.73563, "lon": -122.4302, "name": "Chenery St & Roanoke St"}, {"id": "3977", "lat": 37.73548, "lon": -122.43028, "name": "Chenery St & Roanoke St"}, {"id": "3978", "lat": 37.71296, "lon": -122.47268, "name": "Brotherhood Way & Chumasero Dr"}, {"id": "3979", "lat": 37.7131, "lon": -122.47278, "name": "Chumasero Dr & Brotherhood Way"}, {"id": "3981", "lat": 37.71495, "lon": -122.47313, "name": "Chumasero Dr & Font Blvd"}, {"id": "3984", "lat": 37.76462, "lon": -122.42872, "name": "Church St & 16th St"}, {"id": "4005", "lat": 37.7695, "lon": -122.42917, "name": "Church St & Duboce Ave"}, {"id": "4114", "lat": 37.8026, "lon": -122.41365, "name": "Columbus Ave & Lombard St"}, {"id": "4115", "lat": 37.80209, "lon": -122.41266, "name": "Columbus Ave & Mason St"}, {"id": "4116", "lat": 37.80549, "lon": -122.41759, "name": "Columbus Ave & North Point St"}, {"id": "4118", "lat": 37.80329, "lon": -122.41464, "name": "Columbus Ave & Taylor St"}, {"id": "4119", "lat": 37.8005, "lon": -122.41036, "name": "Columbus Ave & Union St"}, {"id": "4120", "lat": 37.80038, "lon": -122.41051, "name": "Columbus Ave & Union St"}, {"id": "4122", "lat": 37.7539, "lon": -122.39734, "name": "General Managers Office"}, {"id": "4123", "lat": 37.76498, "lon": -122.39766, "name": "Connecticut St & 17th St"}, {"id": "4124", "lat": 37.76475, "lon": -122.39778, "name": "Connecticut St & 17th St"}, {"id": "4125", "lat": 37.76261, "lon": -122.39757, "name": "Connecticut St & 18th St"}, {"id": "4126", "lat": 37.76243, "lon": -122.39741, "name": "Connecticut St & 18th St"}, {"id": "4127", "lat": 37.76115, "lon": -122.39733, "name": "Connecticut St & 19th St"}, {"id": "4128", "lat": 37.75229, "lon": -122.39648, "name": "Connecticut St & 25th St"}, {"id": "4129", "lat": 37.75133, "lon": -122.39638, "name": "Connecticut St & 26th St"}, {"id": "4130", "lat": 37.75103, "lon": -122.39649, "name": "Connecticut St & 26th St"}, {"id": "4131", "lat": 37.75, "lon": -122.39622, "name": "Connecticut St & Cesar Chavez St"}, {"id": "4132", "lat": 37.74987, "lon": -122.39638, "name": "Connecticut St & Cesar Chavez St"}, {"id": "4137", "lat": 37.71018, "lon": -122.43487, "name": "Cordova Ave & Prague St"}, {"id": "4138", "lat": 37.70964, "lon": -122.43483, "name": "Cordova Ave & Winding Way"}, {"id": "4139", "lat": 37.7095, "lon": -122.43459, "name": "Cordova Ave & Winding Way"}, {"id": "4142", "lat": 37.73909, "lon": -122.41639, "name": "Cortland Ave & Andover St"}, {"id": "4143", "lat": 37.73904, "lon": -122.41658, "name": "Cortland Ave & Andover St"}, {"id": "4145", "lat": 37.7393, "lon": -122.41846, "name": "Cortland Ave & Bocana St"}, {"id": "4146", "lat": 37.73931, "lon": -122.41872, "name": "Cortland Ave & Bocana St"}, {"id": "4147", "lat": 37.73979, "lon": -122.40975, "name": "Cortland Ave & Bradford St"}, {"id": "4148", "lat": 37.73957, "lon": -122.40703, "name": "Cortland Ave & Bayshore Blvd"}, {"id": "4149", "lat": 37.73992, "lon": -122.41997, "name": "Cortland Ave & Elsie St"}, {"id": "4150", "lat": 37.7397, "lon": -122.41969, "name": "Cortland Ave & Elsie St"}, {"id": "4151", "lat": 37.73892, "lon": -122.41455, "name": "Cortland Ave & Ellsworth St"}, {"id": "4152", "lat": 37.73883, "lon": -122.41461, "name": "Cortland Ave & Ellsworth St"}, {"id": "4153", "lat": 37.739, "lon": -122.41366, "name": "Cortland Ave & Folsom St"}, {"id": "4154", "lat": 37.73892, "lon": -122.41343, "name": "Cortland Ave & Folsom St"}, {"id": "4155", "lat": 37.73969, "lon": -122.40781, "name": "Cortland Ave & Hilton St"}, {"id": "4156", "lat": 37.74101, "lon": -122.42267, "name": "Cortland Ave & Mission St"}, {"id": "4157", "lat": 37.74085, "lon": -122.42251, "name": "Cortland Ave & Mission St"}, {"id": "4158", "lat": 37.73978, "lon": -122.41199, "name": "Cortland Ave & Prentiss St"}, {"id": "4159", "lat": 37.73957, "lon": -122.41211, "name": "Cortland Ave & Prentiss St"}, {"id": "4160", "lat": 37.74029, "lon": -122.4209, "name": "Cortland Ave & Prospect Ave"}, {"id": "4161", "lat": 37.7402, "lon": -122.42093, "name": "Cortland Ave & Prospect Ave"}, {"id": "4162", "lat": 37.7618, "lon": -122.44284, "name": "210 Corbett Ave"}, {"id": "4163", "lat": 37.76165, "lon": -122.44294, "name": "211 Corbett Ave"}, {"id": "4164", "lat": 37.75993, "lon": -122.44533, "name": "328 Corbett Ave"}, {"id": "4165", "lat": 37.75991, "lon": -122.44508, "name": "341 Corbett Ave"}, {"id": "4166", "lat": 37.7575, "lon": -122.44415, "name": "539 Corbett Ave"}, {"id": "4167", "lat": 37.75412, "lon": -122.44301, "name": "795 Corbett Ave"}, {"id": "4168", "lat": 37.75399, "lon": -122.443, "name": "800 Corbett Ave"}, {"id": "4169", "lat": 37.75208, "lon": -122.44341, "name": "925 Corbett Ave"}, {"id": "4170", "lat": 37.75168, "lon": -122.44371, "name": "956 Corbett Ave"}, {"id": "4171", "lat": 37.75894, "lon": -122.44614, "name": "Corbett Ave & Clayton St"}, {"id": "4172", "lat": 37.75866, "lon": -122.4459, "name": "Corbett Ave & Clayton St"}, {"id": "4173", "lat": 37.75085, "lon": -122.44396, "name": "Corbett Ave & Cuesta Ct"}, {"id": "4174", "lat": 37.7612, "lon": -122.44404, "name": "Corbett Ave & Danvers St"}, {"id": "4175", "lat": 37.76133, "lon": -122.44408, "name": "Corbett Ave & Danvers St"}, {"id": "4176", "lat": 37.76208, "lon": -122.43962, "name": "Corbett Ave & Douglass St"}, {"id": "4177", "lat": 37.75641, "lon": -122.44328, "name": "Corbett Ave & Graystone Ter"}, {"id": "4178", "lat": 37.75645, "lon": -122.44343, "name": "Corbett Ave & Graystone Ter"}, {"id": "4179", "lat": 37.76171, "lon": -122.44112, "name": "Corbett Ave & Hattie St"}, {"id": "4180", "lat": 37.76161, "lon": -122.44112, "name": "Corbett Ave & Hattie St"}, {"id": "4181", "lat": 37.75287, "lon": -122.44382, "name": "Corbett Ave & Hopkins Ave"}, {"id": "4182", "lat": 37.75783, "lon": -122.44474, "name": "Corbett Ave & Iron Aly"}, {"id": "4183", "lat": 37.76054, "lon": -122.44425, "name": "Corbett Ave & Mars St"}, {"id": "4184", "lat": 37.76048, "lon": -122.44448, "name": "Corbett Ave & Mars St"}, {"id": "4185", "lat": 37.7619, "lon": -122.44022, "name": "Corbett Ave & Ord St"}, {"id": "4186", "lat": 37.75548, "lon": -122.4428, "name": "Corbett Ave & Romain St"}, {"id": "4187", "lat": 37.75535, "lon": -122.44283, "name": "Corbett Ave & Romain St"}, {"id": "4188", "lat": 37.73507, "lon": -122.42182, "name": "Crescent Ave & Agnon Ave"}, {"id": "4189", "lat": 37.73497, "lon": -122.41672, "name": "Crescent Ave & Andover St"}, {"id": "4190", "lat": 37.73483, "lon": -122.41694, "name": "Crescent Ave & Andover St"}, {"id": "4191", "lat": 37.73497, "lon": -122.41973, "name": "Crescent Ave & Arnold Ave"}, {"id": "4192", "lat": 37.73525, "lon": -122.42406, "name": "Crescent Ave & College Ave"}, {"id": "4195", "lat": 37.7348, "lon": -122.41359, "name": "Crescent Ave & Folsom St"}, {"id": "4196", "lat": 37.73467, "lon": -122.4138, "name": "Crescent Ave & Folsom St"}, {"id": "4197", "lat": 37.73524, "lon": -122.42257, "name": "Crescent Ave & Leese St"}, {"id": "4198", "lat": 37.73542, "lon": -122.42446, "name": "Crescent Ave & Mission St"}, {"id": "4199", "lat": 37.73514, "lon": -122.42013, "name": "Crescent Ave & Murray St"}, {"id": "4200", "lat": 37.7349, "lon": -122.41821, "name": "Crescent Ave & Porter St"}, {"id": "4201", "lat": 37.73501, "lon": -122.41117, "name": "Crescent Ave & Putnam St"}, {"id": "4202", "lat": 37.73491, "lon": -122.41128, "name": "Crescent Ave & Putnam St"}, {"id": "4203", "lat": 37.73506, "lon": -122.41863, "name": "Crescent Ave & Roscoe St"}, {"id": "4204", "lat": 37.76092, "lon": -122.44763, "name": "Carmel St & Belvedere St"}, {"id": "4205", "lat": 37.76094, "lon": -122.44663, "name": "Carmel St & Twin Peaks Blvd"}, {"id": "4207", "lat": 37.7201, "lon": -122.47594, "name": "Crespi Dr & Varela Ave"}, {"id": "4209", "lat": 37.75039, "lon": -122.44658, "name": "40 Crestline Dr"}, {"id": "4210", "lat": 37.75176, "lon": -122.4462, "name": "74 Crestline Dr"}, {"id": "4211", "lat": 37.77223, "lon": -122.49318, "name": "Fulton St & 33rd Ave"}, {"id": "4314", "lat": 37.76084, "lon": -122.43493, "name": "Castro St & 18th St"}, {"id": "4315", "lat": 37.76086, "lon": -122.43505, "name": "Castro St & 18th St"}, {"id": "4316", "lat": 37.75939, "lon": -122.43491, "name": "Castro St & 19th St"}, {"id": "4317", "lat": 37.75916, "lon": -122.43479, "name": "Castro St & 19th St"}, {"id": "4318", "lat": 37.75778, "lon": -122.43477, "name": "Castro St & 20th St"}, {"id": "4319", "lat": 37.75763, "lon": -122.43464, "name": "Castro St & 20th St"}, {"id": "4320", "lat": 37.75596, "lon": -122.43447, "name": "Castro St & 21st St"}, {"id": "4321", "lat": 37.7561, "lon": -122.43462, "name": "Castro St & 21st St"}, {"id": "4322", "lat": 37.75464, "lon": -122.43448, "name": "Castro St & 22nd St"}, {"id": "4323", "lat": 37.75441, "lon": -122.43431, "name": "Castro St & 22nd St"}, {"id": "4324", "lat": 37.75278, "lon": -122.43416, "name": "Castro St & 23rd St"}, {"id": "4325", "lat": 37.7529, "lon": -122.43432, "name": "Castro St & 23rd St"}, {"id": "4326", "lat": 37.7512, "lon": -122.43401, "name": "Castro St & 24th St"}, {"id": "4327", "lat": 37.75131, "lon": -122.43411, "name": "Castro St & 24th St"}, {"id": "4328", "lat": 37.74981, "lon": -122.43404, "name": "Castro St & 25th St"}, {"id": "4329", "lat": 37.7496, "lon": -122.43383, "name": "Castro St & 25th St"}, {"id": "4330", "lat": 37.76918, "lon": -122.43596, "name": "Castro St & Duboce Ave"}, {"id": "4331", "lat": 37.76895, "lon": -122.43571, "name": "Castro St & Duboce Ave"}, {"id": "4332", "lat": 37.75189, "lon": -122.43405, "name": "Castro St & Elizabeth St"}, {"id": "4333", "lat": 37.75208, "lon": -122.43425, "name": "Castro St & Elizabeth St"}, {"id": "4334", "lat": 37.7624, "lon": -122.43527, "name": "Castro St & Market St"}, {"id": "4335", "lat": 37.7489, "lon": -122.45138, "name": "City View Way & Knollview Way"}, {"id": "4336", "lat": 37.71021, "lon": -122.43796, "name": "Curtis St & Prague St"}, {"id": "4337", "lat": 37.74606, "lon": -122.38695, "name": "Cargo Way & 3rd St"}, {"id": "4338", "lat": 37.74577, "lon": -122.38665, "name": "Cargo Way & 3rd St"}, {"id": "4341", "lat": 37.70576, "lon": -122.46927, "name": "Daly City BART Station"}, {"id": "4347", "lat": 37.79261, "lon": -122.39753, "name": "Davis St & Pine St"}, {"id": "4350", "lat": 37.76606, "lon": -122.40163, "name": "De Haro St & 16th St"}, {"id": "4351", "lat": 37.76476, "lon": -122.40152, "name": "De Haro St & 17th St"}, {"id": "4352", "lat": 37.76221, "lon": -122.40124, "name": "De Haro St & 18th St"}, {"id": "4353", "lat": 37.76093, "lon": -122.40112, "name": "De Haro St & 19th St"}, {"id": "4354", "lat": 37.75967, "lon": -122.40103, "name": "De Haro St & 20th St"}, {"id": "4355", "lat": 37.75744, "lon": -122.40082, "name": "De Haro St & 22nd St"}, {"id": "4356", "lat": 37.75489, "lon": -122.40057, "name": "De Haro St & 23rd St"}, {"id": "4357", "lat": 37.7635, "lon": -122.40137, "name": "De Haro St & Mariposa St"}, {"id": "4358", "lat": 37.75802, "lon": -122.40087, "name": "De Haro St & Southern Heights Ave"}, {"id": "4359", "lat": 37.74693, "lon": -122.4402, "name": "5157 Diamond Heights Blvd"}, {"id": "4360", "lat": 37.7402, "lon": -122.43576, "name": "Diamond Heights Blvd & Addison St"}, {"id": "4361", "lat": 37.73867, "lon": -122.43668, "name": "Diamond Heights Blvd & Berkeley"}, {"id": "4362", "lat": 37.7386, "lon": -122.4369, "name": "Diamond Heights Blvd & Berkeley Way"}, {"id": "4363", "lat": 37.74185, "lon": -122.43566, "name": "Diamond Heights Blvd & Diamond St"}, {"id": "4364", "lat": 37.7417, "lon": -122.43577, "name": "Diamond Heights Blvd & Diamond St"}, {"id": "4366", "lat": 37.74524, "lon": -122.43985, "name": "Diamond Heights Blvd & Duncan St"}, {"id": "4367", "lat": 37.74363, "lon": -122.43751, "name": "Diamond Heights Blvd & Gold Mine Dr"}, {"id": "4368", "lat": 37.74029, "lon": -122.43588, "name": "Diamond Heights Blvd & Gold Mine Dr"}, {"id": "4369", "lat": 37.74359, "lon": -122.43786, "name": "Diamond Heights Blvd & Gold Mine Dr"}, {"id": "4371", "lat": 37.75108, "lon": -122.43622, "name": "Diamond St & 24th St"}, {"id": "4372", "lat": 37.74965, "lon": -122.43621, "name": "Diamond St & 25th St"}, {"id": "4373", "lat": 37.74949, "lon": -122.43606, "name": "Diamond St & 25th St"}, {"id": "4374", "lat": 37.74789, "lon": -122.43591, "name": "Diamond St & 26th St"}, {"id": "4375", "lat": 37.74785, "lon": -122.43607, "name": "Diamond St & 26th St"}, {"id": "4376", "lat": 37.74629, "lon": -122.43576, "name": "Diamond St & 27th St"}, {"id": "4377", "lat": 37.74626, "lon": -122.43592, "name": "Diamond St & 27th St"}, {"id": "4378", "lat": 37.74469, "lon": -122.4356, "name": "Diamond St & 28th St"}, {"id": "4379", "lat": 37.74465, "lon": -122.43576, "name": "Diamond St & 28th St"}, {"id": "4380", "lat": 37.74325, "lon": -122.43566, "name": "Diamond St & 29th St"}, {"id": "4381", "lat": 37.74308, "lon": -122.43549, "name": "Diamond St & 29th St"}, {"id": "4382", "lat": 37.73868, "lon": -122.43447, "name": "Diamond St & Arbor St"}, {"id": "4383", "lat": 37.73826, "lon": -122.43467, "name": "Diamond St & Arbor St"}, {"id": "4384", "lat": 37.7471, "lon": -122.43584, "name": "Diamond St & Cesar Chavez St"}, {"id": "4385", "lat": 37.74707, "lon": -122.43599, "name": "Diamond St & Cesar Chavez St"}, {"id": "4386", "lat": 37.73351, "lon": -122.43415, "name": "Diamond St & Bosworth St"}, {"id": "4387", "lat": 37.73345, "lon": -122.43422, "name": "Diamond St & Bosworth St"}, {"id": "4388", "lat": 37.73446, "lon": -122.43384, "name": "Diamond St & Chenery St"}, {"id": "4389", "lat": 37.73447, "lon": -122.43395, "name": "Diamond St & Chenery St"}, {"id": "4390", "lat": 37.74885, "lon": -122.43616, "name": "Diamond St & Clipper St"}, {"id": "4391", "lat": 37.74868, "lon": -122.43599, "name": "Diamond St & Clipper St"}, {"id": "4392", "lat": 37.7383, "lon": -122.4363, "name": "Diamond St & Conrad St"}, {"id": "4393", "lat": 37.73841, "lon": -122.43593, "name": "Diamond St & Conrad St"}, {"id": "4394", "lat": 37.7416, "lon": -122.43535, "name": "Diamond St & Diamond Heights Blvd"}, {"id": "4395", "lat": 37.73822, "lon": -122.43726, "name": "Diamond St & Diamond Heights Blvd"}, {"id": "4397", "lat": 37.74192, "lon": -122.43548, "name": "Diamond St & Diamond Heights Blvd"}, {"id": "4398", "lat": 37.74564, "lon": -122.43586, "name": "Diamond St & Duncan St"}, {"id": "4399", "lat": 37.74547, "lon": -122.43569, "name": "Diamond St & Duncan St"}, {"id": "4400", "lat": 37.7388, "lon": -122.43463, "name": "Diamond St & Moffitt St"}, {"id": "4401", "lat": 37.73889, "lon": -122.4346, "name": "Diamond St & Moffitt St"}, {"id": "4402", "lat": 37.73623, "lon": -122.43444, "name": "Diamond St & Surrey St"}, {"id": "4403", "lat": 37.73608, "lon": -122.43433, "name": "Diamond St & Surrey St"}, {"id": "4404", "lat": 37.73726, "lon": -122.43465, "name": "Diamond St & Sussex St"}, {"id": "4405", "lat": 37.73731, "lon": -122.43475, "name": "Diamond St & Sussex St"}, {"id": "4407", "lat": 37.80377, "lon": -122.4437, "name": "Divisadero St & Beach St"}, {"id": "4408", "lat": 37.78628, "lon": -122.44, "name": "Divisadero St & Bush St"}, {"id": "4409", "lat": 37.78818, "lon": -122.44039, "name": "Divisadero St & California St"}, {"id": "4410", "lat": 37.78799, "lon": -122.4405, "name": "Divisadero St & California St"}, {"id": "4411", "lat": 37.80009, "lon": -122.44296, "name": "Divisadero St & Chestnut St"}, {"id": "4412", "lat": 37.78998, "lon": -122.44074, "name": "Divisadero St & Clay St"}, {"id": "4413", "lat": 37.78997, "lon": -122.44089, "name": "Divisadero St & Clay St"}, {"id": "4520", "lat": 37.79216, "lon": -122.39107, "name": "The Embarcadero & Howard St"}, {"id": "4529", "lat": 37.80502, "lon": -122.40331, "name": "The Embarcadero & Sansome St"}, {"id": "4530", "lat": 37.80835, "lon": -122.41029, "name": "The Embarcadero & Stockton St"}, {"id": "4531", "lat": 37.7836, "lon": -122.38832, "name": "The Embarcadero & Townsend St"}, {"id": "4532", "lat": 37.79709, "lon": -122.39567, "name": "The Embarcadero & Washington St"}, {"id": "4534", "lat": 37.79635, "lon": -122.39518, "name": "The Embarcadero & Washington St"}, {"id": "4535", "lat": 37.76063, "lon": -122.43819, "name": "Eureka St & 18th St"}, {"id": "4536", "lat": 37.75903, "lon": -122.43804, "name": "Eureka St & 19th St"}, {"id": "4537", "lat": 37.75741, "lon": -122.43788, "name": "Eureka St & 20th St"}, {"id": "4538", "lat": 37.75597, "lon": -122.4379, "name": "Eureka St & 21st St"}, {"id": "4539", "lat": 37.75581, "lon": -122.43773, "name": "Eureka St & 21st St"}, {"id": "4540", "lat": 37.75437, "lon": -122.43774, "name": "Eureka St & 22nd St"}, {"id": "4543", "lat": 37.76159, "lon": -122.43828, "name": "Eureka St & Market St"}, {"id": "4544", "lat": 37.73116, "lon": -122.47474, "name": "Eucalyptus Dr & 19th Ave"}, {"id": "4545", "lat": 37.73104, "lon": -122.47454, "name": "Eucalyptus Dr & 19th Ave"}, {"id": "4546", "lat": 37.73099, "lon": -122.47244, "name": "Eucalyptus Dr & Junipero Serra Blvd"}, {"id": "4547", "lat": 37.74263, "lon": -122.38786, "name": "Evans Ave & 3rd St"}, {"id": "4548", "lat": 37.74862, "lon": -122.3967, "name": "Evans Ave & Cesar Chavez St"}, {"id": "4549", "lat": 37.74829, "lon": -122.39671, "name": "Evans Ave & Cesar Chavez St"}, {"id": "4550", "lat": 37.73877, "lon": -122.3808, "name": "Evans Ave & Keith St"}, {"id": "4551", "lat": 37.73876, "lon": -122.38108, "name": "Evans Ave & Keith St"}, {"id": "4552", "lat": 37.73767, "lon": -122.37925, "name": "Evans Ave & Middle Point Rd"}, {"id": "4553", "lat": 37.7407, "lon": -122.38451, "name": "Evans Ave & Mendell St"}, {"id": "4555", "lat": 37.74195, "lon": -122.38641, "name": "Evans Ave & Newhall St"}, {"id": "4556", "lat": 37.74726, "lon": -122.39588, "name": "Evans Ave & Napoleon St"}, {"id": "4558", "lat": 37.74, "lon": -122.38297, "name": "Evans Ave & USPO"}, {"id": "4559", "lat": 37.74299, "lon": -122.38831, "name": "Evans Ave & Phelps St"}, {"id": "4560", "lat": 37.74298, "lon": -122.38859, "name": "Evans Ave & Phelps St"}, {"id": "4561", "lat": 37.74424, "lon": -122.39053, "name": "Evans Ave & Quint St"}, {"id": "4562", "lat": 37.74628, "lon": -122.39446, "name": "Evans Ave & Selby St"}, {"id": "4564", "lat": 37.73972, "lon": -122.38281, "name": "Evans Ave Opposite US Post Office"}, {"id": "4565", "lat": 37.73284, "lon": -122.41679, "name": "909 Ellsworth St"}, {"id": "4566", "lat": 37.73281, "lon": -122.41776, "name": "945 Ellsworth St"}, {"id": "4567", "lat": 37.73262, "lon": -122.41893, "name": "989 Ellsworth St"}, {"id": "4568", "lat": 37.73471, "lon": -122.41491, "name": "Ellsworth St & Crescent Ave"}, {"id": "4571", "lat": 37.72475, "lon": -122.43059, "name": "Excelsior Ave & Madrid St"}, {"id": "4572", "lat": 37.72616, "lon": -122.43358, "name": "Excelsior Ave & Mission St"}, {"id": "4573", "lat": 37.72399, "lon": -122.42899, "name": "Excelsior Ave & Naples St"}, {"id": "4574", "lat": 37.72552, "lon": -122.43219, "name": "Excelsior Ave & Paris St"}, {"id": "4575", "lat": 37.70983, "lon": -122.39289, "name": "50 Thomas Mellon Dr"}, {"id": "4576", "lat": 37.71088, "lon": -122.39476, "name": "Executive Park Blvd & Blanken Ave"}, {"id": "4579", "lat": 37.73833, "lon": -122.43407, "name": "Farnum St & Moffitt St"}, {"id": "4581", "lat": 37.72702, "lon": -122.41634, "name": "Felton St & Amherst St"}, {"id": "4582", "lat": 37.72688, "lon": -122.41653, "name": "Felton St & Amherst St"}, {"id": "4583", "lat": 37.7264, "lon": -122.41874, "name": "Felton St & Cambridge St"}, {"id": "4584", "lat": 37.72637, "lon": -122.41851, "name": "Felton St & Cambridge St"}, {"id": "4587", "lat": 37.72597, "lon": -122.42028, "name": "Felton St & Harvard St"}, {"id": "4588", "lat": 37.72586, "lon": -122.42046, "name": "Felton St & Harvard St"}, {"id": "4589", "lat": 37.7256, "lon": -122.42204, "name": "Felton St & Madison St"}, {"id": "4590", "lat": 37.72543, "lon": -122.42211, "name": "Felton St & Madison St"}, {"id": "4593", "lat": 37.7252, "lon": -122.42324, "name": "Felton St & Peru Ave"}, {"id": "4596", "lat": 37.7274, "lon": -122.41457, "name": "Felton St & University St"}, {"id": "4603", "lat": 37.80259, "lon": -122.43668, "name": "Fillmore St & Bay St"}, {"id": "4604", "lat": 37.79416, "lon": -122.43484, "name": "Fillmore St & Broadway"}, {"id": "4605", "lat": 37.7938, "lon": -122.43488, "name": "Fillmore St & Broadway"}, {"id": "4606", "lat": 37.80442, "lon": -122.43713, "name": "Fillmore St & Beach St"}, {"id": "4607", "lat": 37.80445, "lon": -122.43696, "name": "Fillmore St & Beach St"}, {"id": "4608", "lat": 37.80109, "lon": -122.43623, "name": "Fillmore St & Chestnut St"}, {"id": "4609", "lat": 37.80089, "lon": -122.43647, "name": "Fillmore St & Chestnut St"}, {"id": "4610", "lat": 37.80282, "lon": -122.43681, "name": "Fillmore St & Cervantes Blvd"}, {"id": "4611", "lat": 37.78173, "lon": -122.43233, "name": "Fillmore St & Eddy St"}, {"id": "4612", "lat": 37.78152, "lon": -122.4324, "name": "Fillmore St & Eddy St"}, {"id": "4613", "lat": 37.77986, "lon": -122.43196, "name": "Fillmore St & Golden Gate Ave"}, {"id": "4614", "lat": 37.78473, "lon": -122.43292, "name": "Fillmore St & Geary Blvd"}, {"id": "4615", "lat": 37.78398, "lon": -122.43291, "name": "Fillmore St & Geary Blvd"}, {"id": "4616", "lat": 37.777, "lon": -122.43137, "name": "Fillmore St & Grove St"}, {"id": "4617", "lat": 37.77686, "lon": -122.43147, "name": "Fillmore St & Grove St"}, {"id": "4618", "lat": 37.7722, "lon": -122.43054, "name": "Fillmore St & Haight St"}, {"id": "4620", "lat": 37.77203, "lon": -122.43035, "name": "Fillmore St & Haight St"}, {"id": "4621", "lat": 37.77611, "lon": -122.4312, "name": "Fillmore St & Hayes St"}, {"id": "4622", "lat": 37.7756, "lon": -122.43121, "name": "Fillmore St & Hayes St"}, {"id": "4623", "lat": 37.79276, "lon": -122.43456, "name": "Fillmore St & Jackson St"}, {"id": "4624", "lat": 37.79239, "lon": -122.43461, "name": "Fillmore St & Jackson St"}, {"id": "4625", "lat": 37.80561, "lon": -122.43721, "name": "Fillmore St & Jefferson St"}, {"id": "4626", "lat": 37.79971, "lon": -122.43595, "name": "Fillmore St & Lombard St"}, {"id": "4627", "lat": 37.79959, "lon": -122.43605, "name": "Fillmore St & Lombard St"}, {"id": "4628", "lat": 37.77854, "lon": -122.43169, "name": "Fillmore St & Mcallister St"}, {"id": "4629", "lat": 37.77834, "lon": -122.43176, "name": "Fillmore St & Mcallister St"}, {"id": "7263", "lat": 37.75138, "lon": -122.43199, "name": "24th St & Noe St"}, {"id": "7264", "lat": 37.79094, "lon": -122.3992, "name": "Market St & 1st St"}, {"id": "7281", "lat": 37.80515, "lon": -122.40323, "name": "Embarcadero & Sansome St"}, {"id": "7282", "lat": 37.76583, "lon": -122.45022, "name": "Carl St & Cole St"}, {"id": "7283", "lat": 37.79483, "lon": -122.39377, "name": "The Embarcadero & Ferry Building"}, {"id": "7285", "lat": 37.74404, "lon": -122.39047, "name": "Evans Ave & Quint St"}, {"id": "7286", "lat": 37.74616, "lon": -122.39392, "name": "Evans Ave & Selby St"}, {"id": "7287", "lat": 37.78038, "lon": -122.41684, "name": "Larkin St & McAllister St"}, {"id": "7288", "lat": 37.73477, "lon": -122.40159, "name": "Silver Ave & Santa Fe Ave"}, {"id": "7289", "lat": 37.7654, "lon": -122.41543, "name": "16th St & Folsom St"}, {"id": "7290", "lat": 37.7482, "lon": -122.43389, "name": "Castro St & 26th St"}, {"id": "7295", "lat": 37.76731, "lon": -122.44647, "name": "Ashbury St & Frederick St"}, {"id": "7297", "lat": 37.7088, "lon": -122.40525, "name": "Sunnydale Ave & Bay Shore Blvd"}, {"id": "7298", "lat": 37.76733, "lon": -122.40762, "name": "Potrero Ave&15th St"}, {"id": "7299", "lat": 37.77299, "lon": -122.41849, "name": "Mission St & South Van Ness Ave"}, {"id": "7300", "lat": 37.70931, "lon": -122.42322, "name": "Geneva Ave & Carter St"}, {"id": "7301", "lat": 37.78585, "lon": -122.41198, "name": "O'Farrell St & Taylor St"}, {"id": "7302", "lat": 37.79107, "lon": -122.40095, "name": "Bush St & Sansome St"}, {"id": "7304", "lat": 37.70908, "lon": -122.4231, "name": "Geneva Ave&Carter St"}, {"id": "7306", "lat": 37.73809, "lon": -122.46904, "name": "West Portal Ave & 14th Ave"}, {"id": "7307", "lat": 37.74004, "lon": -122.45054, "name": "Myra Way & Reposa Way"}, {"id": "7308", "lat": 37.75843, "lon": -122.46386, "name": "7th Ave & Lawton St"}, {"id": "7310", "lat": 37.7667, "lon": -122.43828, "name": "Roosevelt Way & Buena Vista Ter"}, {"id": "7312", "lat": 37.75244, "lon": -122.41413, "name": "Folsom St & 24th St"}, {"id": "7313", "lat": 37.73837, "lon": -122.40731, "name": "Bayshore Blvd & Alemany Blvd"}, {"id": "7320", "lat": 37.72313, "lon": -122.39524, "name": "3rd St & Fitzgerald Ave"}, {"id": "7321", "lat": 37.76905, "lon": -122.38923, "name": "3rd St & Warriors Way"}, {"id": "7324", "lat": 37.76871, "lon": -122.38938, "name": "3rd St & Gene Friend Way"}, {"id": "7325", "lat": 37.71959, "lon": -122.46995, "name": "Garfield St & Byxbee St"}, {"id": "7326", "lat": 37.71959, "lon": -122.46815, "name": "Garfield St & Vernon St"}, {"id": "7328", "lat": 37.7119, "lon": -122.40578, "name": "Leland Ave & Alpha St"}, {"id": "7329", "lat": 37.71114, "lon": -122.40379, "name": "Leland Ave & Bayshore Blvd"}, {"id": "7330", "lat": 37.71334, "lon": -122.40715, "name": "Raymond Ave & Rutland St"}, {"id": "7331", "lat": 37.71384, "lon": -122.40905, "name": "Raymond Ave & Delta St"}, {"id": "7332", "lat": 37.71503, "lon": -122.41347, "name": "Raymond Ave & Sawyer St"}, {"id": "7333", "lat": 37.71334, "lon": -122.41444, "name": "Sawyer St & Visitacion Ave"}, {"id": "7334", "lat": 37.71223, "lon": -122.40218, "name": "Bayshore Blvd & Blanken Ave"}, {"id": "7335", "lat": 37.71442, "lon": -122.41121, "name": "Raymond Ave & Elliot St"}, {"id": "7556", "lat": 37.82317, "lon": -122.36852, "name": "Avenue H & 5th St"}, {"id": "7557", "lat": 37.82515, "lon": -122.3698, "name": "Avenue H & 9th St"}, {"id": "7558", "lat": 37.82828, "lon": -122.37176, "name": "Avenue H & 13th St"}, {"id": "7561", "lat": 37.77306, "lon": -122.45251, "name": "Hayes St & Shrader St"}, {"id": "7563", "lat": 37.78117, "lon": -122.41219, "name": "McAllister St & Jones St"}, {"id": "7568", "lat": 37.80191, "lon": -122.44333, "name": "Divisadero St & Bay St"}, {"id": "7572", "lat": 37.74859, "lon": -122.47383, "name": "17th Ave & Quintara St"}, {"id": "7573", "lat": 37.74883, "lon": -122.4738, "name": "Quintara St & 17th Ave"}, {"id": "7577", "lat": 37.74145, "lon": -122.41122, "name": "Bernal Heights Blvd & Powhattan St"}, {"id": "7592", "lat": 37.74806, "lon": -122.42006, "name": "Cesar Chavez St. & Valencia St."}, {"id": "7606", "lat": 37.70705, "lon": -122.46865, "name": "Daly City BART West Station Rd."}, {"id": "7622", "lat": 37.77624, "lon": -122.39852, "name": "5th St & Brannan St"}, {"id": "7624", "lat": 37.73039, "lon": -122.50237, "name": "Zoo Rd & Amory Rd"}, {"id": "7626", "lat": 37.73327, "lon": -122.41392, "name": "Alemany Blvd & Flosom St"}, {"id": "7632", "lat": 37.7438, "lon": -122.38331, "name": "Mendell St & Cargo Way"}, {"id": "7635", "lat": 37.78089, "lon": -122.41359, "name": "McAllister St & Leavenworth St"}, {"id": "7636", "lat": 37.77207, "lon": -122.43047, "name": "Fillmore St & Haight St"}, {"id": "7638", "lat": 37.72343, "lon": -122.44082, "name": "Ocean Ave & Otsego Ave"}, {"id": "7671", "lat": 37.71642, "lon": -122.44101, "name": "Geneva Ave & Mission St"}, {"id": "7677", "lat": 37.77613, "lon": -122.41161, "name": "8th St & Howard"}, {"id": "7685", "lat": 37.74806, "lon": -122.4449, "name": "Burnett Ave & Dawnview Way"}, {"id": "7687", "lat": 37.76252, "lon": -122.46095, "name": "Parnassus Ave &4th Ave"}, {"id": "7688", "lat": 37.7633, "lon": -122.45821, "name": "513 Parnassus Ave"}, {"id": "7689", "lat": 37.73489, "lon": -122.41568, "name": "Crescent Ave & Anderson St"}, {"id": "7719", "lat": 37.73707, "lon": -122.37952, "name": "Middle Point & Acacia"}, {"id": "7720", "lat": 37.77161, "lon": -122.5033, "name": "Fulton St & 43rd Ave"}, {"id": "7721", "lat": 37.77283, "lon": -122.47652, "name": "Fulton St & Park Presidio"}, {"id": "7833", "lat": 37.79377, "lon": -122.39373, "name": "Steuart St & Don Chee Way"}, {"id": "7841", "lat": 37.74625, "lon": -122.4194, "name": "Mission St & Power St"}, {"id": "7842", "lat": 37.70651, "lon": -122.46863, "name": "Daly City BART Station"}, {"id": "7843", "lat": 37.73793, "lon": -122.42946, "name": "Bemis St & Addison St"}, {"id": "7844", "lat": 37.78501, "lon": -122.46428, "name": "California St & 6th Ave"}, {"id": "7849", "lat": 37.76018, "lon": -122.39335, "name": "Pennslvania St & 20th St"},